TIMESTAMP,DISTANCE,AVG_LAT,AVG_LNG,GPS_ACCURACY,AVG_SPEED_BY_GPS,ACCLERATOR_STD,MAX_ACCLERATOR,MIN_ACCLERATOR,PERCENTILE_25_ACCLERATOR,PERCENTILE_75_ACCLERATOR,ACCLERATOR_ENTROPY,AVG_ROLL,AVG_YAW,AVG_PITCH,WEEK_DAY,LABEL1,LABEL2
1480339740,6.232241421702658,42.331597289548206,-71.109924848969911,10.0,0.10387069036171097,0.00012344036950057402,0.00039146516201971678,3.5372817081688346e-05,5.6496869196422617e-05,0.00014131619276717204,1.7917594692280547,-0.080650942667872025,-0.96460127101377469,-0.0027850880494196171,1,0,6
1480339770,0.0,42.331596817860714,-71.109925936973795,10.0,0.0,9.2001564854152647e-06,5.941952529015423e-05,3.5372817081688346e-05,3.7378969289458572e-05,5.3115050633934297e-05,1.7917594692280547,-0.0047474422108710742,-0.91592204057510085,-0.079606884974092587,1,0,6
1480339800,0.0,42.331596817860714,-71.109925936973795,10.0,0.0,1.3039355218168663e-05,7.699907986313966e-05,3.6491396615792136e-05,3.8321706888312663e-05,4.8319405877246088e-05,1.945910149055313,-0.0047620086023677163,-0.91597441274889324,-0.079631356124323413,1,0,6
1480339830,0.0,42.331596817860714,-71.109925936973795,10.0,0.0,1.305607975083952e-05,7.699907986313966e-05,3.490802784253306e-05,3.9821015477423024e-05,4.8166067563591704e-05,1.945910149055313,-0.0047641513550421852,-0.91636553773858831,-0.079619933811754362,1,0,6
1480339860,0.0,42.331596817860714,-71.109925936973795,10.0,0.0,9.2307254563636791e-06,4.5585574412892175e-05,1.9559709035716191e-05,2.6989375465483759e-05,4.1007235327142208e-05,1.7917594692280547,-0.0046500995372104892,-0.9165943949528369,-0.079577465449511456,1,0,6
1480339890,0.0,42.331596817860714,-71.109925936973795,10.0,0.0,2.8836764780502109e-06,2.8714433518297232e-05,1.9559709035716191e-05,2.5090035172052027e-05,2.7531494982093139e-05,1.945910149055313,-0.0046773591945173231,-0.91576453049728834,-0.079531016342780703,1,0,6
1480339920,0.0,42.331596817860714,-71.109925936973795,10.0,0.0,3.9478115026142989e-06,3.650191466067471e-05,2.3906872110540551e-05,2.5334401575159266e-05,2.9288738086157227e-05,1.945910149055313,-0.0046183789947481573,-0.91476847428732988,-0.079494515432243881,1,0,6
1480339950,0.0,42.331596817860714,-71.109925936973795,10.0,0.0,4.7671323879786266e-06,3.650191466067471e-05,2.3868802959906782e-05,2.576246435107058e-05,3.3869878432281217e-05,1.7917594692280547,-0.0045481152342531405,-0.9140329253454702,-0.079526774465067521,1,0,6
1480339980,0.0,42.331596817860714,-71.109925936973795,10.0,0.0,5.3234926234964129e-06,4.2216427388682208e-05,2.3868802959906782e-05,2.9345594428461197e-05,3.4598918612156363e-05,1.945910149055313,-0.0045899758801661106,-0.91395279705068577,-0.079477744939204981,1,0,6
1480340010,0.0,42.331596817860714,-71.109925936973795,10.0,0.0,4.3751075053471372e-06,4.2216427388682208e-05,2.8814182717170467e-05,3.1507177821220824e-05,3.6787116060966283e-05,1.945910149055313,-0.0045685688551440435,-0.91414460308650269,-0.079395152415709394,1,0,6
1480340040,0.0,42.331596817860714,-71.109925936973795,10.0,0.0,2.765206084636897e-06,3.8629716032318872e-05,3.01841727097688e-05,3.2804843547816796e-05,3.5756834275442154e-05,1.7917594692280547,-0.0045180436319291499,-0.9142799101221436,-0.079341663991822811,1,0,6
1480340070,0.0,42.331596817860714,-71.109925936973795,10.0,0.0,3.3838865151767722e-06,3.6611098790028321e-05,2.6102693853319589e-05,3.0833076878979929e-05,3.4876940717387244e-05,1.945910149055313,-0.0045120806892012116,-0.91448157255135043,-0.079387750646795929,1,0,6
1480340100,0.0,42.331596817860714,-71.109925936973795,10.0,0.0,5.5350684892451264e-06,4.2141125866417016e-05,2.455735972769783e-05,2.8782665680070121e-05,3.4876940717387244e-05,1.945910149055313,-0.0045274550139536201,-0.91481555340929488,-0.079373013595865544,1,0,6
1480340130,0.0,42.331596817860714,-71.109925936973795,10.0,0.0,6.539046791902326e-06,4.2170603775068053e-05,2.455735972769783e-05,3.0107930557954452e-05,3.9471503776517927e-05,1.7917594692280547,-0.0045452363402523951,-0.91445797193371448,-0.079301426627581689,1,0,6
1480340160,0.0,42.331596817860714,-71.109925936973795,10.0,0.0,6.1292701132295868e-06,4.2170603775068053e-05,2.1520265383266788e-05,2.5514425080413699e-05,3.1083320753957744e-05,1.945910149055313,-0.0045025289809015418,-0.91408243252271359,-0.079286790819650399,1,0,6
1480340190,0.0,42.331596817860714,-71.109925936973795,10.0,0.0,8.6749080662740134e-06,4.9161194656455606e-05,2.1520265383266788e-05,2.5514425080413699e-05,3.593729552572354e-05,1.945910149055313,-0.0045036271922289529,-0.91421863183245933,-0.079222768575019337,1,0,6
1480340220,0.0,42.331596817860714,-71.109925936973795,10.0,0.0,9.7460179790008916e-06,4.9161194656455606e-05,2.2633457654619349e-05,2.3163777637867275e-05,3.690913840331597e-05,1.7917594692280547,-0.0045298288667931794,-0.91440576533963691,-0.079184187104440348,1,0,6
1480340250,0.0,42.331596817860714,-71.109925936973795,10.0,0.0,6.4259806840001565e-06,4.2674829321108428e-05,2.2633457654619349e-05,2.3362134836605685e-05,2.7890380625497563e-05,1.945910149055313,-0.0045500677829261801,-0.91413488500649243,-0.079129067692226565,1,0,6
1480340280,0.0,42.331596817860714,-71.109925936973795,10.0,0.0,5.3100546368685107e-06,4.2674829321108428e-05,2.6615655318702377e-05,2.7127897390827981e-05,3.1299446065801714e-05,1.945910149055313,-0.0045809229399864657,-0.91391981245954257,-0.079075066019223178,1,0,6
1480340310,0.0,42.331596817860714,-71.109925936973795,10.0,0.0,5.2298055584900589e-06,3.291396436735196e-05,1.7013893915983751e-05,2.2208118089085461e-05,2.8917609652864197e-05,1.7917594692280547,-0.0045409838615990605,-0.91420797487391259,-0.079025017152131102,1,0,6
1480340340,0.0,42.331596817860714,-71.109925936973795,10.0,0.0,6.446693007108295e-06,3.6134452741120008e-05,1.7013893915983751e-05,2.3033552115450551e-05,3.0740354167513209e-05,1.945910149055313,-0.0045072522478643443,-0.91471368132849362,-0.079032555797591234,1,0,6
1480340370,0.0,42.331596817860714,-71.109925936973795,10.0,0.0,5.7210975929683906e-06,3.6134452741120008e-05,1.8675761278151534e-05,2.5205441207621514e-05,3.2769563124549918e-05,1.945910149055313,-0.004519115976098954,-0.91521339500116705,-0.079046954346044959,1,0,6
1480340400,0.0,42.331596817860714,-71.109925936973795,10.0,0.0,5.4314536146997984e-06,3.3439702238247373e-05,1.8675761278151534e-05,2.3808709343058436e-05,3.2570082482492619e-05,1.7917594692280547,-0.0044767961894473267,-0.915503720522993,-0.079049855327132337,1,0,6
1480340430,0.0,42.331596817860714,-71.109925936973795,10.0,0.0,4.9030926259909205e-06,3.3439702238247373e-05,1.9992558571570956e-05,2.5208861944725304e-05,3.3027877371622871e-05,1.945910149055313,-0.0045142813965104315,-0.91536800471409718,-0.07911652768884124,1,0,6
1480340460,0.0,42.331596817860714,-71.109925936973795,10.0,0.0,4.6851582270388837e-06,3.2741778465986704e-05,1.7926679677644432e-05,2.2265365526528985e-05,2.7673258844396916e-05,1.945910149055313,-0.0045360390178541829,-0.91538475704442157,-0.079133562995806386,1,0,6
1480340490,0.0,42.331596817860714,-71.109925936973795,10.0,0.0,3.3029873399537226e-06,2.8097393223386451e-05,1.7926679677644432e-05,2.0870492432523338e-05,2.4751447906173774e-05,1.7917594692280547,-0.0044833171821023988,-0.91535544338848851,-0.079129331272025441,1,0,6
1480340520,0.0,42.331596817860714,-71.109925936973795,10.0,0.0,2.9097496379731157e-06,2.9714580739825322e-05,2.0736903160490144e-05,2.237259594339007e-05,2.5986134875392601e-05,1.945910149055313,-0.0045252499115237517,-0.91493977452622721,-0.079166764096908773,1,0,6
1480340550,0.0,42.331596817860714,-71.109925936973795,10.0,0.0,4.8588479458346516e-06,3.2907351447884889e-05,1.6206419666859685e-05,2.4236391615983639e-05,2.834399944840023e-05,1.945910149055313,-0.0045110604869913881,-0.91473196265722401,-0.079156962989821875,1,0,6
1480340580,0.0,42.331596817860714,-71.109925936973795,10.0,0.0,5.962761729314546e-06,3.2907351447884889e-05,1.6206419666859685e-05,1.7451926941932051e-05,2.5801936390902832e-05,1.7917594692280547,-0.0045008004279804177,-0.91505649825073998,-0.079140831672643894,1,0,6
1480340610,0.0,42.331596817860714,-71.109925936973795,10.0,0.0,4.3839806661554956e-06,2.6362485768807201e-05,1.499166704233763e-05,1.7872980752175667e-05,2.5849792602629907e-05,1.945910149055313,-0.004533120164325311,-0.91540722999842417,-0.079201024436524131,1,0,6
1480340640,0.0,42.331596817860714,-71.109925936973795,10.0,0.0,4.2226846898248264e-06,2.6362485768807201e-05,1.499166704233763e-05,1.7315742173780738e-05,2.4600891631013605e-05,1.945910149055313,-0.0045495258070530602,-0.91551327413154271,-0.079227038372711361,1,0,6
1480340670,0.0,42.331596817860714,-71.109925936973795,10.0,0.0,3.4035355299723821e-06,2.5973971094808665e-05,1.7081640284953781e-05,1.8049153451873705e-05,2.4089435750958448e-05,1.7917594692280547,-0.0045365091546032193,-0.91562127989836484,-0.079257804363176226,1,0,6
1480340700,0.0,42.331596817860714,-71.109925936973795,10.0,0.0,3.8530743616287043e-06,2.9074460809069101e-05,1.7341412348950465e-05,1.9884084174230074e-05,2.5536849276706772e-05,1.945910149055313,-0.0045400380275512934,-0.91560239203435201,-0.079278570310009705,1,0,6
1480340730,0.0,42.331596817860714,-71.109925936973795,10.0,0.0,3.8396180719293515e-06,2.9074460809069101e-05,1.7341412348950465e-05,2.0259812888739587e-05,2.5960098178494332e-05,1.945910149055313,-0.0045713166697878655,-0.91540723808855184,-0.079223296303409935,1,0,6
1480340760,0.0,42.331596817860714,-71.109925936973795,10.0,0.0,2.1641202557992976e-06,2.6820468898383785e-05,2.0298539048690753e-05,2.1158038361390131e-05,2.3641298930575049e-05,1.7917594692280547,-0.0045896235968703779,-0.91503864087941256,-0.079225525580207914,1,0,6
1480340790,0.0,42.331596817860714,-71.109925936973795,10.0,0.0,3.795176688711621e-06,2.6396677725844113e-05,1.5959394946678254e-05,1.9026149779099033e-05,2.4757040669492602e-05,1.945910149055313,-0.0046089321479062485,-0.9152998815849267,-0.079309394057077473,1,0,6
1480340820,0.0,42.331596817860714,-71.109925936973795,10.0,0.0,5.6874632770922655e-06,3.2193841509721736e-05,1.5959394946678254e-05,1.7185787306726956e-05,2.6381409123568489e-05,1.945910149055313,-0.0045734264701782282,-0.91588068541297096,-0.079279100386630622,1,0,6
1480340850,0.0,42.331596817860714,-71.109925936973795,10.0,0.0,5.7518645425748426e-06,3.2193841509721736e-05,1.5018201589951476e-05,1.8141297506284874e-05,2.5696353042729792e-05,1.7917594692280547,-0.0045577670306461496,-0.91631518564186487,-0.079292532658686576,1,0,6
1480340880,0.0,42.331596817860714,-71.109925936973795,10.0,0.0,4.374529515633788e-06,2.6766483188330866e-05,1.5018201589951476e-05,1.8743173233264112e-05,2.4604813832892807e-05,1.945910149055313,-0.0045787861738495724,-0.91680906777337712,-0.079334870405800006,1,0,6
1480340910,0.0,42.331596817860714,-71.109925936973795,10.0,0.0,7.1035796277248433e-06,3.8556771247071973e-05,1.5596237537978969e-05,1.9164169670178042e-05,2.4900160326343644e-05,1.945910149055313,-0.0045802355844436968,-0.91699315612082732,-0.079379122594307003,1,0,6
1480340940,0.0,42.331596817860714,-71.109925936973795,10.0,0.0,7.9020019211909775e-06,3.8556771247071973e-05,1.5272408858087877e-05,1.6828711721040117e-05,2.2123063930623509e-05,1.7917594692280547,-0.0046345472301222521,-0.91710570341447706,-0.07946252205555647,1,0,6
1480340970,0.0,42.331596817860714,-71.109925936973795,10.0,0.0,3.9031229958004457e-06,2.7328851924942595e-05,1.5272408858087877e-05,1.7003433880156155e-05,2.1769255218525175e-05,1.945910149055313,-0.0045915757373382092,-0.9174526738515133,-0.079454164749484496,1,0,6
1480341000,0.0,42.331596817860714,-71.109925936973795,10.0,0.0,4.7477901955166238e-06,2.8292868476910484e-05,1.5311444733707272e-05,1.8191758709599625e-05,2.5808666671500527e-05,1.945910149055313,-0.004575878119203485,-0.91747349452192017,-0.079442508280486976,1,0,6
1480341030,0.0,42.331596817860714,-71.109925936973795,10.0,0.0,5.3009135289112409e-06,2.8292868476910484e-05,1.5039195625181247e-05,1.7229498200453846e-05,2.6674814686334842e-05,1.7917594692280547,-0.00462142843767254,-0.917682512603062,-0.079451684620615706,1,0,6
1480341060,0.0,42.331596817860714,-71.109925936973795,10.0,0.0,6.0523912883051534e-06,2.7688160564647295e-05,9.6466725212501052e-06,1.8029128306098462e-05,2.5226958854893605e-05,1.945910149055313,-0.0045990769001859879,-0.91752015027617773,-0.079476330527967209,1,0,6
1480341090,0.0,42.331596817860714,-71.109925936973795,10.0,0.0,5.4811623896268433e-06,2.7688160564647295e-05,9.6466725212501052e-06,1.7590386008653124e-05,2.1919369963120257e-05,1.945910149055313,-0.0046148484389587846,-0.91730308111926195,-0.07946275220579202,1,0,6
1480341120,0.0,42.331596817860714,-71.109925936973795,10.0,0.0,4.9133963550747175e-06,3.1019857836398862e-05,1.4161711030290571e-05,2.0866993894962103e-05,2.1561965226551097e-05,1.7917594692280547,-0.0046161223745187115,-0.91758815531220506,-0.079464921447425715,1,0,6
1480341150,0.0,42.331596817860714,-71.109925936973795,10.0,0.0,5.0560374167744089e-06,3.2869620040078268e-05,1.8432453957691607e-05,2.1090777387158447e-05,2.7394905862248893e-05,1.945910149055313,-0.0045738225181681568,-0.9176791114683196,-0.079488824426692001,1,0,6
1480341180,0.0,42.331596817860714,-71.109925936973795,10.0,0.0,6.543149178916435e-06,3.2869620040078268e-05,1.4734999471232837e-05,1.6688499920717101e-05,2.6894463724492528e-05,1.945910149055313,-0.0045630005176401315,-0.91756119069247988,-0.079472874791663733,1,0,6
1480341210,0.0,42.331596817860714,-71.109925936973795,10.0,0.0,6.152983102932165e-06,3.0018973560886134e-05,1.0375503456443398e-05,1.4787386074360275e-05,1.5743345989405361e-05,1.7917594692280547,-0.0045723709960231356,-0.91760193250959821,-0.079438502627855956,1,0,6
1480341240,0.0,42.331596817860714,-71.109925936973795,10.0,0.0,4.0224072770577649e-06,2.441957001592197e-05,1.0375503456443398e-05,1.4192802236132617e-05,1.6841270071314145e-05,1.945910149055313,-0.0046216012599674689,-0.91813550192826099,-0.0794317624541655,1,0,6
1480341270,0.0,42.331596817860714,-71.109925936973795,10.0,0.0,4.7511355121418054e-06,2.441957001592197e-05,1.0364154652512968e-05,1.4192802236132617e-05,2.1594186664739191e-05,1.945910149055313,-0.0046199375131446094,-0.91834654309224106,-0.079423354408898569,1,0,6
1480341300,0.0,42.331596817860714,-71.109925936973795,10.0,0.0,4.6095135121790064e-06,2.294968056837076e-05,1.0364154652512968e-05,1.4906140060085633e-05,2.2157144380717625e-05,1.7917594692280547,-0.0045443905892280688,-0.91813190787125476,-0.079408992513821872,1,0,6
1480341330,0.0,42.331596817860714,-71.109925936973795,10.0,0.0,3.2221713854496518e-06,2.4072877212510844e-05,1.4697537309490812e-05,1.7486101208199056e-05,2.1877411695074476e-05,1.945910149055313,-0.0044901103197268399,-0.91819982794998389,-0.079410158288020241,1,0,6
1480341360,0.0,42.331596817860714,-71.109925936973795,10.0,0.0,4.9164352684072955e-06,2.4072877212510844e-05,8.5019066965526064e-06,1.9509737763907412e-05,2.3068127695415687e-05,1.945910149055313,-0.0044652109013055804,-0.91832652412885662,-0.07942502827490372,1,0,6
1480341390,0.0,42.331596817860714,-71.109925936973795,10.0,0.0,5.4002902315004013e-06,2.3523753062799302e-05,8.5019066965526064e-06,1.3986454721407275e-05,2.2063005572691423e-05,1.7917594692280547,-0.0044643117338479003,-0.91832783189142209,-0.079403828703592624,1,0,6
1480341420,0.0,42.331596817860714,-71.109925936973795,10.0,0.0,5.1287412039653907e-06,2.6338373773119173e-05,1.1649480740962561e-05,1.3114545492808699e-05,2.0806557299374282e-05,1.945910149055313,-0.0045053301402358057,-0.91813236877443949,-0.079342920158160551,1,0,6
1480341450,0.0,42.331596817860714,-71.109925936973795,10.0,0.0,5.2807346265758928e-06,2.6338373773119173e-05,1.1649480740962561e-05,1.2567655388995314e-05,2.1577789078496009e-05,1.945910149055313,-0.0045144889661267633,-0.9181077215382113,-0.07932557285574883,1,0,6
1480341480,0.0,42.331596817860714,-71.109925936973795,10.0,0.0,4.0199079427662832e-06,2.1956978864912908e-05,9.5468543211894531e-06,1.2469959464867296e-05,1.6943779333275164e-05,1.7917594692280547,-0.0045031127229750627,-0.91838235024033477,-0.07931848208732771,1,0,6
1480341510,0.0,42.331596817860714,-71.109925936973795,10.0,0.0,2.3700404271069366e-06,1.7011075317113146e-05,9.5468543211894531e-06,1.1084944906368086e-05,1.3608536433006118e-05,1.945910149055313,-0.0045027195306585827,-0.91860312790969434,-0.079312291630016421,1,0,6
1480341540,0.0,42.331596817860714,-71.109925936973795,10.0,0.0,2.632046217350203e-06,1.7749498951766089e-05,9.7393650700386671e-06,1.1376582169970933e-05,1.4597803892172349e-05,1.945910149055313,-0.0044968939852915541,-0.9186844787088263,-0.079302218122473442,1,0,6
1480341570,0.0,42.331596817860714,-71.109925936973795,10.0,0.0,3.0872312086228775e-06,1.7749498951766089e-05,9.7393650700386671e-06,1.1368592505071814e-05,1.6758459890203255e-05,1.7917594692280547,-0.0044663806546419403,-0.91906390418181505,-0.079232674465079714,1,0,6
1480341600,0.0,42.331596817860714,-71.109925936973795,10.0,0.0,3.7864313590042155e-06,1.9279473141674897e-05,8.6058033925136614e-06,1.1127296076977131e-05,1.7281833902048914e-05,1.945910149055313,-0.0044332395816768459,-0.91930487454478071,-0.079205205758689945,1,0,6
1480341630,0.0,42.331596817860714,-71.109925936973795,10.0,0.0,3.7355152727409874e-06,1.9279473141674897e-05,8.6058033925136614e-06,1.0083767926896744e-05,1.4778708167202206e-05,1.945910149055313,-0.0044475657653782813,-0.91956209176207515,-0.079187605143930084,1,0,6
1480341660,0.0,42.331596817860714,-71.109925936973795,10.0,0.0,0.00030278508737813378,0.00082313307139495774,9.6630104811573854e-06,9.8808154687085474e-06,1.2056964524421745e-05,1.7917594692280547,-0.032902172304511,-0.91695905470315309,-0.10670970885847304,1,0,6
1480341690,0.0,42.331596817860714,-71.109925936973795,10.0,0.0,0.00028465300071101171,0.00082313307139495774,5.8064971828279734e-06,7.6673887243035137e-06,1.3754503191098815e-05,1.945910149055313,-0.061140673689872305,-0.91353960951165358,-0.133796477781191,1,0,6
1480341720,0.0,42.331596817860714,-71.109925936973795,10.0,0.0,3.5185558793225665e-06,1.6274766639746251e-05,5.8064971828279734e-06,6.7338308720408685e-06,1.1155819706464361e-05,1.945910149055313,-0.06097566364080953,-0.91282753514432435,-0.13351440199848713,1,0,6
1480341750,0.0,42.331596817860714,-71.109925936973795,10.0,0.0,2.0791475104912887e-06,1.2248957857494825e-05,5.953007695543309e-06,7.368030432088929e-06,9.4699313503341962e-06,1.7917594692280547,-0.060923613727643718,-0.91175078877102933,-0.13370151716310699,1,0,6
1480341780,0.0,42.331596817860714,-71.109925936973795,10.0,0.0,3.6114722063068731e-06,1.7798073041139189e-05,7.3012610047963426e-06,7.6300097245008945e-06,1.2929618191392161e-05,1.945910149055313,-0.060916966697672215,-0.91110796128644356,-0.13388952883488686,1,0,6
1480341810,0.0,42.331596817860714,-71.109925936973795,10.0,0.0,3.2945456446221224e-06,1.7798073041139189e-05,7.2511349852735494e-06,9.5201250501566619e-06,1.2929618191392161e-05,1.945910149055313,-0.060916862454853893,-0.91114772551535861,-0.13400916834546941,1,0,6
1480341840,0.0,42.331596817860714,-71.109925936973795,10.0,0.0,3.3511477455062003e-06,1.662803278737877e-05,7.2511349852735494e-06,8.5066324008564636e-06,1.364121866048925e-05,1.7917594692280547,-0.060899802196075416,-0.91155674081403382,-0.13409971507531968,1,0,6
1480341870,0.0,42.331596817860714,-71.109925936973795,10.0,0.0,4.2851868009133968e-06,1.9166266565250256e-05,6.8790652839349434e-06,9.2298684173555341e-06,1.5926922720794028e-05,1.945910149055313,-0.060912840408758696,-0.91247476815862416,-0.13423055887710342,1,0,6
1480341900,0.0,42.331596817860714,-71.109925936973795,10.0,0.0,4.7606277248683383e-06,1.9166266565250256e-05,5.2642241529624673e-06,7.0598716990722145e-06,1.1837283338219076e-05,1.945910149055313,-0.060888031536603368,-0.91250938042355312,-0.13430308502512786,1,0,6
1480341930,0.0,42.331596817860714,-71.109925936973795,10.0,0.0,2.5629195223957134e-06,1.2030526447096389e-05,5.2642241529624673e-06,7.5426970912143302e-06,1.1763947325670697e-05,1.7917594692280547,-0.060827120604576235,-0.91236357570718207,-0.13434842587950216,1,0,6
1480341960,0.0,42.331596817860714,-71.109925936973795,10.0,0.0,2.1427806572744218e-06,1.3509306746454616e-05,6.9847301386985829e-06,9.938616011085966e-06,1.2247798288194567e-05,1.945910149055313,-0.060808111050580933,-0.91275651102506461,-0.13441789484324373,1,0,6
1480341990,0.0,42.331596817860714,-71.109925936973795,10.0,0.0,2.8875956413056271e-06,1.3509306746454616e-05,4.5670461056074263e-06,7.4810636245713064e-06,1.1321184768945082e-05,1.945910149055313,-0.060835093298175651,-0.9125320496314232,-0.1344478120220727,1,0,6
1480342020,0.0,42.331596817860714,-71.109925936973795,10.0,0.0,5.6633433300683114e-06,2.2319595443195395e-05,4.5670461056074263e-06,8.1548841565670354e-06,1.2939949778655542e-05,1.7917594692280547,-0.060848137018667849,-0.91241192604790777,-0.13449254658127632,1,0,6
1480342050,0.0,42.331596817860714,-71.109925936973795,10.0,0.0,4.9253761451776724e-06,2.2319595443195395e-05,6.5413925621287885e-06,8.9959641580274114e-06,1.5030230368490966e-05,1.945910149055313,-0.060857197352850965,-0.91250240852854325,-0.13453200214296759,1,0,6
1480342080,0.0,42.331596817860714,-71.109925936973795,10.0,0.0,4.4080833453320278e-06,1.728450440627206e-05,4.9066136782424873e-06,7.7532064118434197e-06,1.5030230368490966e-05,1.945910149055313,-0.060838694820114614,-0.91215312525679071,-0.13458793678437359,1,0,6
1480342110,0.0,42.331596817860714,-71.109925936973795,10.0,0.0,4.5935225914786097e-06,1.8298804287528623e-05,4.9066136782424873e-06,9.7976515828516537e-06,1.605262606734591e-05,1.7917594692280547,-0.060810731706084219,-0.91156328807252207,-0.13457136373656267,1,0,6
1480342140,0.0,42.331596817860714,-71.109925936973795,10.0,0.0,3.4643745453420951e-06,1.8298804287528623e-05,6.2011893496088255e-06,1.0234680080487037e-05,1.2326268298649956e-05,1.945910149055313,-0.060854705126625837,-0.91118602238527102,-0.13458093025594242,1,0,6
1480342170,0.0,42.331596817860714,-71.109925936973795,10.0,0.0,4.5903410979360724e-06,2.0389671339735143e-05,5.6038136440816908e-06,7.4170056204975539e-06,1.1868257511206132e-05,1.945910149055313,-0.060842953036996682,-0.9112007297901038,-0.1346490773818303,1,0,6
1480342200,0.0,42.331596817860714,-71.109925936973795,10.0,0.0,4.9511276605786792e-06,2.0389671339735143e-05,5.6038136440816908e-06,9.686350684891738e-06,1.5114732533275051e-05,1.7917594692280547,-0.060816102870808832,-0.91212742978254513,-0.13467136908882832,1,0,6
1480342230,0.0,42.331596817860714,-71.109925936973795,10.0,0.0,0.000566560925100971,0.0016307748917229051,9.2478972928765054e-06,9.8030117611621846e-06,1.5624969367426747e-05,1.945910149055313,-0.060754498487400076,-0.91224779552347424,-0.13514950053192215,1,0,6
1480342260,0.0,42.331596817860714,-71.109925936973795,10.0,0.0,0.00056654189585666765,0.0016307748917229051,7.2478111428642754e-06,9.6467740832390774e-06,1.5969668052523608e-05,1.945910149055313,-0.060805744418413778,-0.91182032049734574,-0.13520422391058573,1,0,6
1480342290,0.0,42.331596817860714,-71.109925936973795,10.0,0.0,4.6067289743448311e-06,2.1596410729693154e-05,7.2478111428642754e-06,1.1711419833359917e-05,1.614124579833003e-05,1.7917594692280547,-0.060946882190982911,-0.911825907459897,-0.13477775050559182,1,0,6
1480342320,0.0,42.331596817860714,-71.109925936973795,10.0,0.0,4.3261750379327655e-06,2.1596410729693154e-05,8.454636034079148e-06,1.1879413450502312e-05,1.826765981064932e-05,1.945910149055313,-0.060822363807153022,-0.91231755227420608,-0.13494980763500383,1,0,6
1480342350,0.0,42.331596817860714,-71.109925936973795,10.0,0.0,4.0379395844924119e-06,1.8701262063442157e-05,7.2011003850294009e-06,1.0691183015653808e-05,1.651122516490463e-05,1.945910149055313,-0.060872653184091054,-0.912712253560512,-0.13527011278881529,1,0,6
1480342380,0.0,42.331596817860714,-71.109925936973795,10.0,0.0,4.1386319789925196e-06,2.1112665497765542e-05,7.2011003850294009e-06,1.347809669519864e-05,1.5856648392593684e-05,1.7917594692280547,-0.061029761280458152,-0.91224240596067629,-0.13516597817037448,1,0,6
1480342410,0.0,42.331596817860714,-71.109925936973795,10.0,0.0,2.9334656838658554e-06,2.1112665497765542e-05,1.0779948063235209e-05,1.3729975399661357e-05,1.5604298527624907e-05,1.945910149055313,-0.061056487513171519,-0.91164105326659972,-0.13486969204144569,1,0,6
1480342440,0.0,42.331596817860714,-71.109925936973795,10.0,0.0,1.9851085944380797e-05,7.09597638232599e-05,1.0779948063235209e-05,1.3729975399661357e-05,1.6964281058509235e-05,1.945910149055313,-0.061024971017854528,-0.91201964332051144,-0.13480543040681886,1,0,6
1480342470,0.0,42.331596817860714,-71.109925936973795,10.0,0.0,2.1720255378607271e-05,7.09597638232599e-05,6.8133739776559497e-06,1.2334226884779403e-05,1.7513938855772104e-05,1.7917594692280547,-0.060893351921391344,-0.9128609156240074,-0.13473347516012449,1,0,6
1480342500,0.0,42.331596817860714,-71.109925936973795,10.0,0.0,3.3060725154780081e-06,1.5555241167706156e-05,6.8133739776559497e-06,8.2034525096460184e-06,1.3983925166968475e-05,1.945910149055313,-0.060941427085486187,-0.9131221158681736,-0.13474568926424144,1,0,6
1480342530,0.0,42.331596817860714,-71.109925936973795,10.0,0.0,3.1490840138227201e-06,1.5901085232159986e-05,6.9452715212364456e-06,8.8281113056684624e-06,1.3983925166968475e-05,1.945910149055313,-0.060972025027831299,-0.91333342209384505,-0.13471614945876786,1,0,6
1480342560,0.0,42.331596817860714,-71.109925936973795,10.0,0.0,2.7950424506317811e-06,1.6649418472868475e-05,8.1945891132813336e-06,1.2191123794227865e-05,1.5480672834941551e-05,1.7917594692280547,-0.060914074550006685,-0.9134210458319757,-0.13471787842064051,1,0,6
1480342590,0.0,42.331596817860714,-71.109925936973795,10.0,0.0,3.3908695107657052e-06,1.7289644179656547e-05,7.7576504863851955e-06,1.0018216080889019e-05,1.5434427058077366e-05,1.945910149055313,-0.060860608504914988,-0.91285096467981153,-0.13467426299945998,1,0,6
1480342620,0.0,42.331596817860714,-71.109925936973795,10.0,0.0,3.9648458033431499e-05,0.00012420549212621197,7.7576504863851955e-06,8.8956520266885129e-06,1.5339357360530365e-05,1.945910149055313,-0.060767133846888033,-0.91283458667569928,-0.13463572293192799,1,0,6
1480342650,0.0,42.331596817860714,-71.109925936973795,10.0,0.0,0.57683099674820126,1.5478350789003528,8.9211542262347221e-06,1.1071360668421276e-05,9.7823567240581548e-05,1.710560083757924,-0.24167484984353962,0.0093961074209651576,-0.3480091595809322,1,0,6
1480342680,0.0,42.331596817860714,-71.109925936973795,10.0,0.0,0.54162389963731561,1.5478350789003528,7.9306778890193326e-06,1.0761992202674552e-05,2.3517663361011658e-05,1.8675843750169276,-0.15377191606799406,1.3830034394381931,-0.35694521024105941,1,0,6
1480342710,0.0,42.331596817860714,-71.109925936973795,10.0,0.0,7.3844155305057526e-06,2.7990070584398699e-05,7.9306778890193326e-06,1.1292263337705547e-05,2.2495189701516699e-05,1.945910149055313,0.047897895569201113,1.72137305748908,-0.20365408680256086,1,0,6
1480342740,0.0,42.331596817860714,-71.109925936973795,10.0,0.0,5.2684091210406472e-06,2.5945123265408781e-05,1.13593329808223e-05,1.1400080992334974e-05,1.7618747994422338e-05,1.7917594692280547,0.047858906361151123,1.7214127349258581,-0.20363259535766418,1,0,6
1480342770,0.0,42.331596817860714,-71.109925936973795,10.0,0.0,3.8409143772554337e-06,2.1123624194166675e-05,1.0808250679714907e-05,1.3664985289210307e-05,1.9649591962050028e-05,1.945910149055313,0.047860708384802504,1.7211439277064073,-0.20352893051293217,1,0,6
1480342800,0.0,42.331596817860714,-71.109925936973795,10.0,0.0,3.4754765453743161e-06,2.1123624194166675e-05,1.0808250679714907e-05,1.5370636046969783e-05,2.027859093053362e-05,1.945910149055313,0.047887790917606567,1.720793102660034,-0.20346234147924341,1,0,6
1480342830,0.0,42.331596817860714,-71.109925936973795,10.0,0.0,4.1117241675427457e-06,2.6185608438416143e-05,1.4569936676071942e-05,1.6997285564585792e-05,2.3153238763650341e-05,1.7917594692280547,0.047908529404771936,1.7206685256006031,-0.20341851975049016,1,0,6
1480342860,0.0,42.331596817860714,-71.109925936973795,10.0,0.0,4.1871413947592703e-06,2.6185608438416143e-05,1.3175662050717627e-05,1.7003671572555389e-05,2.1986773495212731e-05,1.945910149055313,0.047921814404984955,1.7209567184116474,-0.20340559014657714,1,0,6
1480342890,0.0,42.331596817860714,-71.109925936973795,10.0,0.0,6.072518885304796e-06,3.127286627811718e-05,1.2483979967034501e-05,1.4560599117668406e-05,2.1400896023862425e-05,1.945910149055313,0.047892076126368574,1.7214736246373583,-0.20341013310890213,1,0,6
1480342920,0.0,42.331596817860714,-71.109925936973795,10.0,0.0,8.056565210293584e-06,3.6550599683825778e-05,1.2483979967034501e-05,1.9212184381018918e-05,3.030200496429792e-05,1.7917594692280547,0.047871439020797164,1.7220260263510598,-0.20346507733700483,1,0,6
1480342950,0.0,42.331596817860714,-71.109925936973795,10.0,0.0,7.6172963303471809e-06,3.6550599683825778e-05,1.1670853087758355e-05,1.7424019784230502e-05,2.6967973568272239e-05,1.945910149055313,0.047893718972244204,1.7220776389244599,-0.20348865458158016,1,0,6
1480342980,0.0,42.331596817860714,-71.109925936973795,10.0,0.0,5.4840814895054303e-06,2.6546526113704332e-05,1.1670853087758355e-05,1.2488836297117179e-05,2.2106247530612782e-05,1.945910149055313,0.047882676403944169,1.721886107800793,-0.20347403559782301,1,0,6
1480343010,0.0,42.331596817860714,-71.109925936973795,10.0,0.0,4.8041207880498851e-06,2.5370225619007041e-05,1.2262890342122079e-05,1.2941947251292069e-05,1.9967000860377095e-05,1.7917594692280547,0.047904023769403843,1.7216878815432466,-0.20349441214091335,1,0,6
1480343040,0.0,42.331596817860714,-71.109925936973795,10.0,0.0,4.6078333605664288e-06,2.5370225619007041e-05,1.3623442248831436e-05,1.6286706377912725e-05,2.4914339841378711e-05,1.945910149055313,0.047926851001304858,1.7220888507684116,-0.20354780761056901,1,0,6
1480343070,0.0,42.331596817860714,-71.109925936973795,10.0,0.0,8.0122765371455544e-06,4.0821005103446407e-05,1.4467520039708188e-05,1.8924382220247715e-05,2.4914339841378711e-05,1.945910149055313,0.047912804424393815,1.7218946085181457,-0.20349024607116287,1,0,6
1480343100,0.0,42.331596817860714,-71.109925936973795,10.0,0.0,9.4196715411871915e-06,4.0821005103446407e-05,1.4467520039708188e-05,1.6768990971030952e-05,2.8901337730546654e-05,1.7917594692280547,0.047898343077170918,1.7212066694721553,-0.20345173823800913,1,0,6
1480343130,0.0,42.331596817860714,-71.109925936973795,10.0,0.0,0.00022958219486719946,0.00067402665522994678,1.0837702818778125e-05,1.5357312333091453e-05,2.5297792561510797e-05,1.945910149055313,0.047833946271093615,1.7210898141394471,-0.20348722111123527,1,0,6
1480343160,0.0,42.331596817860714,-71.109925936973795,10.0,0.0,0.00023064641727937115,0.00067402665522994678,9.9393425974644774e-06,1.2398366710582663e-05,1.9973898784828935e-05,1.945910149055313,0.047836603176196459,1.7215488537820256,-0.20344052242592486,1,0,6
1480343190,0.0,42.331596817860714,-71.109925936973795,10.0,0.0,3.8243510474623912e-06,2.1694510033072206e-05,9.9393425974644774e-06,1.5730883136499718e-05,1.9753534623953359e-05,1.7917594692280547,0.047905138803005509,1.7223985714055952,-0.20341983830981381,1,0,6
1480343220,0.0,42.331596817860714,-71.109925936973795,10.0,0.0,2.9190030052391883e-06,2.1694510033072206e-05,1.3631762782218513e-05,1.5532781501122492e-05,2.0032857556799214e-05,1.945910149055313,0.047895287905879456,1.7223061003636342,-0.20342006584181327,1,0,6
1480343250,0.0,42.331596817860714,-71.109925936973795,10.0,0.0,3.14638467993619e-06,2.128575250198458e-05,1.3631762782218513e-05,1.3804996433707882e-05,2.0032857556799214e-05,1.945910149055313,0.047918554350191336,1.7217727501381099,-0.2033397416663287,1,0,6
1480343280,0.0,42.331596817860714,-71.109925936973795,10.0,0.0,2.7421939208233146e-05,9.1406656490469867e-05,1.3826776969156676e-05,1.607793380382696e-05,2.3793657092212324e-05,1.7917594692280547,0.049284978633501904,1.7302037384125348,-0.19613863647316099,1,0,6
1480343310,0.0,42.331596817860714,-71.109925936973795,10.0,0.0,2.475582830834118e-05,9.1406656490469867e-05,1.5878378775110414e-05,1.8478022737860905e-05,2.8466423143407318e-05,1.945910149055313,0.049979927279941667,1.7431426184757544,-0.18485100118775696,1,0,6
1480343340,0.0,42.331596817860714,-71.109925936973795,10.0,0.0,4.727361873014679e-06,3.2303220997859734e-05,1.7850967262517939e-05,2.0040285800969877e-05,2.672377082633705e-05,1.945910149055313,0.049360497858748471,1.746336117861863,-0.18175934055733758,1,0,6
1480343370,0.0,42.331596817860714,-71.109925936973795,10.0,0.0,6.3138268146608446e-06,2.7455234000556633e-05,1.0781953537425118e-05,1.3726298896060653e-05,2.4738104086272071e-05,1.7917594692280547,0.049056773620326281,1.7463828811523319,-0.18173923715982401,1,0,6
1480343400,0.0,42.331596817860714,-71.109925936973795,10.0,0.0,7.4263549334899989e-06,3.3253628642669362e-05,1.0781953537425118e-05,1.176231232788342e-05,1.8536946432252054e-05,1.945910149055313,0.048793100942222181,1.7463541657476085,-0.18179887043861656,1,0,6
1480343430,0.0,42.331596817860714,-71.109925936973795,10.0,0.0,6.8162620668194134e-06,3.3253628642669362e-05,1.1510218142570873e-05,1.5173571283222258e-05,2.0901457652898985e-05,1.945910149055313,0.048623043203210807,1.7463794137250759,-0.18184978256771342,1,0,6
1480343460,0.0,42.331596817860714,-71.109925936973795,10.0,0.0,2.5549281069186098e-06,2.3127844771949195e-05,1.4807664811382769e-05,1.6865307028495586e-05,1.8589486913698713e-05,1.7917594692280547,0.048496180671660068,1.7463322549925786,-0.18176289105227636,1,0,6
1480343490,0.0,42.331596817860714,-71.109925936973795,10.0,0.0,4.9286763763200224e-06,2.8172545076375231e-05,1.4807664811382769e-05,1.6106867968702023e-05,2.3957609436261267e-05,1.945910149055313,0.048333064845642273,1.74629949288471,-0.18177411013901471,1,0,6
1480343520,0.0,42.331596817860714,-71.109925936973795,10.0,0.0,4.4061990558740541e-06,2.8172545076375231e-05,1.5442192409215756e-05,1.7190618445106439e-05,2.3957609436261267e-05,1.945910149055313,0.048233998828650523,1.7460609633130428,-0.18174258746891811,1,0,6
1480343550,0.0,42.331596817860714,-71.109925936973795,10.0,0.0,4.1805941272169478e-06,2.2250814629118318e-05,8.278288910673823e-06,1.6959142598154677e-05,1.8056716852767384e-05,1.7917594692280547,0.04822730939785743,1.74564271309589,-0.18164695875414619,1,0,6
1480343580,0.0,42.331596817860714,-71.109925936973795,10.0,0.0,6.7451996641809125e-06,3.1487794593890921e-05,8.278288910673823e-06,1.6052625609362856e-05,2.1758566585351058e-05,1.945910149055313,0.048121712671992771,1.7457898365285527,-0.1816680710054607,1,0,6
1480343610,0.0,42.331596817860714,-71.109925936973795,10.0,0.0,5.5422463780147947e-06,3.1487794593890921e-05,1.5175829455862423e-05,1.7762243707693803e-05,2.6065420493422669e-05,1.945910149055313,0.048150421811211701,1.7463314087273858,-0.18167494931946473,1,0,6
1480343640,0.0,42.331596817860714,-71.109925936973795,10.0,0.0,3.9827906862662069e-06,2.7291570977496437e-05,1.6318121318725487e-05,1.7782417159827275e-05,2.4282565049639666e-05,1.7917594692280547,0.048190630988890669,1.7470297900585934,-0.18166173465381649,1,0,6
1480343670,0.0,42.331596817860714,-71.109925936973795,10.0,0.0,4.013452063693875e-06,2.7422999948762318e-05,1.4660285457649984e-05,1.6758466099566577e-05,2.1583793486786347e-05,1.945910149055313,0.047993395786837846,1.7469608101180931,-0.18172084850689085,1,0,6
1480343700,0.0,42.331596817860714,-71.109925936973795,10.0,0.0,9.8243130969747632e-06,4.1415867379191511e-05,9.1988628061140243e-06,1.5659520189016842e-05,2.3010806962846024e-05,1.945910149055313,0.047942979534346286,1.7466002858394316,-0.1816678999466044,1,0,6
1480343730,0.0,42.331596817860714,-71.109925936973795,10.0,0.0,9.7976661260972677e-06,4.1415867379191511e-05,9.1988628061140243e-06,1.756109914108893e-05,2.2347038802583415e-05,1.7917594692280547,0.047795642226286121,1.7462235401619584,-0.1816877421259038,1,0,6
1480343760,0.0,42.331596817860714,-71.109925936973795,10.0,0.0,3.9422458865604562e-06,2.8078779637733066e-05,1.4995937251295357e-05,1.792529827475697e-05,2.2342955448710177e-05,1.945910149055313,0.046334807568946437,1.7461731423108984,-0.18204772860969184,1,0,6
1480343790,0.0,42.331596817860714,-71.109925936973795,10.0,0.0,7.7334794895813443e-06,3.6493080231298497e-05,1.1937559046677316e-05,1.6201230155242876e-05,2.5214122859936152e-05,1.945910149055313,0.04230872509485873,1.7464008325378586,-0.18281144046122558,1,0,6
1480343820,0.0,42.331596817860714,-71.109925936973795,10.0,0.0,8.7512078791346516e-06,3.6493080231298497e-05,1.0109971495909002e-05,1.3823714126670882e-05,2.4215357416607783e-05,1.7917594692280547,0.038239175880920219,1.7468530495731367,-0.18359839627310851,1,0,6
1480343850,0.0,42.331596817860714,-71.109925936973795,10.0,0.0,4.2813291976611718e-06,2.4837321194763962e-05,1.0109971495909002e-05,1.4724526149155989e-05,1.8854180879790217e-05,1.945910149055313,0.038158572865546789,1.7466716793845172,-0.18357737673777758,1,0,6
1480343880,0.0,42.331596817860714,-71.109925936973795,10.0,0.0,1.9336956269400819e-06,1.8630185043365684e-05,1.3439501737182483e-05,1.4538029643405815e-05,1.7919421433615397e-05,1.945910149055313,0.038092191590566829,1.746243461272077,-0.18355228116830341,1,0,6
1480343910,0.0,42.331596817860714,-71.109925936973795,10.0,0.0,2.9294062623793817e-06,1.9478865394757755e-05,1.0889693353749222e-05,1.3836515557533349e-05,1.7745101412162041e-05,1.7917594692280547,0.038068953036889952,1.7459881534062331,-0.18353141887987867,1,0,6
1480343940,0.0,42.331596817860714,-71.109925936973795,10.0,0.0,4.4793849476321233e-06,2.4488338820771485e-05,1.0889693353749222e-05,1.3740368399577209e-05,2.0221860688842481e-05,1.945910149055313,0.038030223138411909,1.746532940044593,-0.18351261852196096,1,0,6
1480343970,0.0,42.331596817860714,-71.109925936973795,10.0,0.0,3.5668351044709225e-06,2.4488338820771485e-05,1.245317978056847e-05,1.7433011978178134e-05,2.1169347885625526e-05,1.945910149055313,0.037988618320603899,1.7469928476416414,-0.18353493556021455,1,0,6
1480344000,0.0,42.331596817860714,-71.109925936973795,10.0,0.0,4.2423999474312263e-06,3.0288965941838026e-05,1.6625987325214354e-05,2.0103019343338218e-05,2.3943955238697916e-05,1.7917594692280547,0.037987261511132665,1.7470915198694617,-0.18355481787026184,1,0,6
1480344030,0.0,42.331596817860714,-71.109925936973795,10.0,0.0,5.8963341735666091e-06,3.0288965941838026e-05,1.2911295502545062e-05,1.4578494380994909e-05,2.349514722292766e-05,1.945910149055313,0.037979753057882801,1.7466384009677172,-0.18350099715354057,1,0,6
1480344060,0.0,42.331596817860714,-71.109925936973795,10.0,0.0,3.9765481579882004e-06,2.4429199032913725e-05,1.2911295502545062e-05,1.4578494380994909e-05,2.0657715688428669e-05,1.945910149055313,0.037945407730383858,1.7465595404318057,-0.18348533096879929,1,0,6
1480344090,0.0,42.331596817860714,-71.109925936973795,10.0,0.0,6.6112557753161685e-06,2.4429199032913725e-05,3.7381263082269417e-06,1.5653982371734145e-05,2.1109343262985972e-05,1.7917594692280547,0.037898476205802882,1.7467849347414584,-0.18346595492868115,1,0,6
1480344120,0.0,42.331596817860714,-71.109925936973795,10.0,0.0,4.8780237171447885e-06,1.9070657305093494e-05,3.7381263082269417e-06,1.5831374058772859e-05,1.7713753932141166e-05,1.945910149055313,0.037761780689608726,1.7461679721315573,-0.18341499799326472,1,0,6
1480344150,0.0,42.331596817860714,-71.109925936973795,10.0,0.0,2.1866155097173108e-05,8.040431832851208e-05,1.5623907900835234e-05,1.7116633408670725e-05,2.0643566001101103e-05,1.945910149055313,0.038004230631467233,1.7312780062976973,-0.18118147000240242,1,0,6
1480344180,0.0,42.331596817860714,-71.109925936973795,10.0,0.0,3.1425827451380551e-05,8.4237144402157319e-05,7.404875372762195e-06,1.6854644611677135e-05,6.585735742066124e-05,1.7917594692280547,0.039597871667457353,1.6778954685994567,-0.1736449477703477,1,0,6
1480344210,3.04930388476482,42.331595576640545,-71.109927282269254,10.403342046533925,0.050821731412747005,0.041262213785320384,0.10809832640413096,7.404875372762195e-06,5.239199957318008e-05,0.06343429343062168,1.7770332013812693,-0.4353202156375589,0.74715178405237526,-0.67735916899404169,1,0,6
1480344240,21.482447097341744,42.331566020652978,-71.109912743858175,10.822127185111464,0.35804078495569575,0.31986431105471097,0.96894049125696613,0.0010760015514681364,0.050863527227999306,0.090107862076439407,1.8937882323911377,-1.0244088487601071,-0.24581099306899712,-1.0706568035556518,1,0,6
1480344270,28.130468268492493,42.331460247321367,-71.109780670209886,10.418785138577539,0.4688411378082082,1.219852284690194,3.4733732099099557,0.038458016507629714,0.05272287999105861,0.85256692018764202,1.791759469228055,-1.840038660968043,0.19272557905852072,-1.1216866876620293,1,0,6
1480344300,24.201404167238707,42.331220683448329,-71.109654754466476,10.0,0.4033567361206451,1.1212416209730471,3.4733732099099557,0.038458016507629714,0.14076974578694304,0.5927748119749231,1.9459101490553139,-1.8760424914728784,-0.015621687183849962,-1.0902254252992454,1,3,8
1480344330,49.47527008831147,42.33092936970511,-71.109553865688966,10.0,0.8245878348051912,0.18548744932106509,0.68210341697017651,0.13462811507591979,0.23134595964310173,0.50150692877666669,1.9459101490553139,-1.491310056086723,-0.88453262030643587,-0.93161941931930969,1,3,8
1480344360,75.732076262413,42.330766711889147,-71.109259834113629,10.0,1.2622012710402166,0.17827042271793664,0.74963314369222589,0.18500202871731591,0.3277229069609966,0.49209239809086813,1.791759469228055,-1.4620640773293261,-0.30443703824844209,-0.82525034714621093,1,3,8
1480344390,29.55543576988131,42.330722207475766,-71.108996823961959,10.0,0.4925905961646885,0.26356143731218884,0.74963314369222589,0.00011444425203148943,0.00058151780060493015,0.2742760140982955,1.7770332013812697,0.99061842722488636,-1.0123473733565487,-0.19306871801885822,1,3,8
1480344420,108.33977752293887,42.331028970166756,-71.108752695056467,10.03162847327039,1.8056629587156479,0.0087841308599584458,0.025473783397393718,0.00011444425203148943,0.00058151780060493015,0.0095572748243185086,1.8562701281920881,2.8431525746573159,-1.6266735707133841,0.23689098274650314,1,3,8
1480344450,282.0554580878587,42.331463704841788,-71.107733097694108,10.03162847327039,4.700924301464312,0.0071282540625472943,0.025473783397393718,0.0042506063583549782,0.0061865826795344568,0.014070512765121532,1.6581101035673729,2.8800989310489897,-1.320153647048423,0.18174784093381668,1,3,8
1480344480,201.73246329349246,42.332284603291903,-71.106582071825173,10.0,3.3622077215582076,0.014551603744586972,0.047468270670879026,7.9073812021542041e-05,0.0061522623507130926,0.012452132488926553,1.8562701281920879,2.9792464113252355,-1.0328940618866662,0.22998856603968229,1,3,8
1480344510,52.140593704293195,42.333155625362771,-71.106197152410942,11.0,0.8690098950715532,0.015912131630098126,0.047468270670879026,2.2196269709502411e-05,0.00012328634552840991,0.0093818114551596152,1.8562701281920884,3.0026028661186914,-0.63704148637660629,0.24323394125270428,1,3,8
1480344540,14.483821092924645,42.333394329568698,-71.106131770714299,11.0,0.24139701821541074,0.0021120780084453029,0.005638196529485117,2.2196269709502411e-05,7.0874366949652643e-05,0.0030754833918270495,1.710560083757924,2.93268032473553,-0.72981428699950524,0.2671812576447255,1,3,8
1480344570,13.080077901294967,42.333501152035169,-71.10608425370522,10.0,0.2180012983549161,0.0020838884870301231,0.005638196529485117,2.7135327484860766e-05,9.2753678790241583e-05,0.0019478173268179918,1.8675843750169276,2.8954004629282188,-1.0384848083490914,0.34654369724293871,1,3,8
1480344600,205.78457276776703,42.333670738192602,-71.105753847464086,10.0,3.429742879462784,0.0030917058445633907,0.0090181763912497558,2.7135327484860766e-05,0.00019201309862057779,0.0029372797168722405,1.8675843750169279,2.8732618851523339,-1.2960933920558215,0.38941466453583234,1,3,8
1480344630,326.8747468546566,42.334287055341846,-71.104395038980158,12.0,5.44791244757761,0.0025110949242512131,0.0090181763912497558,0.0016943940300856815,0.0026309150540920877,0.005937907152163819,1.7480673485460896,2.8711831393753831,-1.4727483001395383,0.35529088864127467,1,3,8
1480344660,395.900440956163,42.335039855020433,-71.102506287462177,14.666666666666666,6.598340682602716,0.0019061217086488707,0.0064627550585613855,0.00027268437488301117,0.001655083637944224,0.0033914901766139401,1.8675843750169276,2.8856035952792931,-1.5617985924612443,0.34135951026263817,1,3,8
1480344690,271.06873117217316,42.335502921643062,-71.101160363360407,12.666666666666666,4.517812186202886,0.00084087199365906148,0.0024196169202567617,0.00018939516743880612,0.00027544452307736849,0.001655083637944224,1.945910149055313,2.894796986537489,-1.5797412082229887,0.34245873580557973,1,3,8
1480344720,164.35954960226695,42.335727352688416,-71.100461126837033,10.0,2.7393258267044494,0.0051119610746718433,0.013842237875919235,0.00018939516743880612,0.0002306219802225971,0.0048596193042215272,1.7480673485460894,2.8811748755705118,-1.5456139220627083,0.35627332664063793,1,3,8
1480344750,286.76364753014025,42.336122532880246,-71.099386600378054,12.666666666666666,4.779394125502337,0.0086290306111731982,0.02286248288768725,0.00021476108320622086,0.00035772444922647147,0.015673455220859906,1.9254081650860666,2.8688296950378773,-1.5473771734717214,0.36231940318311601,1,3,8
1480344780,513.6337453588535,42.336939883690654,-71.097377125705677,17.666666666666668,8.560562422647559,0.024814959207144237,0.077073115388104255,0.0003231794928317499,0.0026660534276351363,0.020183577726743913,1.8640435797520258,2.8827748336945818,-1.5810673806902815,0.35360977678715028,1,3,8
1480344810,694.4526484629408,42.338099044321432,-71.094476882434535,15.0,11.57421080771568,0.02400811425932969,0.077073115388104255,0.00493983744964908,0.014075631967251419,0.038291930805019497,1.791759469228055,2.8794691452726564,-1.6179657288288798,0.33580918483149619,1,3,8
1480344840,324.3658795674318,42.338977551592841,-71.092192824996175,10.0,5.406097992790531,0.014901833895557614,0.041664506184529777,9.480714278390261e-05,0.0012783073220392015,0.021947294718261325,1.8043716191528452,2.8818504775273874,-1.6448841706320541,0.33440701058861427,1,3,8
1480344870,113.68690508818749,42.339353592407285,-71.091268039840372,10.0,1.8947817514697916,0.0019438888596909783,0.005738511319597856,7.907598189827464e-05,9.7859679241637219e-05,0.002102286201902418,1.8675843750169276,2.8907578060184069,-1.6467490550218571,0.35593496087247212,1,3,8
1480344900,303.789009091178,42.339704990426405,-71.090461160122501,10.0,5.0631501515196335,0.0011315884419839412,0.0030682457226291525,7.907598189827464e-05,8.5828024275501265e-05,0.0015283703843934409,1.7917594692280547,2.88591765845384,-1.6485025936228148,0.37208409076804672,1,3,8
1480344930,464.708203449801,42.340462812960475,-71.088606109443205,10.666666666666666,7.745136724163349,0.004139353636949031,0.011897320862483591,8.0799960467544402e-05,0.00034620271989932032,0.005217310224449657,1.8842428460867402,2.8795720594565517,-1.582407944205287,0.36527198745964112,1,3,8
1480344960,200.54473729292735,42.341233436756163,-71.086896673376771,10.666666666666666,3.342412288215456,0.0043174600401970718,0.011897320862483591,1.9161679156806675e-05,0.00011940529319245859,0.0046199836818624201,1.8842428460867393,2.8804617960361059,-1.4024546983376973,0.34561073468199355,1,3,8
1480344990,104.47736312197793,42.341621085808008,-71.086871217536839,10.0,1.7412893853662987,0.036797876742520594,0.099508249318191827,1.9161679156806675e-05,0.00011630705924635147,0.0025367306254272209,1.710560083757924,2.8849525840332295,-0.5629963836646239,0.35492088641580866,1,3,8
1480345020,211.59185463321444,42.341654706009301,-71.087730449172895,10.0,3.526530910553574,0.033160338714587866,0.099508249318191827,0.00013974496699298999,0.0017573044430768412,0.017934603136989767,1.8640435797520258,2.8508852488359442,0.9684317480845096,0.23351410743195797,1,3,8
1480345050,124.45206533789865,42.341432172509514,-71.088476460499123,10.75,2.0742010889649776,0.8112522030352225,2.1789228145613726,0.00033973060128021084,0.0082647504237421555,1.1210350394588455,1.8891591637540219,0.6931786887430359,1.0222765350125678,-0.41540125603179473,1,3,8
1480345080,66.09074141648132,42.341329366682452,-71.088764552151062,18.25,1.1015123569413554,0.68695238665751479,2.1789228145613726,0.29908542909535318,0.35356831483416956,1.2757249304057399,1.791759469228055,-1.8504344817197149,0.22843561431264567,-1.1765592440736767,1,3,8
1480345110,76.78240237222785,42.341147965092539,-71.089153630725207,25.0,1.2797067062037975,0.17198063164761532,0.77498196224169169,0.29908542909535318,0.35416882318762533,0.6251833155732458,1.9459101490553139,-1.2702409800299415,-1.4960018567766171,-0.99785329644427689,1,3,8
1480345140,24.05972296510974,42.340863788539863,-71.089308860777976,25.0,0.400995382751829,0.14288653803501947,0.77498196224169169,0.38107563450692677,0.46093398008866981,0.71087001326267862,1.9459101490553139,-1.2094238047547794,-2.5497327560857985,-0.92485627248675584,1,3,8
1480345170,63.26436536760439,42.340543064095392,-71.089123032587665,25.0,1.054406089460073,0.98632947526010817,2.8933645658742417,0.43254406954862962,0.50864152859510292,1.9199596366442058,1.791759469228055,-1.0105903581134015,-1.8113709698283034,-0.94883077350411782,1,3,8
1480345200,68.19670482990409,42.340276832498922,-71.088825739055039,25.0,1.1366117471650683,0.8909537427569022,2.8933645658742417,0.37727260408487545,0.5852214493228316,1.8039785853109636,1.9459101490553139,-0.61249011892836147,-1.2617475598105261,-0.93459361697169496,1,3,8
1480345230,56.970083144939416,42.339994009623624,-71.088566187835383,25.0,0.9495013857489902,0.60048247530698196,2.3649869579528469,0.37727260408487545,0.73430286175272785,1.3066177048765597,1.9459101490553139,-0.13263409418165209,-0.83750608457081388,-1.0951515011614319,1,3,8
1480345260,26.99725983355499,42.339709001865565,-71.088440484433519,26.083333333333332,0.4499543305592498,0.7484610478642526,2.3649869579528469,0.0094098094814445074,0.49604616637352439,1.2329740400063156,1.791759469228055,0.42341227974578038,-0.15813619632792,-1.1577090728716193,1,3,8
1480345290,9.779020641010833,42.339623384217127,-71.088378257184388,32.583333333333336,0.16298367735018054,0.3221860576371719,0.9574439490637906,0.00070405760713672231,0.00540171414452817,0.34042346521864886,1.8891591637540213,-0.69592905131534855,1.3983713850119333,-1.1739881252374533,1,3,8
1480345320,15.150216434600328,42.33964073755066,-71.088377301647412,34.0,0.2525036072433388,0.10461351806516868,0.30770446439062327,1.2357306645927754e-06,0.0010488382073742775,0.05278845495870662,1.8640435797520258,-1.4272150251152484,1.8047545990432254,-1.2337603738083445,1,3,8
1480345350,8.115894432787544,42.339633886741787,-71.088419364831495,30.0,0.13526490721312573,0.012656938560749563,0.037210626481247532,1.2357306645927754e-06,0.0041214965850283197,0.018872373554077251,1.7347645210257752,-1.3415288512544803,0.89684931330633344,-1.2326182148114702,1,3,8
1480345380,22.498838766453915,42.339546373386234,-71.088410562436181,30.0,0.37498064610756526,0.01839583840550962,0.04963695942011552,2.8133749695684045e-05,0.00019175122978159958,0.028468095059131511,1.8043716191528456,-1.4444673898250515,0.92736805365983765,-1.2119330956558041,1,3,8
1480345410,39.29953758772113,42.339490078847923,-71.088508176199383,56.3889633143854,0.6549922931286856,0.016647814829145336,0.04963695942011552,2.8133749695684045e-05,0.00033550047684917004,0.0092923189925588796,1.8562701281920886,-1.4592710422470774,0.22034033412218915,-1.2100324485214844,1,3,8
1480345440,8.21396872388367,42.339457805341333,-71.08860293403022,116.98032310222048,0.13689947873139452,0.0038554053870806892,0.010987489814753709,0.00051290290948323653,0.0012306950990093758,0.0063501827132111648,1.7480673485460896,-1.3100491953147786,-0.84243871921061109,-1.2474378776419417,1,3,8
1480345470,76.0921172590603,42.339243764917413,-71.088402490124295,150.43775067696109,1.2682019543176717,0.0036256859912597752,0.010987489814753709,0.00013259639299174452,0.00025952651424956941,0.0020708523170869441,1.8675843750169276,-1.2758468271569872,-0.90904108140812945,-1.2634351213454129,1,3,8
1480345500,14.773209992726681,42.339236666529331,-71.088219692973496,102.26756919045521,0.24622016654544468,0.22151967490893967,0.6145658931695287,0.00013259639299174452,0.00025952651424956941,0.15121044418173582,1.7770332013812695,-1.4612953545028031,-0.58029816307172155,-1.2496837523929074,1,3,8
1480345530,5.557080794635492,42.339355414772719,-71.088211717150273,39.921178301329206,0.09261801324392487,0.18142976075137812,0.6145658931695287,0.0087159778187013304,0.19721832922172639,0.29037505102927175,1.791759469228055,-1.1561308190126516,0.063092034574712658,-1.1393620517539276,1,3,8
1480345560,26.272972451080342,42.339137657817773,-71.088180958359601,25.0,0.43788287418467237,0.53987301454150471,1.550082625821988,0.19470229479053797,0.23225157978342875,0.93121472068328048,1.9459101490553139,-0.20612354078528503,0.25682035422394334,-1.1364875028798278,1,3,8
1480345590,26.424910444900355,42.338867604771956,-71.088223367995681,26.5,0.4404151740816726,0.59561378184390723,1.550082625821988,0.083039829283323666,0.28692442285554243,1.4241119689024266,1.9459101490553139,-0.34119171463762799,0.073444490937550164,-1.1198898626645561,1,3,8
1480345620,1.8190784861662976,42.338778722372204,-71.088296156442823,39.0,0.030317974769438295,0.5255891865042196,1.479360141649781,0.005563814503806907,0.035884735366078925,0.25634404631547009,1.791759469228055,-1.0006518887347988,0.26329257425405589,-1.1174510635675206,1,4,2
1480345650,8.022029093381828,42.338767697779176,-71.088290417769841,69.335906691723906,0.13370048488969713,0.22551994901678735,0.65089273513898527,0.005563814503806907,0.018041047567517201,0.17485656216953341,1.8937882323911377,-1.6197901256580447,0.4327793998897706,-1.1707306905876327,1,4,2
1480345680,24.777906536802515,42.338783867731181,-71.088259562640786,88.398859544411607,0.41296510894670857,0.29562494983778059,0.77762176439471276,0.0012734938028565366,0.018041047567517201,0.47844899499978089,1.9459101490553139,-1.9654362539776145,0.12002948966407136,-1.1415699108381141,1,4,2
1480345710,2.4513705796545273,42.338827097158614,-71.088207628840649,81.450459978340987,0.040856176327575454,0.28369254415504319,0.77762176439471276,5.4382629909346643e-05,0.00066363210079345479,0.13289731261717941,1.6581101035673729,-1.4569763500116917,0.2953212716421536,-0.54233625449493916,1,4,2
1480345740,3.818209319812341,42.338847762501821,-71.088196052591627,138.41134510495564,0.06363682199687234,0.00067408059096663757,0.0021042022565325846,5.1080540467069826e-05,0.00012182670407708688,0.00065046566550672538,1.945910149055313,-1.3180420622047302,0.62833513388518625,0.063096236432422168,1,4,2
1480345770,14.337094354880945,42.338864164281645,-71.088161435127262,171.02203734181751,0.23895157258134908,0.00025504472818484999,0.00084058646424102327,3.1787037632546025e-05,0.00010941708382979253,0.00025541548612725704,1.945910149055313,-2.2147141857349602,0.66040802290420964,0.062425965196816043,1,4,2
1480345800,16.620633863523658,42.338839852434695,-71.088210198330813,114.24884497911189,0.27701056439206095,6.7644761944793248e-05,0.00018676830068663485,2.3076119250243734e-05,3.1816227578614592e-05,0.00014004892933675527,1.7917594692280547,-3.1058940212289503,0.57747923609487872,0.076980773340224587,1,4,2
1480345830,1.9981609291696996,42.338830767467329,-71.08823818847118,90.731680740553983,0.033302682152828327,5.5772654501741101e-05,0.00019508212706038279,2.3076119250243734e-05,4.4419316593147832e-05,9.7595989032204107e-05,1.945910149055313,-3.0977834503670603,0.53192631942660651,0.071987042942636872,1,4,2
1480345860,0.5817795677593236,42.33882965446935,-71.088235793151043,109.15615069117257,0.00969632612932206,5.1064215497317966e-05,0.00019508212706038279,4.1435053258475387e-05,5.5183557974298428e-05,9.7595989032204107e-05,1.945910149055313,-3.0904001498228588,0.50013077432394071,0.062837003499399621,1,4,2
1480345890,0.6745372044531708,42.33882597888848,-71.088238239058256,82.444145189515723,0.01124228674088618,2.5205150662973037e-05,9.5799170171219966e-05,1.6404151916748587e-05,4.2761684265642181e-05,7.0990359457388357e-05,1.7917594692280547,-3.085976531710438,0.45696696924674135,0.065674181147787863,1,4,2
1480345920,0.0678031063038252,42.338827171818266,-71.088239853445046,68.331841067742545,0.00113005177173042,7.1787315799281239e-05,0.0002369084058480893,1.6404151916748587e-05,2.4217888334391502e-05,0.00010327615802435363,1.945910149055313,-3.0892286919389171,0.42100553457509271,0.064555632306002711,1,4,2
1480345950,0.693028279922846,42.338825929942708,-71.088230778236664,103.36744010239995,0.011550471332047433,9.3693224300028325e-05,0.00026119347749806513,2.1462473446304305e-05,3.5144541437179902e-05,0.00017383077586278828,1.945910149055313,-3.072529243879337,0.37498349188360558,0.095107988389231748,1,4,2
1480345980,1.975532641665697,42.338834885813036,-71.088230519848409,142.45406638745061,0.03292554402776162,0.0012711072528386706,0.003532213163033242,4.3315779651881109e-05,5.915203637110567e-05,0.00024708474914652119,1.7917594692280547,-3.0415208219362966,0.23407079854405666,0.13265265694838932,1,4,2
1480346010,1.0061409053281438,42.338864223932944,-71.088203798323278,177.4978679922464,0.016769015088802398,0.0012673036408598754,0.003532213163033242,8.0155609601017202e-05,0.00017684517305913323,0.0014505714977600492,1.945910149055313,-3.0513362548932776,0.28540293225991459,0.13438885048064445,1,4,2
1480346040,1.8805064056678622,42.338862803340405,-71.088181819080106,162.51474199255878,0.0313417734277977,0.00074140686490717085,0.0023440616438952645,0.00011234773545297616,0.00015498394199205888,0.00050015966429206148,1.945910149055313,-3.0685005141297514,0.39554344099000216,0.14978736723230071,1,4,2
1480346070,23.816368060790385,42.33883426522619,-71.088200463278284,139.28888253338988,0.39693946767983973,0.00033479340829805721,0.0010350900257928342,6.3616999207235814e-05,0.00012451982707916727,0.00050253695601244449,1.7917594692280547,-3.0837212488287933,0.39886550931171666,0.14807816427259532,1,4,2
1480346100,0.8269361850955541,42.338824801161977,-71.088214514635283,139.01463764942892,0.01378226975159257,0.00039965851285027863,0.0010350900257928342,2.2513150579712395e-05,7.7040934510210515e-05,0.00074982027301856576,1.945910149055313,-1.3248509046286923,0.40290011061004632,0.16785279277366086,1,4,2
1480346130,5.747888283604028,42.338829900282555,-71.088216452700522,136.99150517249313,0.09579813806006714,0.0066045843826771583,0.019148133072602051,2.2513150579712395e-05,0.00011911555280223946,0.00061927228569151963,1.8675843750169279,0.46958891313740569,0.40057245141247844,0.19717840612331258,1,4,2
1480346160,17.949533761140742,42.338803840118217,-71.088191000671031,154.95635790522539,0.29915889601901235,0.25256484309484378,0.58848825144653671,7.4493798855529842e-05,0.00017504773149560579,0.36850495244543374,1.6609474332869181,0.3180780839904167,-0.23904646936596982,-0.25745468107785646,1,4,2
1480346190,1.7396531442289684,42.338770071327893,-71.088131585005456,152.72221921016703,0.02899421907048281,0.22221599898450983,0.58848825144653671,7.4493798855529842e-05,0.047432215969795778,0.39369165529117128,1.8891591637540213,-1.3443410093367167,0.39555137081890762,-0.97738345037394991,1,4,2
1480346220,34.53435247089023,42.338791210577774,-71.08813235013649,121.14459520812891,0.5755725411815038,0.098034917477704098,0.30242608501263157,2.7451338506930127e-05,0.011799611861751732,0.060667499852739129,1.8937882323911377,-2.4613224586676727,0.87232047416176461,-0.63103909075455611,1,4,2
