TIMESTAMP,DISTANCE,AVG_LAT,AVG_LNG,GPS_ACCURACY,AVG_SPEED_BY_GPS,ACCLERATOR_STD,MAX_ACCLERATOR,MIN_ACCLERATOR,PERCENTILE_25_ACCLERATOR,PERCENTILE_75_ACCLERATOR,ACCLERATOR_ENTROPY,AVG_ROLL,AVG_YAW,AVG_PITCH,WEEK_DAY,LABEL1,LABEL2
1479392640,3.152411863098345,42.331651247370552,-71.109883139736283,14.791666666666666,0.05254019771830575,0.022597571263348971,0.054870897679898563,0.00013567753423728251,0.017389068618575559,0.044756678691406204,1.0986122886681096,0.10790041779879062,0.80838635223604793,0.13449056587080566,4,0,6
1479392670,3.152411863098345,42.33164932096026,-71.109875670106987,12.12962962962963,0.05254019771830575,0.020901309483341207,0.054870897679898563,2.9190414390423322e-05,3.8737881782034494e-05,0.017389068618575559,1.8056165767134953,0.028835436312899507,0.89732748766480253,0.060194431061448929,4,0,6
1479392700,0.0,42.331647779832004,-71.109869694403514,10.0,0.0,1.8450089218182336e-05,7.8791903790409413e-05,2.207540465698781e-05,2.8580337656325684e-05,4.9862531868647125e-05,1.945910149055313,-0.030208778285758697,0.96655607734862037,0.0043511187413196673,4,0,6
1479392730,0.0,42.331647779832004,-71.109869694403514,10.0,0.0,9.9359433974599429e-06,5.2427732125417628e-05,2.207540465698781e-05,2.6249173135329629e-05,3.3267715614851351e-05,1.7917594692280547,-0.029570227034306368,0.97178596238766468,0.0041901471526934169,4,0,6
1479392760,0.0,42.331647779832004,-71.109869694403514,10.0,0.0,4.6579579835886488e-06,3.4854606992801374e-05,2.1358203560974708e-05,2.5185707996029967e-05,3.1571153596485695e-05,1.945910149055313,-0.028881795742515971,0.97477341621163593,0.0042290294081844476,4,0,6
1479392790,0.0,42.331647779832004,-71.109869694403514,10.0,0.0,6.1113713057991104e-06,3.6339397289205297e-05,1.8139107162654791e-05,2.3027071173335575e-05,3.101956260959837e-05,1.945910149055313,-0.028376397257623604,0.97583217603838812,0.0044019172061307583,4,0,6
1479392820,0.0,42.331647779832004,-71.109869694403514,10.0,0.0,5.6932343220067565e-06,3.6339397289205297e-05,1.8139107162654791e-05,2.2495412096962935e-05,2.7450036808797421e-05,1.7917594692280547,-0.028074129281212154,0.97635141562004113,0.0045502922533210534,4,0,6
1479392850,0.0,42.331647779832004,-71.109869694403514,10.0,0.0,6.361710960745131e-06,2.7711301508917848e-05,1.1023369322076264e-05,1.6699259994366301e-05,2.5108749527141332e-05,1.945910149055313,-0.02803001014399387,0.97698498559464875,0.0045293737422448669,4,0,6
1479392880,0.0,42.331647779832004,-71.109869694403514,10.0,0.0,9.1754722249874487e-06,3.4525896803765152e-05,1.1023369322076264e-05,1.7802732897432e-05,3.2231763552476397e-05,1.945910149055313,-0.028012016552348133,0.9778199792914094,0.0045717261579696633,4,0,6
1479392910,0.0,42.331647779832004,-71.109869694403514,10.0,0.0,5.6395252485418521e-06,3.8134386153057702e-05,2.0363362251146697e-05,2.8997972301237872e-05,3.4336903217386914e-05,1.7917594692280547,-0.027979453625832786,0.97855920153668352,0.004585748051530507,4,0,6
1479392940,0.0,42.331647779832004,-71.109869694403514,10.0,0.0,7.4329943659166188e-06,4.4042947980657267e-05,2.0363362251146697e-05,2.6529025866543065e-05,3.3532478083946282e-05,1.945910149055313,-0.027940479359342289,0.97851064022684831,0.0045598887726852012,4,0,6
1479392970,0.0,42.331647779832004,-71.109869694403514,10.0,0.0,9.2626261679291924e-06,5.1010689087746128e-05,2.510308753285759e-05,2.730800406568313e-05,3.6897643644128727e-05,1.945910149055313,-0.027910897696059925,0.97854049155977463,0.0045158603924564137,4,0,6
1479393000,0.0,42.331647779832004,-71.109869694403514,10.0,0.0,1.2194545696164814e-05,5.1010689087746128e-05,1.2868585846541502e-05,2.7433867775253334e-05,4.0346847781847819e-05,1.7917594692280547,-0.027368589961965267,0.97849118094536991,0.0048157570745968291,4,0,6
1479393030,0.0,42.331647779832004,-71.109869694403514,10.0,0.0,8.8978804760781277e-06,4.3467169757424449e-05,1.2868585846541502e-05,2.5542769476897402e-05,3.3963161516819261e-05,1.945910149055313,-0.025592699310490269,0.98000786083496594,0.0059206017614904282,4,0,6
1479393060,0.0,42.331647779832004,-71.109869694403514,10.0,0.0,4.1559838810355576e-06,3.5796122095053029e-05,2.3477671318154578e-05,2.7441662106210174e-05,3.3963161516819261e-05,1.945910149055313,-0.023386710568044068,0.98681468048729448,0.0013010709816618502,4,0,6
1479393090,0.0,42.331647779832004,-71.109869694403514,10.0,0.0,5.1086929663353082e-06,3.5796122095053029e-05,1.9838422425094682e-05,2.4216038045397063e-05,3.0027617082394232e-05,1.7917594692280547,-0.022386077162413153,0.9950268314257501,-0.0081849923427439464,4,0,6
1479393120,0.0,42.331647779832004,-71.109869694403514,10.0,0.0,1.1458263765659885e-05,5.5464426744107787e-05,1.9838422425094682e-05,2.2060305083482466e-05,2.7662976394786997e-05,1.945910149055313,-0.02131847362357886,0.99111686829937251,-0.0090706734569881518,4,0,6
1479393150,0.0,42.331647779832004,-71.109869694403514,10.0,0.0,0.00050595699599914146,0.0014786758095831525,2.0349967438857992e-05,2.7023192482603656e-05,4.5262657998446312e-05,1.945910149055313,-0.020515309842943457,0.98717915949585022,-0.0075201363682874667,4,0,6
1479393180,0.0,42.331647779832004,-71.109869694403514,10.0,0.0,0.00072001433274615533,0.0017639894506228657,2.6742432428613651e-05,3.3970960861305806e-05,0.0012226239953051373,1.7917594692280547,-0.020672121885848733,0.9981119918141691,-0.006329702960730748,4,0,6
1479393210,0.0,42.331647779832004,-71.109869694403514,10.0,0.0,0.00059109619754856057,0.0017639894506228657,1.4761436707860134e-05,2.7168015933356009e-05,0.00028889873223064791,1.945910149055313,-0.021975697142385172,1.0066994982211044,-0.0047738186717008121,4,0,6
1479393240,0.0,42.331647779832004,-71.109869694403514,10.0,0.0,4.1970650549828715e-05,0.00012332891199020397,7.4187507024089874e-06,1.8209807765784756e-05,6.3012958932574445e-05,1.945910149055313,-0.023346089682394645,1.0047704060499814,-0.0042371700678430785,4,0,6
1479393270,0.0,42.331647779832004,-71.109869694403514,10.0,0.0,1.549718364381732e-05,5.7377950202542696e-05,7.4187507024089874e-06,1.886171003446469e-05,2.6820271493814813e-05,1.7917594692280547,-0.022200243538806019,1.0047914993748299,-0.0048033738577283368,4,0,6
1479393300,0.0,42.331647779832004,-71.109869694403514,10.0,0.0,1.2127759279356137e-05,5.7377950202542696e-05,1.8130660183735283e-05,2.2696883946172831e-05,3.038744094770641e-05,1.945910149055313,-0.019288804817588656,1.0045088637803199,-0.0057292566217382835,4,0,6
1479393330,0.0,42.331647779832004,-71.109869694403514,10.0,0.0,3.7758822654089954e-06,3.3131796920673825e-05,2.2391888167752268e-05,2.3655515289520949e-05,2.9390181524234441e-05,1.945910149055313,-0.017935515753134127,1.0041773869713941,-0.0060919939702820808,4,0,6
1479393360,0.0,42.331647779832004,-71.109869694403514,10.0,0.0,1.4038536658941293e-05,6.1878139294486596e-05,2.2391888167752268e-05,2.3062458894820761e-05,2.9691565413060519e-05,1.7917594692280547,-0.018710680576153983,1.0039814749928484,-0.0083899698202635313,4,0,6
1479393390,0.0,42.331647779832004,-71.109869694403514,10.0,0.0,0.073856674432036071,0.21108952714026172,1.1744298986078459e-05,1.8357033693881355e-05,4.3616283362769505e-05,1.8675843750169276,-0.22209104983381939,1.3173413231245801,-0.10731336927828315,4,0,6
1479393420,0.0,42.331647779832004,-71.109869694403514,10.0,0.0,0.072761719419614596,0.21108952714026172,1.1744298986078459e-05,1.8357033693881355e-05,0.011091441550787539,1.8056165767134955,-0.018638125987483552,0.82501571392850537,-0.55496270524459479,4,3,8
1479393450,0.0,42.331647779832004,-71.109869694403514,10.0,0.0,0.008006110523858816,0.020015108110517835,0.00093843591976736562,0.0013983659321998971,0.014515552310317951,1.7480673485460896,0.89629017550294765,-0.23233931145077258,-1.2369698435952319,4,3,8
1479393480,0.0,42.331647779832004,-71.109869694403514,10.0,0.0,0.067186038245596325,0.18345403752177197,7.9469275516376594e-05,0.00182640142342233,0.10656887429132368,1.8043716191528456,1.4773558745240758,0.35015455935407191,-1.3574424160919487,4,3,8
1479393510,0.0,42.331647779832004,-71.109869694403514,10.0,0.0,0.055250255143033458,0.18345403752177197,7.9469275516376594e-05,0.046240442632179385,0.10656887429132368,1.9459101490553139,1.3768923539765758,0.84337273719699013,-1.2580807648103309,4,3,8
1479393540,17.64124830676893,42.331604001850216,-71.109933866254167,10.185229474758083,0.2940208051128155,0.10164267367707316,0.32059103606608774,0.040443119907615718,0.05353599923003026,0.15560472712265058,1.791759469228055,1.3532591548867494,0.10436048957631683,-1.256008153362778,4,3,8
1479393570,27.156343095519812,42.331533817380979,-71.109920487339721,10.185229474758083,0.4526057182586635,0.16212540892318023,0.6155492617154481,0.067589436541046918,0.17336053878354055,0.2770393107598168,1.8891591637540213,0.95634252666619612,-1.2391557682255778,-1.3257744283067125,4,3,8
1479393600,37.01003974927199,42.331413878633022,-71.109756781785848,10.0,0.6168339958211998,0.1440641088882621,0.6155492617154481,0.16177792025056259,0.19750612952429303,0.25879285628236964,1.8891591637540217,0.33631997918909345,-1.9233278686151816,-1.39245717933254,4,3,8
1479393630,24.901341413517414,42.331159425007492,-71.109673243547888,10.0,0.41502235689195693,0.071293444076948653,0.38679003188033945,0.17958882012183022,0.19179071952177523,0.27832467868077482,1.7328679513998633,0.4722054951078738,-1.8359580818447325,-1.3999894190574835,4,3,8
1479393660,67.65256849196025,42.330899436531908,-71.109495558376523,10.0,1.1275428081993375,0.58454835314912301,2.0122821796705077,0.18391314638678169,0.32389718263492928,0.51822473623258603,1.9459101490553139,0.88452195356405661,-0.73012674026712276,-1.3683461640438555,4,3,8
1479393690,99.31289164251143,42.330725086659506,-71.109078677437381,10.0,1.6552148607085237,1.4358924494975798,4.4917628534715854,0.24095587126196857,0.42240554422156207,1.2998312200609266,1.9459101490553139,0.96889285245856782,-0.33952952021101063,-1.4072210415265614,4,3,8
1479393720,32.31682478184368,42.330516236873656,-71.108796110908614,10.0,0.5386137463640613,1.5878896508003149,4.4917628534715854,0.1249558736613767,0.15110053355713626,0.45995485730137581,1.791759469228055,0.63339120462252874,-1.4855515774914465,-1.3888885691788915,4,3,8
1479393750,41.825204056555656,42.330200711304634,-71.108831186379419,10.0,0.6970867342759276,0.16202802131165406,0.56366107415462463,0.1249558736613767,0.14751124179874242,0.35845913296210785,1.791759469228055,0.10850756777220384,-2.632506849283637,-1.3355785491135832,4,3,8
1479393780,21.433043312389227,42.329848753094986,-71.108904720815929,10.0,0.35721738853982044,0.15887728251997277,0.56366107415462463,0.10197114660403472,0.17034107427224518,0.42410746339746447,1.9459101490553139,0.258386715277794,-1.6407082778886846,-1.2893351183097914,4,3,8
1479393810,16.41784262233639,42.329649024216756,-71.108857765394376,10.0,0.27363071037227316,0.15894201097783647,0.43694760986543285,0.00071588586830185119,0.053027951428571141,0.26273309036383574,1.8937882323911377,0.10288609075906531,-0.80452845130367456,-1.2260775037835017,4,3,8
1479393840,2.5700752093255157,42.329631743526384,-71.108829456913412,10.0,0.04283458682209193,0.037794033477358858,0.10369598161500403,0.00063103315284404713,0.001251404414068632,0.0039204672153018792,1.7105600837579242,-1.4666041516754682,-1.5329630531869067,-1.2536830182973382,4,3,8
1479393870,2.654625901076436,42.329650341572552,-71.108831070429773,10.0,0.0442437650179406,0.23487261260573525,0.67995407238159333,0.00058354254518304047,0.0017444966021065112,0.025951947781955097,1.7770332013812695,-0.98439618429301967,-0.23857616825165426,-1.0935844439387734,4,3,8
1479393900,7.129659161540833,42.329644396009222,-71.108805567092375,10.0,0.11882765269234723,0.23077383266910476,0.67995407238159333,0.00058354254518304047,0.007057342799618109,0.054001517203481272,1.8891591637540215,1.1626631608339433,0.92405937746771993,-0.99774162047059911,4,3,8
1479393930,3.26927714850387,42.329643404150694,-71.108802837385895,10.0,0.0544879524750645,0.02444848038283555,0.065562889027377724,0.0046509354149108454,0.0052667203826359905,0.042885461302445631,1.7328679513998633,1.8975938519117701,0.30022937093425117,-1.2563754104512384,4,3,8
1479393960,6.316984863528728,42.329664678119435,-71.10883837246439,10.0,0.10528308105881214,0.32391304328900966,0.9399740563047887,0.00014077888144504709,0.0031859182363489905,0.040994147886398782,1.8937882323911379,1.5349709913621452,1.252472079865717,-1.2922615214290529,4,3,8
1479393990,3.0985798190197262,42.329652850555583,-71.108842979717167,10.0,0.05164299698366211,0.32704167495827424,0.9399740563047887,0.00014077888144504709,0.00051209617193756051,0.016319196298566568,1.8056165767134955,-0.113452668339042,0.54253523530150993,-0.97828608273887074,4,3,8
1479394020,43.37906581421377,42.329738435799392,-71.108792737220227,10.0,0.7229844302368961,0.0042124229821344887,0.012713488361951956,0.00015295253377474205,0.0011671824055936087,0.0051806308578096361,1.7480673485460894,-2.3906098175264185,-1.4496803941009333,-0.75786194045549227,4,3,8
1479394050,117.31277118617975,42.330428698875494,-71.10897005459033,10.0,1.9552128531029958,0.024214828043597498,0.076982342846485127,0.0039973255301527085,0.0048752723501886697,0.014400287883896841,1.8640435797520258,-2.438656894742087,-1.5075654775640306,-0.64924461997392779,4,3,8
1479394080,146.21169824521454,42.331879876309209,-71.109378058136784,10.0,2.4368616374202423,0.024704031904929251,0.076982342846485127,0.0011533622863241545,0.0052849081853106467,0.013340777436560994,1.8640435797520258,-2.5950037411183287,-1.8137660011145891,-0.4973437809547237,4,3,8
1479394110,41.059063310484284,42.332906680957379,-71.109584155696894,10.0,0.6843177218414047,0.0028276659255663797,0.0067239627251060741,7.0663794337505044e-05,0.0003647725786878339,0.005106579704291017,1.7480673485460896,-2.539802160516583,-2.0185530952070199,-0.45954825475035732,4,3,8
1479394140,1.3468313867734283,42.333046328299403,-71.109586317579272,10.0,0.022447189779557137,0.00045729937266243486,0.0012433059053463713,7.0663794337505044e-05,0.00014727022511933598,0.00094394672863912406,1.945910149055313,-2.4741228454561286,-2.0051848944413355,-0.36246176085076287,4,3,8
1479394170,12.563915085849215,42.333071909281202,-71.109583023980761,10.0,0.2093985847641536,0.0010747745220312972,0.0032767671085751227,3.7785903981517763e-06,0.00012261036552271875,0.00094394672863912406,1.945910149055313,-2.4087158622992519,-2.0345320445556969,-0.26525739673640797,4,3,8
1479394200,220.49730399205112,42.333164867086538,-71.109109723970022,10.0,3.6749550665341855,0.048701484623676197,0.13363001042169764,3.7785903981517763e-06,0.00013511453814022285,0.030999381180913731,1.6581101035673729,-2.2704475606791785,0.35209515008406833,-0.24943218846139781,4,3,8
1479394230,228.16787559715974,42.333234661111867,-71.108060302221958,10.0,3.802797926619329,0.04560183786936544,0.13363001042169764,5.6307570853545222e-05,0.00037738452780151265,0.026993211962572275,1.7770332013812697,-2.2611207021808988,2.698015476043143,-0.2176475188422993,4,3,8
1479394260,30.12269077456028,42.333236701430522,-71.107438587121038,10.0,0.5020448462426713,0.0046808020829220455,0.013746171386784609,5.6307570853545222e-05,0.00023244397501397259,0.00071047867889782615,1.8675843750169276,-2.2883045716394328,2.6411380148928387,-0.16226338934935641,4,3,8
1479394290,261.0874948572128,42.333397907942832,-71.106737176022591,10.0,4.351458247620213,0.031457153972624594,0.077313351207486794,0.00022798614663968543,0.00036070950430939347,0.054958670922578334,1.6609474332869181,-2.2491628597032367,0.76671619552990011,-0.19678352731510904,4,3,8
1479394320,624.1408286218915,42.334053370675385,-71.104845295260773,10.0,10.402347143698192,0.02929540806268054,0.077313351207486794,4.7588828678436613e-05,0.0037106745329678458,0.047101793551500334,1.8937882323911377,-2.2468374071585142,-0.46594646890981284,-0.22717957694584717,4,3,8
1479394350,719.6904534349234,42.335209587861179,-71.101806534054788,10.0,11.994840890582056,0.0027350072027989393,0.0081178541183709318,4.7588828678436613e-05,0.00099878385498117033,0.0040044872757748649,1.8842428460867393,-2.294905298825527,0.44836929118690577,-0.21595402823610968,4,3,8
1479394380,368.8115176602124,42.336221694985731,-71.099203024125757,10.0,6.146858627670207,0.01004888760553279,0.028269907681819972,0.00015696531582945846,0.00058126064994938826,0.0025360349529278707,1.710560083757924,-2.3316243844318918,1.1172497882164383,-0.1909548733673255,4,3,8
1479394410,125.07068728150055,42.337190970585084,-71.098109747349383,10.0,2.084511454691676,0.01584051335921351,0.04257336346605739,0.00015696531582945846,0.00047720810778130712,0.016050736067092185,1.8056165767134955,-2.3104330032524416,-0.89897530720592422,-0.16134206375721341,4,3,8
1479394440,84.46589946921753,42.33793959048797,-71.097701597559364,10.0,1.4077649911536256,0.014503501856683868,0.04257336346605739,0.00033219106547968642,0.00057974340483138095,0.0026167801750747134,1.8675843750169276,-2.3049834367995672,-2.5964118780734475,-0.11342287527854054,4,3,8
1479394470,174.26954066853034,42.338347991735084,-71.097369435309517,10.0,2.9044923444755057,0.00067801849564162731,0.002473559226689456,0.00053726165957983403,0.0006211454949578846,0.0012585161496029879,1.7917594692280547,-2.2693772065531133,-2.7442201160847937,-0.12613612009688691,4,3,8
1479394500,612.84802278146,42.33963557918775,-71.095589582874524,10.0,10.214133713024333,0.0070888943475088829,0.018211628016322808,0.00044604832803838085,0.00070068565172387012,0.01345136227445887,1.8562701281920881,-2.2719662130478855,0.50675220817657285,-0.12112667028326514,4,3,8
1479394530,571.620740931715,42.34171709422241,-71.092745570997806,10.0,9.527012348861916,0.016590494285207015,0.053539006596731345,0.00044604832803838085,0.0053909195057169779,0.015875017408929964,1.8640435797520256,-2.2802228378670657,0.51574851613520145,-0.13855868484207925,4,3,8
1479394560,198.31596346415748,42.343440002102732,-71.091108121509762,10.0,3.305266057735958,0.028653131352976473,0.071779812129853293,0.00098660113922227101,0.0012166238146855861,0.042521292792158757,1.6609474332869181,-2.2437877908251833,-1.8270075885453618,-0.18339175561829044,4,3,8
1479394590,175.6882966046924,42.343840565571888,-71.090371046281504,10.0,2.9281382767448734,0.023738762648593273,0.071779812129853293,0.00098660113922227101,0.0016912486905571594,0.022178421138605423,1.8043716191528456,-2.2649213479468413,0.41922529925958946,-0.18329457335874486,4,3,8
1479394620,429.6147465365096,42.343228817956849,-71.088848071239028,10.0,7.160245775608493,0.010038242865376594,0.026185878233580602,0.00049795818583067328,0.0037060193752458501,0.021164854537814547,1.9251211907908179,-2.3227502373176372,1.7766230944587325,-0.18128615485870858,4,3,8
1479394650,141.05882482220827,42.342481124952762,-71.087499923138964,10.0,2.350980413703471,0.0079918015636583021,0.02415874503199885,0.00049795818583067328,0.0021452134552572971,0.0051547211267320365,1.6581101035673729,-2.3438791690172933,1.4210108711397413,-0.1749896645056889,4,3,8
1479394680,202.6715496563955,42.341814286580636,-71.087778350404548,10.0,3.3778591609399253,0.0019117749107099363,0.0046326368483722473,2.0814903781678393e-05,0.00043239877600321705,0.0041847627119812516,1.945910149055313,-2.4118885216359045,0.51748105331466776,-0.22546712165313859,4,3,8
1479394710,28.15048663537445,42.341522161888285,-71.088337532310845,10.0,0.4691747772562408,0.0055631413528124569,0.016595173163968073,2.0814903781678393e-05,0.00043239877600321705,0.0025612244815773778,1.8675843750169276,-1.6972362501298641,0.66940233860276577,-0.38873746000221931,4,3,8
1479394740,2.6266400812714377,42.341509386470868,-71.088409011784108,10.0,0.04377733468785729,0.052973712929284572,0.12767406653743393,0.00088573994840838652,0.0048243602576520253,0.093714675335889272,1.7328679513998633,0.44481646001989822,0.39529880320460337,-0.95878664437821526,4,3,8
1479394770,42.114170822175225,42.341465955639592,-71.088518251731145,10.0,0.7019028470362537,0.23952032793338135,0.78991892067074676,0.026925275524356564,0.10473426581605656,0.2463510981287278,1.9459101490553139,0.67916012565287409,-0.12080322196725879,-1.4217955431751528,4,3,8
1479394800,70.9199230232563,42.341311598701729,-71.088783916152181,10.0,1.1819987170542716,0.22933455047125909,0.78991892067074676,0.024727478305985009,0.14648879551247712,0.28237253323655109,1.9459101490553139,-0.74592415953946023,0.31524994216794738,-1.4521232767419956,4,3,8
1479394830,65.39546563003474,42.341107270254149,-71.089115338000568,10.0,1.0899244271672457,0.10283479333680969,0.27152973821488791,0.0050197775733652195,0.036295106615827695,0.19599073644644172,1.7328679513998633,-0.91325249412179355,1.0613628573957794,-1.4306997769830117,4,3,8
1479394860,15.960595264782231,42.340917601755208,-71.089268873511912,10.0,0.26600992107970384,0.17330426825322312,0.51273127715478894,0.0050197775733652195,0.060540779684477117,0.2776279180133393,1.8891591637540219,1.2230220171531287,1.1353123781504864,-1.4516594372675657,4,3,8
1479394890,45.943567730217296,42.340683450496151,-71.089122838406922,10.0,0.7657261288369549,0.18526033373707168,0.51273127715478894,1.7253042113208431e-05,0.042762243055387811,0.36556243891476048,1.9459101490553139,1.9926028801563045,1.6243738344583798,-1.3611293372832829,4,3,8
1479394920,16.741102513214482,42.340527779694995,-71.0889873323693,10.0,0.27901837522024137,0.13675002580982001,0.38467147619546077,1.7253042113208431e-05,0.0037169292025961156,0.07020857788693019,1.7328679513998633,1.6538866177376865,2.046943435901285,-1.3309626786955036,4,3,8
1479394950,23.635350496023108,42.340458601054145,-71.088948602388712,10.0,0.3939225082670518,0.095960074242967278,0.28304225188454485,0.00075290760402220978,0.0053378711108650959,0.10815497031015542,1.8891591637540217,1.3622955416115161,1.653571326125103,-1.4317556766244102,4,3,8
1479394980,54.54806232250052,42.340288282178669,-71.088761549043568,10.0,0.9091343720416754,0.09006858839264105,0.28304225188454485,0.00075290760402220978,0.067889910692453148,0.17633541684292517,1.9459101490553139,0.87877090892581877,1.2243848399555379,-1.4340410883348855,4,3,8
1479395010,59.28270468776707,42.340007008558459,-71.088498149133372,10.0,0.9880450781294512,0.040286939140761792,0.20662425384406674,0.1053806119271547,0.11497631576357023,0.18845050997779031,1.7328679513998633,0.22821735810196533,0.35980332503779139,-1.4367735386055998,4,3,8
1479395040,51.65616942074952,42.339663456699199,-71.088290597844022,10.0,0.860936157012492,0.3424005882083444,0.88483200639276993,0.010707268438857987,0.11844177000152215,0.53468552286699789,1.9459101490553139,-0.34797784368632756,-0.25252351617234031,-1.4301129975925526,4,3,8
1479395070,29.070192195981665,42.33936481158468,-71.088114193706872,14.0,0.4845032032663611,0.33346710456843304,0.88483200639276993,0.010707268438857987,0.1277580218573246,0.58771138933376954,1.9459101490553139,0.53935382510315355,-1.149845254989575,-1.3754046378444074,4,3,8
1479395100,5.23623094511786,42.339237784540622,-71.088039382427127,34.0,0.08727051575196434,0.12073356865320449,0.31267598677761022,0.00023471055598974619,0.014030210076341967,0.20304746337540155,1.7328679513998633,1.8716789066765951,-1.3168498003132891,-1.1259401696376907,4,3,8
1479395130,37.61290835904414,42.339229357514192,-71.088023586637547,50.612244897959187,0.6268818059840691,0.019279688913895743,0.055392471627237309,2.4925933858414609e-05,0.00011173978418641889,0.00067231996125649389,1.8675843750169276,1.6181517144306667,0.43713626163188712,-1.2062934524043833,4,3,8
1479395160,39.172406606569645,42.339222881743147,-71.087945580666698,58.54618348797753,0.6528734434428274,0.0067484213920085611,0.019801037360612509,2.4925933858414609e-05,6.051017501860516e-05,0.0026077005689572452,1.8675843750169276,1.9742183844498307,1.2097492349136321,-1.4127217701405357,4,3,8
1479395190,8.402097261193676,42.339159169557405,-71.087681385792266,104.5920011127215,0.14003495435322794,0.017972581134608208,0.049310824895914568,3.7263480095494208e-05,0.00274051772894357,0.028842770229996817,1.6609474332869181,1.7453057472109339,0.10201172069425508,-1.3835540594322717,4,3,8
1479395220,42.60101524759048,42.339047598776844,-71.087557914784966,129.88162368013988,0.7100169207931747,0.071639641060669501,0.22879358076505407,0.0022828400469986415,0.023110581521844344,0.087606909559197005,1.9459101490553139,0.70813957289166596,0.12222705742151055,-1.3428684396710628,4,4,2
1479395250,54.70912409716853,42.338767807752639,-71.087789888682892,42.16943601302853,0.9118187349528087,0.061581023450976442,0.22879358076505407,0.014364481857230433,0.063891293919120309,0.098034718710043142,1.8891591637540215,0.3270960131882808,0.57394073473677232,-1.3099528700585614,4,4,2
1479395280,50.342900408422295,42.338723521798002,-71.088022559284454,25.762711864406779,0.8390483401403716,0.10380545250375108,0.3225304039047408,0.056703631110354792,0.090988093799408962,0.26429551027999892,1.7328679513998633,0.21845658080179742,0.21826324834572364,-1.2348991444200117,4,4,2
1479395310,29.851324997904864,42.338748705379999,-71.088233331284599,38.083333333333336,0.4975220832984144,0.16928470153938455,0.51183262591737588,0.0010675331854459753,0.083750067764148103,0.30981042105231016,1.8891591637540213,0.25613671202598065,1.0473937602881231,-1.2622327436056229,4,4,2
1479395340,1.0966596797334915e-08,42.33877977360261,-71.08827497816749,95.0,1.8277661328891526e-10,0.18150069731221438,0.51183262591737588,0.00052555402702794652,0.0011810515400874112,0.14062536965004638,1.7770332013812695,0.22838707092588667,1.7312079991266494,-1.3228520940327628,4,4,2
1479395370,29.557808352375428,42.338763628385166,-71.088255728035435,135.3133411827049,0.49263013920625714,0.015216798906134614,0.040775272698978134,0.000182613834226574,0.00071780799395317172,0.016439406492430766,1.6581101035673729,0.04826559432517185,-0.36940784380340164,-1.3451346205423116,4,4,2
1479395400,10.247862539866949,42.338675852571271,-71.088115776678066,107.51331113547722,0.1707977089977825,0.014130635391657258,0.041771620800797798,8.6109076672319113e-05,0.0011785043967783174,0.021053702440739203,1.9036483899019156,0.46261329449686228,-1.7357622070397329,-1.1265838671141,4,4,2
1479395430,20.9416042038024,42.338758444550919,-71.088154861547181,91.678219343890092,0.34902673673004,0.014870872959551969,0.041771620800797798,4.4749538437851632e-05,9.2372655143284501e-05,0.018653029033856901,1.8562701281920884,1.1442060233241151,-1.8643119784736586,-0.87354482228730335,4,4,2
1479395460,1.9667795015732237,42.338781712949839,-71.088175090076959,70.043631008213211,0.03277965835955373,0.00013569844165197301,0.00044446152897064024,4.4749538437851632e-05,7.9145570624061717e-05,0.00017391570471488155,1.7917594692280547,1.4458848087203433,-3.0627239609024297,-0.75719161167008264,4,4,2
1479395490,0.9319411839861731,42.33875985480244,-71.088168656618691,65.398572831488337,0.015532353066436218,0.00021691533858599245,0.00062730623409220634,2.3534036949233321e-05,7.3506945679571541e-05,0.00027292030964541582,1.945910149055313,1.4482225997087714,-3.108454063339944,-0.75636253502233886,4,4,2
1479395520,1.180555093416683,42.338772053982481,-71.088177306069937,65.0,0.019675918223611383,0.00019633674574967807,0.00062730623409220634,2.3534036949233321e-05,5.6394216229172075e-05,0.00012496182920577488,1.945910149055313,1.4497195763831972,-0.45086934379772137,-0.75662521033379027,4,4,2
1479395550,2.6719269032081434,42.338780654430195,-71.088186585151362,65.0,0.04453211505346906,4.007198325228536e-05,0.00015718684887711888,3.8423224059866717e-05,4.6972974115481431e-05,8.8943057888649161e-05,1.7917594692280547,1.4496588573745566,3.1153065632274455,-0.75637792233011503,4,4,2
1479395580,4.641492999550213,42.338773325054348,-71.088184747055848,65.259197260855245,0.07735821665917021,4.7772632165195926e-05,0.00018919380095044579,3.8461181209141059e-05,7.5035077892903271e-05,0.00013097058834812125,1.945910149055313,1.449472793351777,2.2258588853960228,-0.7551785896730776,4,4,2
1479395610,4.325794082111467,42.338758125296103,-71.088169113348144,65.285116986940778,0.07209656803519111,4.298279393522338e-05,0.00018919380095044579,5.0607579090533831e-05,8.3917418527766158e-05,0.00013097058834812125,1.945910149055313,1.449662783469537,2.2164982204930546,-0.75198893476881778,4,4,2
1479395640,1.8421338320431118,42.33874934412318,-71.088157741006171,65.0,0.030702230534051862,8.5542321168101745e-05,0.00029615882514069452,5.0607579090533831e-05,5.771296139716263e-05,0.00010066774047549937,1.7917594692280547,1.4512680466404815,3.1114887581694615,-0.75078520120169934,4,4,2
1479395670,0.6656984678408024,42.338748294907035,-71.088161455500099,66.946249020324146,0.011094974464013373,0.00010634193704920016,0.00030492359453153546,2.5334090948065765e-05,6.0144824465899305e-05,0.00021094045309365288,1.945910149055313,1.4495181743577941,0.46306530725673856,-0.75470042583178798,4,4,2
1479395700,0.28182380551543124,42.338740283895135,-71.08815800176292,67.140873922356562,0.0046970634252571876,8.630683658747987e-05,0.00030492359453153546,2.5334090948065765e-05,5.6917146877491293e-05,0.00011517988745943586,1.945910149055313,1.4443465433251845,-2.2036014762040241,-0.75899657315361391,4,4,2
1479395730,5.249321584034695,42.338745771139187,-71.088151374553263,75.675054951611543,0.08748869306724492,0.0002688110789566003,0.00079869207780519722,3.4409010857829828e-05,6.081480131601638e-05,0.00013519833618562391,1.7917594692280547,1.4405085545646352,-2.0591692129329018,-0.76351848817276158,4,4,2
1479395760,8.554217947271463,42.338781674237453,-71.088174008276027,75.675054951611543,0.14257029912119104,0.00025663063735232704,0.00079869207780519722,1.5329800736054812e-06,5.6605700808117556e-05,0.00012736167764676134,1.945910149055313,1.4431877877729442,-2.2230797614490001,-0.76360459222621735,4,4,2
1479395790,4.504054382836326,42.338793457828345,-71.08818929703402,65.0,0.0750675730472721,0.00012653494504605777,0.00040522574735949314,1.5329800736054812e-06,4.1228082251671232e-05,9.5300394735380883e-05,1.945910149055313,1.4455746535308316,-1.3381043696551542,-0.76102532596249139,4,4,2
1479395820,6.170415493566326,42.338764960683534,-71.088169775487316,65.0,0.10284025822610543,0.00054980813217383486,0.0016118927800865643,2.763687186245878e-05,6.5819727811464404e-05,0.00048545102919229769,1.7917594692280547,1.4479329422506002,2.0810207579157431,-0.75979516538035607,4,4,2
1479395850,2.9414397587723125,42.33874750050564,-71.088147091889638,66.577999963732324,0.04902399597953854,0.00050730961595704866,0.0016118927800865643,5.7184467130315955e-05,0.00010040313969879089,0.00040322363942573596,1.945910149055313,1.4490708498690843,3.0917681930108531,-0.75917072412198239,4,4,2
1479395880,1.2608325689690814,42.338765271576122,-71.088159161936886,103.3952648065591,0.02101387614948469,0.00036721098706944189,0.0011984949881449084,5.7184467130315955e-05,9.4334817654015196e-05,0.00031291199180990951,1.945910149055313,1.4413988984411557,3.0518821451184239,-0.75928558760108833,4,4,2
1479395910,1.2504616516528595,42.338778403050938,-71.088176006740653,120.54989980793523,0.02084102752754766,0.00037617274719458694,0.0011984949881449084,8.668438923365518e-05,0.00015139380159150424,0.0004227507911045065,1.7917594692280547,1.4362582748208566,3.008764836190355,-0.7573034390523472,4,4,2
1479395940,3.868534490704321,42.338782646261656,-71.088180136671639,104.46472519236445,0.06447557484507202,0.0015663201152000736,0.0047383011021514812,6.2558500366117795e-05,0.00017476651338303121,0.00095517063076269889,1.945910149055313,1.4455184245824071,-0.14292039972365009,-0.75658507085241844,4,4,2
1479395970,1.5444642332338558,42.338768430801579,-71.088173026120984,89.5716167079119,0.025741070553897596,0.001610857465443748,0.0047383011021514812,1.6893009167334269e-05,5.5556547010498768e-05,0.00088735525703681484,1.945910149055313,1.4551235686100357,-2.6635408589452458,-0.75360878649830154,4,4,2
1479396000,1.1899733474717535,42.338738785649007,-71.088150296986413,65.0,0.019832889124529227,0.0001862201188814818,0.00053446790778646466,1.3532652518781946e-05,1.8369579638090567e-05,0.00010323196391204068,1.7917594692280547,1.4633368066923966,-2.8862422927704601,-0.74601220760906528,4,4,2
1479396030,2.1864647293291837,42.338741455237091,-71.088150318699547,65.0,0.03644107882215306,0.0002466243889842789,0.00062350110418077787,2.8296094892786632e-06,1.8165971784570701e-05,0.00037607103970298001,1.945910149055313,1.4633626697258175,-2.8799031045683705,-0.74607557009912673,4,4,2
1479396060,0.2316175463604079,42.338763533247295,-71.088167282193425,65.0,0.003860292439340132,0.00020763991437896208,0.00062350110418077787,2.8296094892786632e-06,2.181722656085512e-05,0.0001369555683252767,1.945910149055313,1.4634148777258071,-2.8737027611552315,-0.74607714052059138,4,4,2
1479396090,0.24347622672354607,42.338766182900322,-71.088170240988362,65.0,0.004057937112059101,4.3021013759560271e-05,0.00013388707926237866,1.5247278492694844e-05,4.5577154879512326e-05,0.00010594120856233329,1.7917594692280547,1.4634237129059118,-2.8659366312231551,-0.74611351222006872,4,4,2
1479396120,0.5194335961060079,42.338759791345254,-71.088167881628934,65.0,0.008657226601766798,6.5961073871579644e-05,0.00023077090150602298,3.1389115432161544e-05,4.1870291236604078e-05,0.00012819818450090186,1.945910149055313,1.4635596086943958,-2.8597993322762503,-0.74622399051046018,4,4,2
1479396150,2.124918833679453,42.338756524899118,-71.088166009238961,65.0,0.03541531389465755,6.7747979628227307e-05,0.00023077090150602298,2.0809893838112043e-05,3.3676525952477731e-05,7.2023444155417386e-05,1.945910149055313,1.463568921605447,-2.8538621719485771,-0.74613775689238437,4,4,2
1479396180,1.5217207993751987,42.338752900803968,-71.088159977608257,65.0,0.025362013322919978,8.7107827529413787e-05,0.00027357630146849181,2.0809893838112043e-05,3.5986630805573978e-05,9.5576322303624119e-05,1.7917594692280547,1.4635990750939583,-2.84991996451968,-0.74620997823621027,4,4,2
1479396210,1.3618193894766033,42.338765879559269,-71.088165286006443,65.0,0.022696989824610055,9.4793220148124677e-05,0.00027357630146849181,1.4566565106323238e-05,4.5238123198147474e-05,0.00017766049323216456,1.945910149055313,1.4634102316247299,-2.8522815659876812,-0.74627518006983284,4,4,2
1479396240,1.0685132923468668,42.338776030583681,-71.088174588108629,65.0,0.017808554872447778,0.00010400012957724461,0.00030134101413325875,1.4566565106323238e-05,4.3516245933182478e-05,0.00017446705720625377,1.945910149055313,1.46328978646735,-2.8531960681471813,-0.74628809877381708,4,4,2
1479396270,2.134043943261309,42.338777370864918,-71.088176176679426,65.0,0.03556739905435515,9.2476587765583234e-05,0.00030134101413325875,3.2610959273984162e-05,4.7369079237947597e-05,8.8758130448556694e-05,1.7917594692280547,1.463542424531485,-2.8519185101497802,-0.74618605480122968,4,4,2
1479396300,1.1338065154402954,42.338781606961604,-71.08817770161086,65.0,0.018896775257338256,0.0041683610726994278,0.01210519311204647,4.3781274524799899e-05,7.5080617342909383e-05,0.00051928891399419415,1.8675843750169276,1.4538197545833,-2.8323523032595963,-0.75344240368291826,4,4,2
1479396330,1.6088905713773018,42.338775590542483,-71.088177515839448,72.723916074441007,0.026814842856288365,0.0041630764780456802,0.01210519311204647,3.7897672418734164e-05,0.00010153005176766905,0.00052480531147155801,1.8675843750169279,1.4450375330738015,-2.8922153348451758,-0.74530742274150175,4,4,2
1479396360,2.7089688028706274,42.338767442779087,-71.088173862034694,79.775667622895284,0.04514948004784379,4.3955424928255596e-05,0.00017866650078378522,3.7897672418734164e-05,8.3663988662906427e-05,0.00012867924140629633,1.7917594692280547,1.4432726603308286,-2.986981415844733,-0.7247606735268749,4,4,2
1479396390,2.099687577229939,42.338765330698187,-71.088170167150381,79.215530517906345,0.034994792953832315,0.00062482602868860551,0.0018877551872156543,6.082811198489968e-05,8.2058224761160509e-05,0.0001577482763791698,1.945910149055313,1.4389045338520046,-2.2558686917875312,-0.72064116862525818,4,4,2
1479396420,2.33100411937132,42.338766783444399,-71.08815348697145,353.2719238901625,0.03885006865618867,0.00061873837423129306,0.0018877551872156543,6.082811198489968e-05,9.1934048375210607e-05,0.00018860610782707834,1.945910149055313,1.4463011800653056,0.27411591191041706,-0.72844467248347233,4,4,2
1479396450,5.26504118850424,42.338800714967924,-71.088176366633235,137.06798097254062,0.08775068647507066,6.4054057518037798e-05,0.00024038216367960232,4.2275249855930634e-05,7.115708563128781e-05,0.00012737789457666608,1.7917594692280547,1.4533273118571619,2.8266433394091433,-0.72698982800859613,4,4,2
1479396480,4.098960887268195,42.338784961347336,-71.08817702796506,71.869676268716105,0.06831601478780325,0.014092870314955102,0.040543676233650086,4.2275249855930634e-05,8.2660672478777591e-05,0.00061812448203343428,1.8675843750169276,1.4704911490687758,2.4756371406385611,-0.70133477970587521,4,4,2
1479396510,6.330091659107018,42.338778791063888,-71.088120634918667,125.57762576439711,0.10550152765178364,0.014026418764376715,0.040543676233650086,8.6090145831038242e-05,0.00034414327425797211,0.00070573095292868378,1.8675843750169279,1.4826754805536113,2.1204973267410101,-0.71348558367656711,4,4,2
1479396540,5.344631547592108,42.338817817913608,-71.08810051313425,175.83660126279173,0.08907719245986848,0.00022619006167172909,0.00077954577944218189,8.6090145831038242e-05,0.00020442236636627543,0.00046486180880492425,1.7917594692280547,1.4659129319763915,1.7695339555923419,-0.73443273758318472,4,4,2
1479396570,14.981030719015772,42.338795147817635,-71.088084400883417,180.92434988045142,0.24968384531692953,0.00054182921609199929,0.0017386536453593338,9.2714147899974186e-06,0.00014700674881419059,0.00043560074926611461,1.945910149055313,1.4672666938978201,1.4170917435646284,-0.72895577370289033,4,4,2
1479396600,1.0055942335791273,42.33875858149559,-71.088112011946066,112.71203798706151,0.016759903892985453,0.0005756188145577347,0.0017386536453593338,9.2714147899974186e-06,6.930774539353641e-05,0.00029105203145044422,1.945910149055313,1.4741562517850986,1.054417138733496,-0.73184722234007005,4,4,2
1479396630,3.707477868147272,42.338769568395719,-71.08817522415481,65.0,0.061791297802454535,4.9768321873306215e-05,0.00017617315224989792,5.1952012557450387e-05,6.2174055830008766e-05,0.00015280562338572525,1.7917594692280547,1.4728934442681565,0.69119960503736,-0.73324758698873815,4,4,2
1479396660,0.16555037970444011,42.338777621451158,-71.088181948894416,70.467212666690997,0.0027591729950740018,0.00014455376025062798,0.00052009033523359443,5.1952012557450387e-05,0.00010205063720843538,0.00017238956093431441,1.945910149055313,1.4732672430217744,0.54230865236943637,-0.7326852402285875,4,4,2
1479396690,2.31172579789283,42.338773345296609,-71.088178937062963,71.013933933360107,0.038528763298213836,0.00014157136997422978,0.00052009033523359443,8.3931670246457679e-05,0.00010205063720843538,0.00018173255549530783,1.945910149055313,1.4734949986275243,0.47463414450995906,-0.7350560255959081,4,4,2
1479396720,1.3221323068066244,42.338769758639579,-71.088178403303999,65.0,0.022035538446777074,4.7006437775572219e-05,0.00021134251420284022,7.9002371990177133e-05,8.78897102593638e-05,0.00015254364821280761,1.7917594692280547,1.4727511055049949,0.42466003989112427,-0.73803175506606644,4,4,2
1479396750,2.674061446399864,42.338776067921117,-71.088184526214164,65.0,0.04456769077333107,0.0003453388044786921,0.0010987305304836817,6.6110237843646324e-05,8.938310114412966e-05,0.00017633885592995669,1.945910149055313,1.474157763971937,0.41044274482006499,-0.739524531273965,4,4,2
1479396780,1.2089485824870756,42.338767467389559,-71.088178807530355,65.0,0.02014914304145126,0.0003501692020716185,0.0010987305304836817,3.3081874252141069e-05,7.7795926368295085e-05,0.00017163179732024579,1.945910149055313,1.4744233148546797,0.39870128777916169,-0.74090703329501617,4,4,2
1479396810,2.0632131451944833,42.338764088298802,-71.088175411106121,66.171874141451767,0.034386885753241385,0.00012937770529075084,0.00041575606980703546,3.3081874252141069e-05,6.5005579285677131e-05,0.0001298228148245334,1.7917594692280547,1.4736099099607134,0.36747666434841303,-0.73904018771656632,4,4,2
1479396840,0.16753545832258804,42.338778851133966,-71.088180117982759,74.493616298212146,0.0027922576387098006,0.00058353574598384581,0.0017863412435507376,5.3367625407339265e-05,6.7824409218046703e-05,0.00030935770288466178,1.945910149055313,1.468297313275907,0.17700325395950253,-0.73700921149503451,4,4,2
1479396870,4.900488048498657,42.338778513016699,-71.088178823689375,74.030832815233765,0.08167480080831095,0.00058457074146215315,0.0017863412435507376,5.3367625407339265e-05,9.8664465643551186e-05,0.00017146803799072686,1.945910149055313,1.4641235296572357,0.089923373879667853,-0.7358488901378768,4,4,2
1479396900,4.802121498852294,42.338770249017735,-71.088178784523379,66.377130121030959,0.0800353583142049,4.9791915212145468e-05,0.00013997674001916559,1.8510105376495409e-05,3.6667591276745034e-05,0.00012690609670046901,1.7917594692280547,1.4643994903151933,0.153220423420319,-0.73391696694198816,4,4,2
1479396930,0.0,nan,nan,nan,0.0,6.1061020552481704e-05,0.00017350781419318853,1.8510105376495409e-05,1.9606176849424375e-05,0.00012098410779369078,1.945910149055313,1.4691045535720286,0.081301566736993083,-0.73790821585749344,4,4,2
1479396960,0.0,nan,nan,nan,0.0,6.8258931172112558e-05,0.00019387123867132159,1.928518623815498e-05,3.9830275457479021e-05,0.00016750144324685049,1.945910149055313,1.4702891038302315,-0.010458421997589574,-0.73918382188958842,4,4,2
1479396990,0.0,nan,nan,nan,0.0,0.00011910831989912703,0.00040037330628448707,4.4231969994068666e-05,7.1701363257677421e-05,0.0001857771970786193,1.7917594692280547,1.4668600337726019,-0.076118146429021386,-0.73602892553171761,4,4,2
1479397020,0.0,nan,nan,nan,0.0,0.00012799282125398244,0.00040037330628448707,4.4231969994068666e-05,8.7455940362394569e-05,0.00027507653938841422,1.945910149055313,1.4666374408390046,-0.16384970648143021,-0.73552482603468028,4,4,2
1479397050,0.0,nan,nan,nan,0.0,0.00013106298414287604,0.00036864204274337028,2.7900192850675564e-05,5.5336877835141952e-05,0.00027507653938841422,1.945910149055313,1.4678186108785174,-0.2284096125903477,-0.73694439594942163,4,4,2
1479397080,0.0,42.338762630930098,-71.088079523616003,190.71295449723701,0.0,0.00012016148942832854,0.00036864204274337028,2.7900192850675564e-05,4.1510612107876363e-05,0.00012323222696643778,1.7917594692280547,1.4680020575222983,-0.32259444412424332,-0.73784098782886387,4,4,2
1479397110,6.230697882379887,42.338773719465117,-71.088155735940916,85.952159082872825,0.10384496470633145,6.8394107107723348e-05,0.00024290236231596217,3.9413424399240127e-05,4.9643999160139919e-05,0.00012279504480510953,1.945910149055313,1.4670909025716388,-0.49782296262975395,-0.73723073903858227,4,4,2
1479397140,1.2147220670494667,42.338773312358526,-71.088172990307939,65.0,0.020245367784157777,0.00012532469430705045,0.00042279978947426321,3.9413424399240127e-05,7.1803384732157201e-05,0.00019238029312461337,1.945910149055313,1.4681713934888614,-0.68009735370467916,-0.73714449348687971,4,4,2
1479397170,2.671566738472539,42.338767996196395,-71.088175831286918,77.758619762230524,0.04452611230787565,0.00017408179017136468,0.00050388867794643561,3.1633965301401902e-05,9.6555487194207652e-05,0.00038319806191947211,1.7917594692280547,1.4715442406621799,-0.9387303440931728,-0.73807748684289465,4,4,2
1479397200,2.022069335102582,42.338766190477131,-71.088175336392609,77.807087373168088,0.03370115558504303,0.00016270765561776513,0.00050388867794643561,1.4248476637555542e-05,3.7616852277454462e-05,0.00024053576267199582,1.945910149055313,1.471421947050817,-1.2414805876486454,-0.73879963487721201,4,4,2
1479397230,0.5995867217368156,42.33876570302678,-71.088170466128872,65.044061464488692,0.009993112028946927,6.681208633395234e-05,0.00021667864608889285,1.4248476637555542e-05,5.0257848447747447e-05,0.00014162655674263726,1.945910149055313,1.4692620752101484,-1.5079697906655316,-0.73822582563331873,4,4,2
1479397260,2.356287305796725,42.338762875387339,-71.08816763407836,65.0,0.03927145509661208,0.0003528688346751048,0.0010438098818860665,5.6915957641987857e-05,9.1707011857925728e-05,0.00015207942715287395,1.7917594692280547,1.4687412799401633,-1.7658044903118151,-0.73915153706310799,4,4,2
1479397290,3.1560937116946843,42.338757161141281,-71.088164464912182,73.333352175835003,0.05260156186157807,0.00046632465384303132,0.0011561228001235662,1.0877220559305272e-05,7.2320784302705015e-05,0.00057749659829874934,1.945910149055313,1.4650133573840958,-2.128461707067193,-0.73604582886302283,4,4,2
1479397320,9.393442647874611,42.338751274100446,-71.088149924752244,73.821065752548407,0.15655737746457685,0.00037994055072176669,0.0011561228001235662,1.0877220559305272e-05,3.7750837187152864e-05,0.00019361088688535507,1.945910149055313,1.4606802649725772,-2.5221404510671417,-0.73294394500979743,4,4,2
1479397350,0.35165277010347784,42.338737075918161,-71.088126127148684,65.487713576713389,0.005860879501724631,0.00025988466755351588,0.00068016105409639846,1.0623239991565276e-05,4.2107673018579237e-05,0.00048394783079613179,1.7917594692280547,1.4596739815934885,-2.8710041961420418,-0.73339071000309486,4,4,2
1479397380,4.82006028478661,42.338744864696174,-71.088142796849695,65.0,0.08033433807977683,0.00030285279997907804,0.00075853049872240332,2.0461904886690161e-06,3.6003230848400211e-05,0.00061670600440240743,1.945910149055313,1.4613038611781786,-2.9800837719047597,-0.73413186940374298,4,4,2
1479397410,1.3318485481262117,42.338763915521739,-71.088165697916892,65.0,0.022197475802103527,0.00023946025871419678,0.00075853049872240332,2.0461904886690161e-06,6.1834448683680194e-05,0.0002083856348213399,1.945910149055313,1.46105999076329,-2.9883819803250069,-0.73365381497297089,4,4,2
1479397440,0.44465702867788176,42.338765533639155,-71.088170735677863,65.0,0.007410950477964696,0.00018492543934838001,0.00058803145470725138,3.3375047505435009e-05,7.7790021507810153e-05,0.00019369398494794814,1.7917594692280547,1.46038076251583,-2.99001331138617,-0.73295084777396291,4,4,2
1479397470,3.297177438538316,42.33877239591299,-71.088177297786928,65.0,0.054952957308971935,0.00024773382927259453,0.00069803468735988661,3.3375047505435009e-05,6.3297547408177409e-05,0.00043379364553216892,1.945910149055313,1.460401392375583,-2.9911819953694545,-0.73315084262005414,4,4,2
1479397500,2.091880097737739,42.338789371021015,-71.088183531684621,65.0,0.03486466829562898,0.00021985361290869642,0.00069803468735988661,5.7409313707051512e-05,6.1524650591174347e-05,0.00019285254600378985,1.945910149055313,1.4598353422035717,-2.9933620903092688,-0.73313273122894296,4,4,2
1479397530,2.143132691791146,42.338782133920354,-71.088179527781094,65.0,0.0357188781965191,0.00011676404897085703,0.00036367995053594683,6.600636544878886e-06,6.0285762419900348e-05,0.00015770992958720579,1.7917594692280547,1.4593829172876216,-2.9988001637158503,-0.73391169498822784,4,4,2
1479397560,0.7652312788637587,42.338781299266863,-71.088180895183214,65.0,0.012753854647729313,0.00011584788031394596,0.00036367995053594683,6.600636544878886e-06,4.2547689380500477e-05,0.00019533223214351984,1.945910149055313,1.4588883578188674,-3.0006192261002096,-0.7337660958306006,4,4,2
1479397590,1.5835946774673884,42.338783003804686,-71.08818317835906,65.0,0.026393244624456472,0.00024686485195172999,0.00081597242534018081,3.3796176271549433e-05,9.8411097362639805e-05,0.00026000337329832072,1.945910149055313,1.4638414041917003,-1.2617720149254286,-0.72516688945322305,4,4,2
1479397620,1.0369492961002738,42.338772800090439,-71.088172921597987,65.0,0.017282488268337896,0.00025466560017881073,0.00081597242534018081,5.821939431703127e-05,0.00010432241280999731,0.00028796024279481943,1.7917594692280547,1.4666279509420717,0.01401960290224665,-0.71649172122497085,4,4,2
1479397650,0.35695664497161517,42.338777097714996,-71.088173065017173,65.0,0.005949277416193586,5.3471099950666745e-05,0.00023912366155214257,5.821939431703127e-05,9.8316705366116195e-05,0.00013657856263705922,1.945910149055313,1.4609665874562785,-2.2153238042025274,-0.72053358867528206,4,4,2
1479397680,5.3528432234349,42.338779294309056,-71.088171480739518,65.0,0.089214053723915,0.00024382602378696309,0.00082401048258856429,0.00010605698009844017,0.00012218446109427071,0.00014586001687649422,1.945910149055313,1.4600692607971613,-3.0739237495304512,-0.72477241572634366,4,4,2
1479397710,0.15673426900496268,42.338777432422852,-71.088160527520259,81.548932571813438,0.002612237816749378,0.00028132728791784679,0.00082401048258856429,0.00010605698009844017,0.00018794263878379135,0.00068267464758347337,1.7917594692280547,1.4602142174610349,-2.0209052489846795,-0.7299312593525723,4,4,2
1479397740,3.062393569292581,42.338791295111989,-71.088176912677966,81.548932571813452,0.05103989282154302,0.00022506216322392957,0.00068501282780864881,5.4917272747237457e-05,0.00022185135699194736,0.00051213503940734126,1.945910149055313,1.4601417308281772,1.32894864440004,-0.73157523007641234,4,4,2
1479397770,0.9310047333026639,42.338802748453965,-71.088193948474768,65.0,0.015516745555044398,0.000110723249220385,0.00034860997190673553,5.4917272747237457e-05,9.2431635966330403e-05,0.00024553965604199408,1.945910149055313,1.4604428362717601,3.0556726970221013,-0.73255295185892699,4,4,2
1479397800,2.4317235383069957,42.338801510020161,-71.088192231166744,74.022063643146495,0.040528725638449926,0.0001627414560593278,0.00053125440946642506,5.5093554598120354e-05,7.5575861676174892e-05,0.00015725287113476714,1.7917594692280547,1.4606721951890451,2.9522390645826513,-0.73379003045583568,4,4,2
1479397830,3.2477035044349463,42.33878935523834,-71.08818438834939,97.942309226494402,0.05412839174058244,0.0050574630231609201,0.014912168725656075,6.294785911779209e-05,0.00017534857696879032,0.0033635847091293171,1.8842428460867402,1.4381345069866245,2.6631401223587861,-0.68255432379508518,4,4,2
1479397860,0.7717278600579429,42.33876198251032,-71.088166373181537,107.91674024666581,0.012862131000965716,0.0049962216075200381,0.014912168725656075,6.0359016685434544e-05,0.00015956081560828449,0.0033635847091293171,1.8842428460867393,1.4189747860914701,2.3929525678391683,-0.6529469190917101,4,4,2
1479397890,4.04808645956936,42.338744565425564,-71.088160758189545,87.519615989346505,0.06746810765948934,0.0013466308434133816,0.0037028104127565945,6.0359016685434544e-05,6.8948355820272895e-05,0.0011864339841988385,1.7917594692280547,1.4135541497728032,2.1666927426897082,-0.6631008333250844,4,4,2
1479397920,2.306223589988688,42.338738483114675,-71.088163187863799,76.467206462711275,0.0384370598331448,0.0014193456115289568,0.0037028104127565945,6.4636358883593303e-05,0.00013906588051463891,0.0019657314046696642,1.945910149055313,1.4123620424387329,1.8971838868697504,-0.65900837084135677,4,4,2
1479397950,0.0,42.338746545672301,-71.088175613692997,65.0,0.0,0.0011674486967491872,0.0030802975233141308,0.00012655433984322089,0.00033903026825578107,0.0019987610975127426,1.945910149055313,1.4221353920943727,1.5483827751162029,-0.65894352776529519,4,4,2
1479397980,0.0,42.339333906824102,-71.087317721603497,809.28277236246697,0.0,0.00098981987175876941,0.0030802975233141308,0.00014832994455174831,0.00042932522159780471,0.0013888382010189149,1.7917594692280547,1.4411319087507366,1.1303448514191112,-0.67975387493427986,4,4,2
1479398010,95.79452585869927,42.338895749515963,-71.088041845445531,189.04712872707782,1.5965754309783213,0.0058330391313444309,0.016424859125511684,0.00010757770392178611,0.00023076107913588568,0.0050644663685312447,1.8056165767134955,1.4485357245010959,0.70277735778881312,-0.71192388050821809,4,4,2
1479398040,2.635109573520426,42.338808046777814,-71.088173213346863,105.71389342702427,0.043918492892007104,0.0059661504660606917,0.016424859125511684,7.8699821151864875e-06,0.00012687381152213617,0.0044611809665096929,1.8056165767134955,1.448197826156107,0.080917625097725709,-0.7158389172617351,4,4,2
1479398070,9.081089881713464,42.338799180502988,-71.088161902056342,130.98997838703048,0.1513514980285577,0.016334935739769768,0.043922605938601617,7.8699821151864875e-06,5.1001226596520595e-05,0.00015909592961778883,1.710560083757924,1.4642200469622153,-0.73473068306305611,-0.70815676910701797,4,4,2
1479398100,7.526045894853245,42.338782363848665,-71.088169212120263,87.06924247958554,0.12543409824755408,0.015335598093286234,0.043922605938601617,3.2180506820101739e-06,4.4677339384502366e-05,0.00019294515017523101,1.8675843750169276,1.4807220474136826,-1.4728249538588258,-0.70989004449925786,4,4,2
1479398130,1.9186848911535426,42.338783450169856,-71.08817929236298,65.864546862281742,0.03197808151922571,7.7932357561139265e-05,0.00021257897840054637,3.2180506820101739e-06,5.079243387220746e-05,0.00019294515017523101,1.945910149055313,1.4802482052012014,-2.0690765024974711,-0.71194689196078642,4,4,2
1479398160,3.2718907900771232,42.338761191024268,-71.088174155092901,65.428838260614754,0.05453151316795205,0.00019555249278704857,0.00062015165784856966,4.386842197159276e-05,6.9355601633797891e-05,0.00021303701496638215,1.7917594692280547,1.47800607413503,-2.6216083709013667,-0.71319697293746798,4,4,2
1479398190,2.0723328368698013,42.338756211252708,-71.088171447380915,65.389852964195242,0.03453888061449669,0.00025869864886261427,0.00063702897258765146,5.5212868918903903e-05,7.8441141278986777e-05,0.00061141855958029298,1.945910149055313,1.4592411578130187,-0.40875156270831159,-0.74413953732612004,4,4,2
1479398220,3.438390828961219,42.338770384623423,-71.088175269498848,72.871964522695293,0.05730651381602032,0.00023738849808470382,0.00063702897258765146,5.9889356982208546e-05,7.8441141278986777e-05,0.00037819925384708622,1.945910149055313,1.4500791269156712,1.8779794176860201,-0.75286666767540655,4,4,2
1479398250,4.827437388070411,42.338776968370198,-71.088179474354291,72.871964522695293,0.08045728980117352,8.5610514695246698e-05,0.00028920011145787508,5.9889356982208546e-05,7.616871346136607e-05,0.00021733118763040977,1.7917594692280547,1.45626208239734,2.3159946094571815,-0.73236203982252901,4,4,2
1479398280,2.756215060442997,42.338768437549867,-71.088167950990055,65.0,0.04593691767404995,9.8613801303923306e-05,0.0003155534260036205,4.885666221549052e-05,0.00012497554275996221,0.00027126303953134553,1.945910149055313,1.4590388383782087,1.9347075048609885,-0.73159995570187353,4,4,2
1479398310,1.5935606728255107,42.338773896752684,-71.088166420698315,66.961750640380529,0.026559344547091846,0.00026684949572829998,0.00084034113012101074,2.375614400185726e-05,3.6773512462234413e-05,0.00028443969680421821,1.945910149055313,1.4650352640560687,1.6467586980388287,-0.73174995775437068,4,4,2
1479398340,0.672764251804253,42.338786843454507,-71.088180612627141,67.157925704418588,0.011212737530070883,0.00027708661231619239,0.00084034113012101074,2.375614400185726e-05,5.7783635531270587e-05,0.00027030643273108723,1.7917594692280547,1.4698077385787049,1.3203854411061984,-0.72769728895704555,4,4,2
1479398370,2.6593135572686255,42.338776914252733,-71.088176982349424,65.0,0.044321892621143756,0.00010690697057734742,0.00035182109832474249,3.6319217824048447e-05,0.0001088215955981421,0.00026106520948692514,1.945910149055313,1.4670643674763668,1.0294930145397356,-0.72349682225831136,4,4,2
1479398400,1.8259359964205566,42.338774335191559,-71.088174462629325,65.0,0.030432266607009276,0.00010094585120424334,0.00035182109832474249,3.6319217824048447e-05,8.5137566232450665e-05,0.00019213507611206946,1.945910149055313,1.4658581213473414,0.80275416271872146,-0.7237012301389979,4,4,2
1479398430,3.4201917398107815,42.338770576867319,-71.088170850956743,65.0,0.05700319566351302,5.6262129972120941e-05,0.00026525956041169654,0.00010646019665583317,0.00011310491067923063,0.00018162500506982082,1.7917594692280547,1.4652235366489501,0.54594055964880772,-0.72433442892103006,4,4,2
1479398460,2.2502442475007483,42.338778718880903,-71.088172463702122,65.0,0.03750407079167914,0.00018616123718900708,0.00064327765653080372,6.1418171527962665e-05,9.4090526996185448e-05,0.00022898382635705959,1.945910149055313,1.4654592242664173,0.30839552964817857,-0.72404656393986389,4,4,2
1479398490,2.830696668029508,42.338780596053638,-71.088175359824191,65.0,0.047178277800491795,0.0002012278555009055,0.00064327765653080372,2.4417660943853057e-05,6.7603436048902318e-05,0.00021950505203458551,1.945910149055313,1.4644224903583016,0.11294701337166453,-0.72395836018257353,4,4,2
1479398520,0.6025622288893625,42.338786047445289,-71.088181144125912,65.0,0.010042703814822708,8.0850871395269256e-05,0.00027897089601333191,2.4417660943853057e-05,7.6026258382629074e-05,0.00014979962959697893,1.7917594692280547,1.4619963551260768,-0.086470054182301914,-0.72815955142115818,4,4,2
1479398550,0.9593891017130928,42.33877608521221,-71.088182021706714,65.0,0.01598981836188488,0.00023986169347065027,0.00081665880675218312,8.2738931820990411e-05,0.00012451940439038811,0.00018425258426929748,1.945910149055313,1.4544178336858415,-0.23524091022847698,-0.73190212695496459,4,4,2
1479398580,2.6902426048891357,42.338779215051254,-71.088182901638305,65.123766830226259,0.04483737674815226,0.00024800796629711926,0.00081665880675218312,4.6435824131968993e-05,9.210034642034921e-05,0.00018729863028984215,1.945910149055313,1.4511185480552213,-0.39907007053936722,-0.73348330554800167,4,4,2
1479398610,1.965232439347256,42.338789669055117,-71.088166623991455,87.319109738204148,0.032753873989120934,0.0018353438519746012,0.0052597835097347775,4.6435824131968993e-05,9.1320616008011758e-05,0.0014044827270259257,1.710560083757924,1.4325320749751134,-0.64983222959425757,-0.73997874840885347,4,4,2
1479398640,5.082518772235005,42.338766746222106,-71.088158055597575,98.105307571737995,0.08470864620391676,0.0019698936397405048,0.0052597835097347775,0.00017069088910485238,0.00074920048890616663,0.0040902666735321957,1.8842428460867393,1.4176312743308686,-1.0436154829137012,-0.75269885888965171,4,4,2
1479398670,10.893197293354913,42.338763458143667,-71.088159175435464,122.19064656768364,0.18155328822258188,0.001713732147390707,0.0050921669417569272,5.7699328846753746e-05,0.00034106649315586944,0.0024189403693521691,1.8675843750169276,1.4264751249666587,-1.5962973093517014,-0.75910382449930291,4,4,2
1479398700,9.70741257618462,42.338771162661935,-71.088156322385615,120.93739093698292,0.161790209603077,0.00099193458629563561,0.0024303595990034219,5.7699328846753746e-05,0.00028981065155704355,0.002251638676230567,1.7917594692280547,1.429697338520155,-2.3980766607972517,-0.75930377707140995,4,4,2
1479398730,10.19394504907881,42.338771011555416,-71.088173660398894,94.910329986693085,0.1698990841513135,0.0020362378218405815,0.0062219290247431981,2.4743084221855537e-05,0.00014437208324091712,0.0024246865280892769,1.8675843750169276,1.4284373899244056,0.28151540260829444,-0.75792213207353909,4,4,2
1479398760,6.018510872192022,42.338778096777872,-71.088176431116494,100.4991754826715,0.1003085145365337,0.0020953064603141964,0.0062219290247431981,2.4743084221855537e-05,9.9160176026177269e-05,0.00098960440065405599,1.8675843750169279,1.4294502589120042,2.083459396741246,-0.75832112313928768,4,4,2
1479398790,3.1649681939175665,42.338797726099131,-71.088182806721989,90.120454703226301,0.052749469898626104,0.0023101660996722602,0.00637983276325013,9.6044946869636399e-05,0.00010806411718524133,0.00037411602808000639,1.710560083757924,1.43258044849366,0.98213843089475139,-0.75942943050858547,4,4,2
