TIMESTAMP,DISTANCE,AVG_LAT,AVG_LNG,GPS_ACCURACY,AVG_SPEED_BY_GPS,ACCLERATOR_STD,MAX_ACCLERATOR,MIN_ACCLERATOR,PERCENTILE_25_ACCLERATOR,PERCENTILE_75_ACCLERATOR,ACCLERATOR_ENTROPY,AVG_ROLL,AVG_YAW,AVG_PITCH,WEEK_DAY,LABEL1,LABEL2
1479826620,0.1497736947612271,42.331605539617385,-71.109877979676384,18.4375,0.0024962282460204515,0.0020946297457235786,0.0053137896001439668,5.6036937914155267e-05,6.6309140244691557e-05,9.5935698762879124e-05,1.5284657100610246,-2.4037557207881202,1.6310529101691362,0.063270508595597963,2,0,6
1479826650,0.0,42.331605241673408,-71.109877573392495,15.0,0.0,1.9944855345747956e-05,9.5935698762879124e-05,4.1755990689842135e-05,4.8750712804752586e-05,7.8709334826068856e-05,1.945910149055313,-3.0837635764955915,1.6877708158043843,0.022741289796815358,2,0,6
1479826680,0.0,42.331605241673408,-71.109877573392495,13.333333333333334,0.0,5.9958558297475026e-06,5.9712762263117468e-05,4.1755990689842135e-05,4.8017375173390874e-05,5.5099743738509048e-05,1.7917594692280547,-3.0847101341135921,1.6867518274466413,0.022773862936837766,2,0,6
1479826710,0.0,42.331605241673408,-71.109877573392495,11.0,0.0,5.724615870945866e-06,5.9976482069982385e-05,4.3198841041440155e-05,5.0719018960126167e-05,5.8335029501104857e-05,1.945910149055313,-3.084786102802771,1.6861714423258385,0.022753378239845461,2,0,6
1479826740,0.0,42.331605241673408,-71.109877573392495,10.0,0.0,5.9814645686851341e-06,5.9976482069982385e-05,4.3070369664059481e-05,4.7283865839899426e-05,5.569414911192076e-05,1.945910149055313,-3.0848516373662487,1.6860516062854143,0.022730671400605574,2,0,6
1479826770,0.0,42.331605241673408,-71.109877573392495,10.0,0.0,1.2501574606578037e-05,8.3580275952413422e-05,4.3070369664059481e-05,5.2257711355366855e-05,5.9137977897328082e-05,1.7917594692280547,-3.0849865209246405,1.6862619206128482,0.022706850769665683,2,0,6
1479826800,0.0,42.331605241673408,-71.109877573392495,10.0,0.0,9.8675089862601934e-06,8.3580275952413422e-05,5.4924173506391341e-05,5.8981717058232558e-05,7.4658295998771598e-05,1.945910149055313,-3.0850695616249615,1.6866235266216083,0.022735916380515801,2,0,6
1479826830,0.0,42.331605241673408,-71.109877573392495,10.0,0.0,6.5803623659598767e-06,7.564867522018851e-05,5.7871610312277721e-05,6.1547639987383251e-05,7.3125386551373581e-05,1.945910149055313,-3.0851132553504468,1.6866295051611673,0.022750200215102528,2,0,6
1479826860,0.0,42.331605241673408,-71.109877573392495,10.0,0.0,9.3596465654798124e-06,7.5411865251566739e-05,4.7457709793209461e-05,5.9630583374531296e-05,7.1379080918207243e-05,1.7917594692280547,-3.0851346399001449,1.6864551459882982,0.022763851706142067,2,0,6
1479826890,0.0,42.331605241673408,-71.109877573392495,10.0,0.0,9.9863746385751052e-06,7.5411865251566739e-05,4.7457709793209461e-05,4.9506640451313792e-05,6.5043425392192372e-05,1.945910149055313,-3.08517797523217,1.6863319274247615,0.022786412938484327,2,0,6
1479826920,0.0,42.331605241673408,-71.109877573392495,10.0,0.0,8.7766316862030185e-06,6.9604962379798201e-05,4.2745626535727852e-05,4.9506640451313792e-05,6.1590483392814246e-05,1.945910149055313,-3.0851829495202425,1.6864943567712973,0.022748841584557599,2,0,6
1479826950,0.0,42.331605241673408,-71.109877573392495,10.0,0.0,7.0432978357126578e-06,6.5423288562275434e-05,4.2745626535727852e-05,4.9361260569083024e-05,5.5698311686274197e-05,1.7917594692280547,-3.0851756271415121,1.6868405631674868,0.022673121619801732,2,0,6
1479826980,0.0,42.331605241673408,-71.109877573392495,10.0,0.0,1.1307277768786769e-05,7.6149696045845993e-05,4.3798750898691103e-05,5.0877308118109458e-05,6.9242688897719183e-05,1.945910149055313,-3.0851982456176117,1.6873434974993213,0.02272467844371617,2,0,6
1479827010,0.0,42.331605241673408,-71.109877573392495,10.0,0.0,1.4835268976734699e-05,8.7557745202939899e-05,4.3798750898691103e-05,5.52363970779603e-05,7.334025999750207e-05,1.945910149055313,-3.0851643727211555,1.6877085186700802,0.022745377754574487,2,0,6
1479827040,0.0,42.331605241673408,-71.109877573392495,10.0,0.0,0.00015677212837373282,0.00048429318742378087,4.4553070425960282e-05,5.7628350332929412e-05,8.3938292414436057e-05,1.7917594692280547,-3.0851881741912535,1.6884609689007819,0.022488108692820169,2,0,6
1479827070,0.0,42.331605241673408,-71.109877573392495,10.0,0.0,0.00014201162611245772,0.00048429318742378087,5.4864559200585775e-05,6.6539800729656457e-05,0.00011493432737895203,1.945910149055313,-3.1139304453331418,1.8002347765654443,0.0063963641155176578,2,0,6
1479827100,0.0,42.331605241673408,-71.109877573392495,10.0,0.0,2.6036682075225994e-05,0.00012111475955781348,4.6557865264489515e-05,5.7861893160289672e-05,9.6187248613796317e-05,1.945910149055313,-3.1361782576657689,1.8858778263986029,-0.0049362337711566376,2,0,6
1479827130,0.0,42.331605241673408,-71.109877573392495,10.0,0.0,1.1494998863238533e-05,6.7950472320592033e-05,3.0784890721500777e-05,4.4916782495746193e-05,5.5545154361365782e-05,1.7917594692280547,-3.1371722386724099,1.8888394010310516,-0.0041373919909755098,2,0,6
1479827160,0.0,42.331605241673408,-71.109877573392495,10.0,0.0,1.1744419005912733e-05,6.655460044573793e-05,3.0784890721500777e-05,4.9689007810527695e-05,6.2277310710526657e-05,1.945910149055313,-3.1373784926788568,1.8883589283848354,-0.0041398148003703632,2,0,6
1479827190,0.0,42.331605241673408,-71.109877573392495,10.0,0.0,4.6859328824263116e-06,6.655460044573793e-05,5.1096079293933053e-05,5.9097275131591738e-05,6.3678107794880941e-05,1.945910149055313,-3.1374320957513433,1.8880906105279158,-0.0041194982283467539,2,0,6
1479827220,0.0,42.331605241673408,-71.109877573392495,10.0,0.0,1.1595879869852921e-05,6.2238894871478279e-05,2.9828482240822582e-05,4.0118999198450459e-05,5.7904662188502111e-05,1.7917594692280547,-3.1371774569583919,1.8889212263416819,-0.0037033265707696202,2,0,6
1479827250,0.0,42.331605241673408,-71.109877573392495,10.0,0.0,8.8157747697689177e-06,5.8771800736406479e-05,2.9828482240822582e-05,4.0302059344725648e-05,5.0780651988169276e-05,1.945910149055313,-3.1370994699805688,1.8898656901022601,-0.0034422671372900527,2,0,6
1479827280,0.0,42.331605241673408,-71.109877573392495,10.0,0.0,7.0302961495628065e-06,5.8771800736406479e-05,3.8474262823676395e-05,4.2877208951760005e-05,5.4189110308468949e-05,1.945910149055313,-3.1371441982884614,1.8902257212500884,-0.003494674829170884,2,0,6
1479827310,0.0,42.331605241673408,-71.109877573392495,10.0,0.0,1.0354389450903578e-05,6.9869871493597588e-05,3.8474262823676395e-05,4.2536960062293148e-05,5.3804114632659181e-05,1.7917594692280547,-3.1371988244753131,1.8907490327648597,-0.0034649525847093199,2,0,6
1479827340,0.0,42.331605241673408,-71.109877573392495,10.0,0.0,1.5375412127146813e-05,9.2497647482241358e-05,4.3972716972899106e-05,4.9229742058953509e-05,6.4152383601780432e-05,1.945910149055313,-3.1371988964415998,1.8911008874066471,-0.0033833340571257481,2,0,6
1479827370,0.0,42.331605241673408,-71.109877573392495,10.0,0.0,1.4378093137957899e-05,9.2497647482241358e-05,4.3972716972899106e-05,5.7457482748569332e-05,6.8946349095730852e-05,1.945910149055313,-3.1371750463305026,1.8913795442430958,-0.0033417305626670299,2,0,6
1479827400,0.0,42.331605241673408,-71.109877573392495,10.0,0.0,1.5457296049094742e-05,7.4781988980177443e-05,2.7773237191048811e-05,4.4373768907525239e-05,6.1888945782261713e-05,1.7917594692280547,-3.1371720508133367,1.891569369497655,-0.0033963571970622559,2,0,6
1479827430,0.0,42.331605241673408,-71.109877573392495,10.0,0.0,2.1451807152891632e-05,0.00010012480767031708,2.7773237191048811e-05,4.1518038865875123e-05,5.3873954634398635e-05,1.945910149055313,-3.1369309163577768,1.8919082693285429,-0.0037064698263530953,2,0,6
1479827460,0.0,42.331605241673408,-71.109877573392495,10.0,0.0,2.0739204204584258e-05,0.00010012480767031708,2.8293090600163902e-05,4.409652707261539e-05,5.5209628028477109e-05,1.945910149055313,-3.1368604204610344,1.8915247549031302,-0.0037993321330684585,2,0,6
1479827490,0.0,42.331605241673408,-71.109877573392495,10.0,0.0,1.4404720234340773e-05,7.4394299057027575e-05,2.8293090600163902e-05,5.0452318124000827e-05,6.3520793497394421e-05,1.7917594692280547,-3.1370426350083567,1.8907417139510001,-0.0036922577571535504,2,0,6
1479827520,0.0,42.331605241673408,-71.109877573392495,10.0,0.0,1.2629209214514018e-05,7.4394299057027575e-05,3.1222563135071581e-05,4.9696292906812079e-05,6.0615649508959652e-05,1.945910149055313,-3.1369870705009011,1.8909488425681771,-0.0037966629098760327,2,0,6
1479827550,0.0,42.331605241673408,-71.109877573392495,10.0,0.0,7.5022670839637679e-06,5.5260758449848718e-05,3.1222563135071581e-05,5.0064627919841815e-05,5.2581512019546204e-05,1.945910149055313,-3.1368635676531227,1.891255537530047,-0.0038520847473222271,2,0,6
1479827580,0.0,42.331605241673408,-71.109877573392495,10.0,0.0,1.5128875526618476e-05,8.1597262276259235e-05,3.1005205533112596e-05,5.0051407252919802e-05,5.7786468562798511e-05,1.7917594692280547,-3.1369025674873079,1.89126890724915,-0.0039342723741196146,2,0,6
1479827610,0.0,42.331605241673408,-71.109877573392495,10.0,0.0,1.6982170491406648e-05,8.1597262276259235e-05,3.1005205533112596e-05,3.5933130308689047e-05,6.0292721627071885e-05,1.945910149055313,-3.1369622427305943,1.890368483761,-0.0039853585222753164,2,0,6
1479827640,0.0,42.331605241673408,-71.109877573392495,10.0,0.0,1.0025830762881432e-05,6.0336498833117336e-05,3.4888778954384572e-05,3.7101420723260222e-05,5.4203986452593624e-05,1.945910149055313,-3.1369348328097488,1.8899229737451759,-0.0040180239360739127,2,0,6
1479827670,0.0,42.331605241673408,-71.109877573392495,10.0,0.0,7.5512656523079053e-06,6.0214818284010677e-05,3.7225359783526922e-05,4.5811416669242036e-05,5.4632100593358202e-05,1.7917594692280547,-3.1369724264616714,1.8910546211092285,-0.0042654601569795496,2,0,6
1479827700,0.0,42.331605241673408,-71.109877573392495,10.0,0.0,1.342322433342798e-05,7.2040124528789375e-05,2.5350041860808639e-05,4.1601758300133715e-05,5.1941422769962101e-05,1.945910149055313,-3.1373719757488727,1.8914188235469684,-0.0039969556080429779,2,0,6
1479827730,0.0,42.331605241673408,-71.109877573392495,10.0,0.0,1.3095598328331426e-05,7.2040124528789375e-05,2.5350041860808639e-05,3.8711556630805382e-05,4.6137002917019418e-05,1.945910149055313,-3.1375439111654972,1.8908997384022299,-0.0037137981861018669,2,0,6
1479827760,0.0,42.331605241673408,-71.109877573392495,10.0,0.0,9.0056422879116022e-05,0.0002907494467459166,3.7957195434409944e-05,4.5716320000299432e-05,8.3343106800643285e-05,1.7917594692280547,-3.1373909776312967,1.8908325321778132,-0.0036838486898802749,2,0,6
1479827790,0.0,42.331605241673408,-71.109877573392495,10.0,0.0,8.4636858173927937e-05,0.0002907494467459166,3.9383375630127567e-05,4.286361311902468e-05,7.7362563229525284e-05,1.945910149055313,-3.1373633321538015,1.8909817554248325,-0.003722710087171384,2,0,6
1479827820,0.0,42.331605241673408,-71.109877573392495,10.0,0.0,9.3284278755728779e-06,5.924430146722658e-05,2.6638318573178235e-05,3.8477149526751892e-05,4.6663991541472711e-05,1.945910149055313,-3.1371828971189175,1.8912297148743529,-0.0036272299484447043,2,0,6
1479827850,0.0,42.331605241673408,-71.109877573392495,10.0,0.0,1.1387735257104871e-05,6.0439839956261875e-05,2.6638318573178235e-05,3.8181200509809371e-05,5.3715432459982575e-05,1.7917594692280547,-3.1370020475004829,1.8910876790019699,-0.0033363023734108966,2,0,6
1479827880,0.0,42.331605241673408,-71.109877573392495,10.0,0.0,1.5699825280739069e-05,7.652670150764076e-05,2.6498814801305876e-05,4.7945708525973287e-05,6.4169475512540559e-05,1.945910149055313,-3.1370109548388814,1.8908984772623743,-0.0033764887555916201,2,0,6
1479827910,0.0,42.331605241673408,-71.109877573392495,10.0,0.0,1.675730921089501e-05,7.652670150764076e-05,2.6498814801305876e-05,4.8579398588776585e-05,6.7276646919779096e-05,1.945910149055313,-3.1372333950747993,1.8900675330984913,-0.002087775480832253,2,0,6
1479827940,0.0,42.331605241673408,-71.109877573392495,10.0,0.0,1.1349155459366989e-05,6.6654182770738935e-05,3.674572558047476e-05,4.4657036535984642e-05,6.3556832808188215e-05,1.7917594692280547,-3.1374524722612338,1.8890718113676617,-0.0010818767443761034,2,0,6
1479827970,0.0,42.331605241673408,-71.109877573392495,10.0,0.0,8.5674264481200548e-06,6.4208723065469105e-05,3.7620502041098779e-05,4.3932966888774393e-05,5.3023308158966135e-05,1.7917594692280547,-3.13717417874091,1.8892551581567198,-0.0019353117775102935,2,0,6
1479828000,0.0,42.331605241673408,-71.109877573392495,10.0,0.0,1.4807351240334153e-05,8.6428796117073002e-05,3.7620502041098779e-05,4.3991012654691869e-05,5.2702910462200062e-05,1.945910149055313,-3.1368834622711561,1.8906569951178085,-0.0023223861229624354,2,0,6
1479828030,0.0,42.331605241673408,-71.109877573392495,10.0,0.0,1.6287908473123174e-05,8.6428796117073002e-05,3.0093668489839047e-05,4.3991012654691869e-05,5.6995607309724109e-05,1.945910149055313,-3.1365363041093675,1.8924746058882387,-0.0029168409964377071,2,0,6
1479828060,0.0,42.331605241673408,-71.109877573392495,10.0,0.0,1.4460366706144036e-05,5.9481518843203395e-05,1.5678575003064644e-05,3.1083659960944286e-05,4.9583098674353102e-05,1.7917594692280547,-3.1362178350436651,1.8932570964402418,-0.0033824904447276216,2,0,6
1479828090,0.0,42.331605241673408,-71.109877573392495,10.0,0.0,1.1799159998410567e-05,5.354787672394814e-05,1.5678575003064644e-05,3.6421429006942881e-05,4.6653703433400452e-05,1.945910149055313,-3.1362477136614255,1.893076245452183,-0.0033656334776994154,2,0,6
1479828120,0.0,42.331605241673408,-71.109877573392495,10.0,0.0,6.0884581218619969e-06,5.354787672394814e-05,3.878922363962575e-05,3.9882264342971112e-05,5.2046602383902196e-05,1.945910149055313,-3.1362364762172761,1.8931266402333229,-0.0033578699517648439,2,0,6
1479828150,0.0,42.331605241673408,-71.109877573392495,10.0,0.0,4.5906275083818492e-06,5.1490548413233198e-05,3.9850680054290583e-05,4.1880631473510776e-05,5.0221600767839819e-05,1.7917594692280547,-3.1361527188969966,1.8931747752016637,-0.0033297768615581868,2,0,6
1479828180,0.0,42.331605241673408,-71.109877573392495,10.0,0.0,5.9479042208159357e-06,5.6717270479794343e-05,3.8150008527995068e-05,4.2139253085740988e-05,4.9759415201805021e-05,1.945910149055313,-3.1360903627915468,1.893036407499423,-0.0032612077752707477,2,0,6
1479828210,0.0,42.331605241673408,-71.109877573392495,10.0,0.0,7.3870057480765699e-06,5.6717270479794343e-05,3.732647442158584e-05,3.8100686782249768e-05,5.0959302172053883e-05,1.945910149055313,-3.1360728269038245,1.8931742305890229,-0.0032119198445640339,2,0,6
1479828240,0.0,42.331605241673408,-71.109877573392495,10.0,0.0,1.0427845471408701e-05,6.4002604266253057e-05,3.6315494104503908e-05,3.7507697075315498e-05,5.3492107072601174e-05,1.7917594692280547,-3.13612129043188,1.8935966307550298,-0.0031891335176884267,2,0,6
1479828270,0.0,42.331605241673408,-71.109877573392495,10.0,0.0,8.0978555998980027e-06,6.4002604266253057e-05,3.6315494104503908e-05,4.466933033389487e-05,5.2111567859169399e-05,1.945910149055313,-3.1361688585995586,1.8935212674836301,-0.0031923091198811314,2,0,6
1479828300,0.0,42.331605241673408,-71.109877573392495,10.0,0.0,6.6747928210375898e-06,5.8782458233461871e-05,3.7964436526376743e-05,4.1974521683274462e-05,5.1525165118882718e-05,1.945910149055313,-3.1362007533346783,1.89331905467418,-0.0031802980514324488,2,0,6
1479828330,0.0,42.331605241673408,-71.109877573392495,10.0,0.0,9.9135301318857823e-06,5.8782458233461871e-05,3.2242162455465815e-05,3.4986598471322569e-05,5.0794369588130115e-05,1.7917594692280547,-3.1362026295140351,1.8931537439749768,-0.0032006197698811255,2,0,6
1479828360,0.0,42.331605241673408,-71.109877573392495,10.0,0.0,1.8390760089686766e-05,8.3644693255265396e-05,2.8077300002772315e-05,3.311807412088516e-05,5.8964965447915921e-05,1.945910149055313,-3.1361172747340746,1.8927441385988588,-0.0032107524953601451,2,0,6
1479828390,0.0,42.331605241673408,-71.109877573392495,10.0,0.0,1.8328998003827879e-05,8.3644693255265396e-05,2.8077300002772315e-05,5.1818567679725124e-05,7.7198496727837575e-05,1.945910149055313,-3.1361362207958488,1.89266017847735,-0.0032498169818038517,2,0,6
1479828420,0.0,42.331605241673408,-71.109877573392495,10.0,0.0,1.5782259036162992e-05,7.9556062110281553e-05,3.5867245174854757e-05,4.6814836830240522e-05,7.150544346050031e-05,1.7917594692280547,-3.136232396115695,1.892803161009158,-0.0029790830817531615,2,0,6
1479828450,3.2514182057654435,42.331588896962209,-71.109867146304936,10.0,0.05419030342942406,2.1082261376731069e-05,0.00010262350278109018,3.5867245174854757e-05,4.2165022392515983e-05,5.4901281206129951e-05,1.945910149055313,-3.1354705461119488,1.8761945223446499,-0.0029747537699130349,2,0,6
1479828480,3.2514182057654435,42.3315684660732,-71.10985411244549,10.0,0.05419030342942406,2.0977979160238214e-05,0.00010262350278109018,3.6725614537286284e-05,4.2165022392515983e-05,6.2875585622525215e-05,1.945910149055313,-3.1348907166829569,1.8636708871804402,-0.00337548838746294,2,0,6
1479828510,0.0,42.331564379895404,-71.109851505673603,10.0,0.0,1.0527650256304129e-05,6.3163588861242514e-05,3.6725614537286284e-05,4.4601029418182092e-05,6.2124873064727708e-05,1.7917594692280547,-3.1348858542941467,1.8637324360938032,-0.0036025968942135765,2,0,6
1479828540,0.0,42.331564379895404,-71.109851505673603,10.0,0.0,1.1400614114827407e-05,6.0736745107487038e-05,2.3748435060556354e-05,3.8466033727922908e-05,5.1499161141695842e-05,1.945910149055313,-3.1348590015087088,1.8633835658384157,-0.0036651417353503976,2,0,6
1479828570,0.0,42.331564379895404,-71.109851505673603,10.0,0.0,9.2678540967007463e-06,5.4703200042803009e-05,2.3748435060556354e-05,3.5247529713616717e-05,4.4492565742037426e-05,1.945910149055313,-3.1348680456654097,1.8630486274347786,-0.0036791645334078118,2,0,6
1479828600,0.0,42.331564379895404,-71.109851505673603,10.0,0.0,8.8267355960601669e-06,5.5277457838574222e-05,3.5002577688714696e-05,3.7094715771531856e-05,5.4423140407989337e-05,1.7917594692280547,-3.1349571100093883,1.8630429251761385,-0.0037658957656685802,2,0,6
1479828630,0.0,42.331564379895404,-71.109851505673603,10.0,0.0,8.8333413082118431e-06,5.5277457838574222e-05,2.807699111259812e-05,3.9410450961561893e-05,5.0812731030282601e-05,1.945910149055313,-3.1349650580577837,1.86286238218932,-0.0038609287951997485,2,0,6
1479828660,0.0,42.331564379895404,-71.109851505673603,10.0,0.0,8.8789705169853435e-06,5.8888499969166642e-05,2.807699111259812e-05,3.7868474094693337e-05,4.5106448829854662e-05,1.945910149055313,-3.1348915404868687,1.8631426853409145,-0.003834655280468874,2,0,6
1479828690,0.0,42.331564379895404,-71.109851505673603,10.0,0.0,2.3177849927172968e-05,0.00010545133038200893,3.8817464136834134e-05,4.0543181126115525e-05,5.722612472905894e-05,1.7917594692280547,-3.1347823332948863,1.8635444372935366,-0.0037578919376781892,2,0,6
1479828720,0.0,42.331564379895404,-71.109851505673603,10.0,0.0,2.2108113142265914e-05,0.00010545133038200893,3.7207245960497884e-05,3.9223029326495429e-05,5.1049522879040228e-05,1.945910149055313,-3.134743751596393,1.8634910214471643,-0.0037282437413972717,2,0,6
1479828750,0.0,42.331564379895404,-71.109851505673603,10.0,0.0,9.1046746859200199e-06,6.5883148584139126e-05,3.7207245960497884e-05,3.9967980164816328e-05,5.0357931366201087e-05,1.945910149055313,-3.1347083819557744,1.8636777390189272,-0.0035361130920956432,2,0,6
1479828780,0.0,42.331564379895404,-71.109851505673603,10.0,0.0,8.1090424305053015e-06,6.5883148584139126e-05,4.1561238574076345e-05,4.3970504723489126e-05,5.1379464976749124e-05,1.7917594692280547,-3.1350072354863698,1.86250762103311,-0.0035308241205233748,2,0,6
1479828810,0.0,42.331564379895404,-71.109851505673603,10.0,0.0,4.4413285294115214e-06,5.1554014641312978e-05,3.9814177032802414e-05,4.0847695272261765e-05,4.7739116322132954e-05,1.945910149055313,-3.1357502246481332,1.8604214497473843,-0.0039129516141676781,2,0,6
1479828840,0.0,42.331564379895404,-71.109851505673603,10.0,0.0,3.2444767903964007e-06,4.48024213200992e-05,3.4674719554519762e-05,3.9974164501624799e-05,4.3906747016545758e-05,1.945910149055313,-3.1350800355661086,1.8697048033214443,-0.0046901228207121282,2,0,6
1479828870,0.0,42.331564379895404,-71.109851505673603,10.0,0.0,6.654677767083384e-06,5.4825451660997297e-05,3.4674719554519762e-05,4.2417482046062433e-05,5.0755234148176716e-05,1.7917594692280547,-3.1338713297034779,1.8828111035780584,-0.0056166052106004227,2,0,6
1479828900,0.0,42.331564379895404,-71.109851505673603,10.0,0.0,4.9827053326766074e-06,5.4825451660997297e-05,3.7605667041484185e-05,4.6020115984392551e-05,5.0307637367880579e-05,1.945910149055313,-3.1338909792697409,1.8825770425175257,-0.0056078099029855501,2,0,6
1479828930,0.0,42.331564379895404,-71.109851505673603,10.0,0.0,8.1425839538138635e-06,4.8253280803913793e-05,2.2966641516864204e-05,4.0615050186250978e-05,4.6020115984392551e-05,1.945910149055313,-3.1338785343315432,1.8824900376420801,-0.0055767824726911689,2,0,6
1479828960,0.0,42.331564379895404,-71.109851505673603,10.0,0.0,8.2606072421554991e-06,4.7214529141563864e-05,2.2966641516864204e-05,3.5161772117182905e-05,4.4890066555307969e-05,1.7917594692280547,-3.1339490123577285,1.8826228947793382,-0.0055934334300750217,2,0,6
1479828990,0.0,42.331564379895404,-71.109851505673603,10.0,0.0,1.2722583798751723e-05,7.4316735305627053e-05,3.4930654896321966e-05,3.8060410260814902e-05,5.1345713886452134e-05,1.945910149055313,-3.133951599210349,1.8821912775099945,-0.0056564363196362818,2,0,6
1479829020,0.0,42.331564379895404,-71.109851505673603,10.0,0.0,1.2111105389745392e-05,7.4316735305627053e-05,3.3518557744230771e-05,4.2833507022625437e-05,5.4646745537185594e-05,1.945910149055313,-3.1339587757712701,1.8816817122525669,-0.0056720130718068426,2,0,6
1479829050,0.0,42.331564379895404,-71.109851505673603,10.0,0.0,9.2246064002372142e-06,5.3816592443030778e-05,2.6604476684856902e-05,3.5081348028942618e-05,4.7759803205097994e-05,1.7917594692280547,-3.1339669872823417,1.8813738409864416,-0.0056780563498597418,2,0,6
1479829080,0.0,42.331564379895404,-71.109851505673603,10.0,0.0,7.5762992362666265e-06,5.1805245678833461e-05,2.6604476684856902e-05,4.1355671471814958e-05,4.740082175970965e-05,1.945910149055313,-3.1339259216634656,1.8812167870849628,-0.0056943382570239396,2,0,6
1479829110,0.0,42.331564379895404,-71.109851505673603,10.0,0.0,5.6064806738425362e-06,5.1805245678833461e-05,3.3630616423376137e-05,4.0554408675346228e-05,4.6715674054214296e-05,1.945910149055313,-3.1339690618737914,1.8811780629268113,-0.0056161795141198862,2,0,6
1479829140,0.0,42.331564379895404,-71.109851505673603,10.0,0.0,5.0166434874292351e-06,4.762626988406162e-05,3.3630616423376137e-05,3.5571979922780197e-05,4.3452834766881728e-05,1.7917594692280547,-3.1343942279920665,1.8776204853581897,-0.0053570819303681355,2,0,6
1479829170,0.0,42.331564379895404,-71.109851505673603,10.0,0.0,9.1812529518421496e-06,6.0278454174571257e-05,3.2143764377805294e-05,3.556140576114557e-05,4.8504664551367489e-05,1.945910149055313,-3.1356544361906198,1.8647700847777655,-0.0045144332859083595,2,0,6
1479829200,0.0,42.331564379895404,-71.109851505673603,10.0,0.0,9.6250719191567585e-06,6.0278454174571257e-05,3.2143764377805294e-05,3.548052818694624e-05,4.9153134461485046e-05,1.945910149055313,-3.1362816937832538,1.8580460717220801,-0.0039405410764270172,2,0,6
1479829230,0.0,42.331564379895404,-71.109851505673603,10.0,0.0,7.4780118032650916e-06,5.509169954841442e-05,3.4764620483462978e-05,3.6414554440490786e-05,4.8002947401792128e-05,1.7917594692280547,-3.1361977947625079,1.8581455244371696,-0.0039391607981513598,2,0,6
1479829260,0.0,42.331564379895404,-71.109851505673603,10.0,0.0,6.6322313360534071e-06,5.509169954841442e-05,3.6732824477275738e-05,3.8400638031230793e-05,4.986204305651444e-05,1.945910149055313,-3.1360321990555229,1.8582112369266555,-0.0039021360505290307,2,0,6
1479829290,0.0,42.331564379895404,-71.109851505673603,10.0,0.0,2.7340026200585913e-05,0.00011847603095285106,3.6165029528875056e-05,3.8232595224531348e-05,6.0710149299386418e-05,1.945910149055313,-3.1358794200026217,1.8586941845171943,-0.0038037664224015977,2,0,6
1479829320,0.0,42.331564379895404,-71.109851505673603,10.0,0.0,3.1134143952612929e-05,0.00011847603095285106,3.6165029528875056e-05,4.3063424367796082e-05,9.2620750543828358e-05,1.7917594692280547,-3.1358843028975354,1.8590102407377069,-0.0038230355202191531,2,0,6
1479829350,0.0,42.331564379895404,-71.109851505673603,10.0,0.0,2.0976195778275994e-05,9.9667748821394655e-05,3.0169015331741053e-05,4.3076639972112975e-05,6.2251203560144825e-05,1.945910149055313,-3.1358973872494031,1.8591657611529944,-0.0038325640037470301,2,0,6
1479829380,0.0,42.331564379895404,-71.109851505673603,10.0,0.0,1.9603584766325903e-05,9.2721120904998451e-05,3.0169015331741053e-05,4.1449096149193969e-05,6.2251203560144825e-05,1.945910149055313,-3.1358905075109313,1.8594235829972032,-0.0037292917934113761,2,0,6
1479829410,0.0,42.331564379895404,-71.109851505673603,10.0,0.0,3.228129095138567e-05,0.00011888913519480626,3.1805935216189461e-05,3.7915546582751281e-05,8.1523995993310625e-05,1.7917594692280547,-3.1358638282239468,1.8594929219099885,-0.0037116591390431715,2,0,6
1479829440,0.0,42.331564379895404,-71.109851505673603,10.0,0.0,3.0491509278009395e-05,0.00011888913519480626,3.1805935216189461e-05,4.9037011571269928e-05,9.2902201989339872e-05,1.945910149055313,-3.1358170774955587,1.8592373562704785,-0.0037817174979405928,2,0,6
1479829470,0.0,42.331564379895404,-71.109851505673603,10.0,0.0,3.8159153797769379e-05,0.00017506793599548776,5.1308549931957127e-05,6.884621714441261e-05,9.8258254497578061e-05,1.945910149055313,-3.1358970975525557,1.8592486884898829,-0.0038109414945057258,2,0,6
1479829500,0.0,42.331564379895404,-71.109851505673603,10.0,0.0,4.7239994244628067e-05,0.00017506793599548776,2.9734203922167974e-05,4.6564041846229515e-05,8.4612309209770116e-05,1.7917594692280547,-3.1359274640324082,1.8595446181178934,-0.0038123831411401633,2,0,6
1479829530,0.0,42.331564379895404,-71.109851505673603,10.0,0.0,1.9858034573238249e-05,8.9464939927002478e-05,2.9734203922167974e-05,4.018129272670167e-05,7.0353060624718186e-05,1.945910149055313,-3.1359701364825443,1.8595093039856301,-0.0037576935582120073,2,0,6
1479829560,0.0,42.331564379895404,-71.109851505673603,10.0,0.0,2.7256441355214282e-05,0.00010877402546121883,3.3286134769252771e-05,4.8352326248031324e-05,9.474375145994452e-05,1.945910149055313,-3.1359964139732042,1.8594302734185,-0.0037014116607367803,2,0,6
1479829590,0.0,42.331564379895404,-71.109851505673603,10.0,0.0,3.8681811242010794e-05,0.00011802636105424756,1.8180191901131649e-05,4.9309815167547787e-05,0.00010658615984413577,1.7917594692280547,-3.1360155908699685,1.8595371477068916,-0.0036649261956200603,2,0,6
1479829620,0.0,42.331564379895404,-71.109851505673603,10.0,0.0,5.0105227527809719e-05,0.00017584653255169291,1.8180191901131649e-05,4.2329064307192737e-05,0.0001077036087083402,1.945910149055313,-3.1359806021547101,1.8590112940069727,-0.0036736798965585518,2,0,6
1479829650,0.0,42.331564379895404,-71.109851505673603,10.0,0.0,4.6957773833265239e-05,0.00017584653255169291,2.6230048266634672e-05,4.2329064307192737e-05,8.2666501116798283e-05,1.945910149055313,-3.1358961284761486,1.8583009736107656,-0.003718598466011394,2,0,6
1479829680,0.0,42.331564379895404,-71.109851505673603,10.0,0.0,3.1176810014179166e-05,0.0001184099125517827,2.6230048266634672e-05,4.2642126834020957e-05,8.3094319141245319e-05,1.7917594692280547,-3.1358749060057955,1.8583320702058883,-0.0037105585397704186,2,0,6
1479829710,0.0,42.331564379895404,-71.109851505673603,10.0,0.0,4.4517033270772714e-05,0.0001599544429482862,3.0097010263353576e-05,4.0321234278985198e-05,0.00010097173513755105,1.945910149055313,-3.1358572572817498,1.8591012850051114,-0.0036442198541319372,2,0,6
1479829740,0.0,42.331564379895404,-71.109851505673603,10.0,0.0,4.0864645384501043e-05,0.0001599544429482862,3.0097010263353576e-05,4.1761873616262307e-05,5.5427702271458884e-05,1.945910149055313,-3.135764342414423,1.8592108259583402,-0.003744963136010361,2,0,6
1479829770,0.0,42.331564379895404,-71.109851505673603,10.0,0.0,1.522122981683473e-05,8.0547136386744847e-05,3.0340067430999424e-05,4.3993974866153789e-05,5.1917216733815178e-05,1.7917594692280547,-3.1357026331799833,1.8590864069895849,-0.0038459612658804879,2,0,6
1479829800,0.0,42.331564379895404,-71.109851505673603,10.0,0.0,1.9563406191191433e-05,8.0547136386744847e-05,3.0340067430999424e-05,3.8552545068652058e-05,7.4478911441118245e-05,1.945910149055313,-3.1356355910373681,1.8591296819839915,-0.0038394038621063324,2,0,6
1479829830,0.0,42.331564379895404,-71.109851505673603,10.0,0.0,1.7961642364680233e-05,7.7492550736155976e-05,2.6364550509370044e-05,3.5761001928529492e-05,5.8510730826106548e-05,1.945910149055313,-3.1355827711655997,1.8589012571237544,-0.0038493560533165716,2,0,6
1479829860,0.0,42.331564379895404,-71.109851505673603,10.0,0.0,7.7577787260257614e-05,0.00025210652494926493,2.6364550509370044e-05,3.7257556444083884e-05,8.0012669108856719e-05,1.7917594692280547,-3.1356665318657151,1.85904741087849,-0.0039014568947107185,2,0,6
1479829890,0.0,42.331564379895404,-71.109851505673603,10.0,0.0,7.2941246374034962e-05,0.00025210652494926493,4.1310287779175858e-05,4.9721553956837724e-05,0.00012418889379310405,1.945910149055313,-3.1356998389581596,1.859240213193124,-0.0039299477379746281,2,0,6
1479829920,0.0,42.331564379895404,-71.109851505673603,10.0,0.0,4.053851643104588e-05,0.0001615868296650357,4.1228088990533705e-05,4.3817566873806499e-05,5.062787037083684e-05,1.945910149055313,-3.1348640559387944,1.8664214318349115,-0.004404196432424407,2,0,6
1479829950,0.0,42.331564379895404,-71.109851505673603,10.0,0.0,1.3612436497675542e-05,8.2563791871166406e-05,4.1228088990533705e-05,4.6987840901593023e-05,6.0048281443755649e-05,1.7917594692280547,-3.1331382659742673,1.8795207311935116,-0.0053399693480619586,2,0,6
1479829980,0.0,42.331564379895404,-71.109851505673603,10.0,0.0,1.5985924466528733e-05,8.2563791871166406e-05,3.3729890447379333e-05,3.8440063289240918e-05,5.8912222558414793e-05,1.945910149055313,-3.1327476836796384,1.8826083859647487,-0.0057899099327251872,2,0,6
1479830010,0.0,42.331564379895404,-71.109851505673603,10.0,0.0,4.2201854020600933e-05,0.00016047248022515905,3.3729890447379333e-05,3.7025551601963919e-05,4.906273821057226e-05,1.945910149055313,-3.1341063927706321,1.8795869720343699,-0.0067329343425051652,2,0,6
1479830040,0.0,42.331564379895404,-71.109851505673603,10.0,0.0,4.4694941313146383e-05,0.00016047248022515905,3.6877705904553885e-05,4.0273738614207515e-05,4.2444985779158866e-05,1.7917594692280547,-3.1369401507778729,1.874130259224118,-0.010135519665309562,2,0,6
1479830070,0.0,42.331564379895404,-71.109851505673603,10.0,0.0,5.2096570919637869e-06,4.5810392557903254e-05,3.0936967919004458e-05,3.342409270291463e-05,4.2089866918924434e-05,1.945910149055313,-3.1379101341255571,1.8722723584593113,-0.01290541678285353,2,0,6
1479830100,0.0,42.331564379895404,-71.109851505673603,10.0,0.0,7.3028296752628707e-06,5.2658279363022823e-05,3.0936967919004458e-05,3.342409270291463e-05,4.4291584934135396e-05,1.945910149055313,-3.137681402471209,1.8721034621768271,-0.013330437615210472,2,0,6
1479830130,0.0,42.331564379895404,-71.109851505673603,10.0,0.0,6.1180994790201452e-06,5.2658279363022823e-05,3.5467235452469131e-05,3.8191752393547721e-05,4.751747327112353e-05,1.7917594692280547,-3.1376482683497886,1.8718587422734283,-0.013441874383427714,2,0,6
1479830160,0.0,42.331564379895404,-71.109851505673603,10.0,0.0,4.4467273485348266e-06,4.909903859137553e-05,3.4960832677513465e-05,3.6290818127354864e-05,3.9804988717879088e-05,1.945910149055313,-3.1376420225097945,1.8714444175159273,-0.013465903448679886,2,0,6
1479830190,0.0,42.331564379895404,-71.109851505673603,10.0,0.0,6.3764901419304974e-06,5.0914698829976404e-05,3.3326083477432119e-05,3.6037616739877031e-05,4.4871787217819426e-05,1.945910149055313,-3.1376527195106569,1.8711331424682258,-0.013497700342975103,2,0,6
1479830220,0.0,42.331564379895404,-71.109851505673603,10.0,0.0,6.7141912709567211e-06,5.0914698829976404e-05,3.3326083477432119e-05,3.6090421233027085e-05,4.741469738534136e-05,1.7917594692280547,-3.1376955551864278,1.8714421860308936,-0.013564194523024582,2,0,6
1479830250,0.0,42.331564379895404,-71.109851505673603,10.0,0.0,3.7193933259076358e-06,4.4291851698467611e-05,3.3736285717859952e-05,3.4837275836877867e-05,4.0998123344271228e-05,1.945910149055313,-3.1376916347915902,1.8717770481971299,-0.013594416783784513,2,0,6
1479830280,0.0,42.331564379895404,-71.109851505673603,10.0,0.0,7.1353487651609776e-06,5.4219409278007173e-05,3.2241225371349965e-05,3.3908577878251898e-05,4.2632976798682834e-05,1.945910149055313,-3.1376473790743709,1.8719184777434601,-0.013573880937151601,2,0,6
1479830310,0.0,42.331564379895404,-71.109851505673603,10.0,0.0,7.6580617655357946e-06,5.4219409278007173e-05,3.2241225371349965e-05,3.9593719788282978e-05,5.0655079211249134e-05,1.7917594692280547,-3.1376325621312362,1.8724205274680168,-0.013554714949322652,2,0,6
1479830340,0.0,42.331564379895404,-71.109851505673603,10.0,0.0,7.4262294528620219e-06,5.1260959179837452e-05,3.0686737276885889e-05,3.4094949053324605e-05,4.6808742647728981e-05,1.945910149055313,-3.1376557560932383,1.8727642930264412,-0.01356248233534277,2,0,6
1479830370,0.0,42.331564379895404,-71.109851505673603,10.0,0.0,8.4730118049203259e-06,5.2585322688329086e-05,3.0686737276885889e-05,3.4094949053324605e-05,4.9783651000185177e-05,1.945910149055313,-3.1376892617236893,1.8728593912294826,-0.013595019059156629,2,0,6
1479830400,0.0,42.331564379895404,-71.109851505673603,10.0,0.0,5.5465272954216545e-06,5.4240011779634203e-05,3.8906706802725163e-05,4.3952873974586029e-05,5.2337078576513938e-05,1.7917594692280547,-3.1377061346715034,1.8725583044454635,-0.0136419193416163,2,0,6
1479830430,0.0,42.331564379895404,-71.109851505673603,10.0,0.0,6.8130806410617669e-06,5.4240011779634203e-05,3.4947447894098711e-05,3.7697413323277956e-05,4.6712071622365519e-05,1.945910149055313,-3.1376898899860897,1.8724982424711869,-0.013616722538547713,2,0,6
1479830460,0.0,42.331564379895404,-71.109851505673603,10.0,0.0,1.0627343290300461e-05,6.4679229094313922e-05,3.2862510028301309e-05,3.571778386896473e-05,4.4928960928051378e-05,1.945910149055313,-3.1376667793359645,1.8727528848023829,-0.013622873682041445,2,0,6
1479830490,0.0,42.331564379895404,-71.109851505673603,10.0,0.0,1.1598580094336317e-05,6.4679229094313922e-05,2.836673294098046e-05,3.3856401842093532e-05,4.0375954072806272e-05,1.7917594692280547,-3.1376083619435917,1.8724833999916932,-0.013631496364419701,2,0,6
1479830520,0.0,42.331564379895404,-71.109851505673603,10.0,0.0,6.0271305578544759e-06,4.8308068299078577e-05,2.836673294098046e-05,3.814669788401092e-05,4.369909091492712e-05,1.945910149055313,-3.1376163654627569,1.8719870789476372,-0.013646031816820928,2,0,6
1479830550,0.0,42.331564379895404,-71.109851505673603,10.0,0.0,5.8860053846647482e-06,4.8308068299078577e-05,3.0702419923235275e-05,3.6159335386823454e-05,4.4937508845104175e-05,1.945910149055313,-3.1376512392548848,1.8722045155007156,-0.013662020848028058,2,0,6
1479830580,0.0,42.331564379895404,-71.109851505673603,10.0,0.0,5.396113049109751e-06,4.7169491342553173e-05,3.0702419923235275e-05,3.5557644945465982e-05,4.2136834050194047e-05,1.7917594692280547,-3.1377019733141132,1.8730100882876837,-0.013668340200514535,2,0,6
1479830610,0.0,42.331564379895404,-71.109851505673603,10.0,0.0,8.2811138828803505e-06,6.4416316266495185e-05,3.821632290899795e-05,4.1576164037108369e-05,4.9295910751725367e-05,1.945910149055313,-3.1377260378281648,1.8730535510265356,-0.013694533964910558,2,0,6
1479830640,0.0,42.331564379895404,-71.109851505673603,10.0,0.0,7.856727835355542e-06,6.4416316266495185e-05,3.8552735194357419e-05,4.2869378712585095e-05,4.9818666150730162e-05,1.945910149055313,-3.1376999743819569,1.8729273269144673,-0.013647562976443973,2,0,6
1479830670,0.0,42.331564379895404,-71.109851505673603,10.0,0.0,5.5683718687557143e-06,4.9795908214134365e-05,3.5360778232346994e-05,3.9125947803627855e-05,4.8534565908932576e-05,1.7917594692280547,-3.1377100493774299,1.8730146835770132,-0.013604891590577865,2,0,6
1479830700,0.0,42.331564379895404,-71.109851505673603,10.0,0.0,8.638773138732398e-06,6.3375027330908406e-05,3.5360778232346994e-05,4.0225882672895565e-05,4.9218497689595104e-05,1.945910149055313,-3.1376924281998098,1.8727115205261671,-0.013658793031862959,2,0,6
1479830730,0.0,42.331564379895404,-71.109851505673603,10.0,0.0,9.222748833228833e-06,6.3375027330908406e-05,3.319131712114779e-05,3.6634298506130596e-05,4.333094142391458e-05,1.945910149055313,-3.1376449298033044,1.8725654294944916,-0.013681549493505743,2,0,6
1479830760,0.0,42.331564379895404,-71.109851505673603,10.0,0.0,7.94390252522258e-06,5.7680523537166354e-05,3.319131712114779e-05,3.6861668796321287e-05,4.4992936993798887e-05,1.7917594692280547,-3.1376794189681729,1.8724611018703265,-0.013672226363706548,2,0,6
1479830790,0.0,42.331564379895404,-71.109851505673603,10.0,0.0,8.18099014346034e-06,5.7680523537166354e-05,3.3016023933670418e-05,3.7301095139440774e-05,4.7859086178654792e-05,1.945910149055313,-3.1376958671581869,1.872504282141003,-0.013715134483832941,2,0,6
1479830820,0.0,42.331564379895404,-71.109851505673603,10.0,0.0,9.5212051565788988e-06,5.7690443764545955e-05,3.3016023933670418e-05,3.3411456588033071e-05,5.11859744559361e-05,1.945910149055313,-3.1376640417371431,1.8727374073157044,-0.013718949503115857,2,0,6
1479830850,0.0,42.331564379895404,-71.109851505673603,10.0,0.0,1.4009254386138466e-05,5.7690443764545955e-05,1.7053943593704421e-05,3.4921427409641276e-05,5.2965769238268276e-05,1.7917594692280547,-3.1376117510246004,1.8726223382769802,-0.013733230861140949,2,0,6
1479830880,0.0,42.331564379895404,-71.109851505673603,10.0,0.0,1.221318580480437e-05,5.592321914202366e-05,1.7053943593704421e-05,3.7059423800843457e-05,5.0476264201725157e-05,1.945910149055313,-3.1376682918388914,1.8718452161495784,-0.013771088856413186,2,0,6
1479830910,0.0,42.331564379895404,-71.109851505673603,10.0,0.0,6.8790536400324442e-06,5.592321914202366e-05,3.4841433912032872e-05,3.7483028071414652e-05,4.6462520374983436e-05,1.945910149055313,-3.1377123733189398,1.8715524528923029,-0.013733916098497501,2,0,6
1479830940,0.0,42.331564379895404,-71.109851505673603,10.0,0.0,3.6199375917034943e-06,3.9757138763694477e-05,2.9087648666780108e-05,3.4212379595377643e-05,3.8042068231471172e-05,1.7917594692280547,-3.1376665404892883,1.8717432478031866,-0.0137441226950072,2,0,6
1479830970,0.0,42.331564379895404,-71.109851505673603,10.0,0.0,6.7484022098458906e-06,4.6969202203702157e-05,2.9087648666780108e-05,3.1221223950459148e-05,4.1932918433910302e-05,1.945910149055313,-3.1376855066431455,1.8717496651495,-0.013761561543813786,2,0,6
1479831000,0.0,42.331564379895404,-71.109851505673603,10.0,0.0,9.4379756515731677e-06,5.9990359889438339e-05,2.922330188809059e-05,4.0254968884630144e-05,4.9382959829199095e-05,1.945910149055313,-3.1376906722370199,1.871645377263603,-0.013759563519701959,2,0,6
1479831030,0.0,42.331564379895404,-71.109851505673603,10.0,0.0,8.2638468094270912e-06,5.9990359889438339e-05,3.3789878130238803e-05,4.1140980178475978e-05,4.9949214834696628e-05,1.7917594692280547,-3.1376716565595686,1.8715542428655183,-0.013759045945755067,2,0,6
1479831060,0.0,42.331564379895404,-71.109851505673603,10.0,0.0,3.9787356062547506e-06,4.5838909090729714e-05,3.3789878130238803e-05,3.8316788544088137e-05,4.3391237395364954e-05,1.945910149055313,-3.1376655661025561,1.8715449139276557,-0.013774507255739156,2,0,6
1479831090,0.0,42.331564379895404,-71.109851505673603,10.0,0.0,4.3869401025120834e-06,5.1407684121769309e-05,3.6052078756230398e-05,4.242228050766314e-05,4.5859669931638399e-05,1.945910149055313,-3.1376512629301181,1.8719273271993468,-0.013804873551737814,2,0,6
1479831120,0.0,42.331564379895404,-71.109851505673603,10.0,0.0,5.3612867497560768e-06,5.1943836573413232e-05,3.584238314358305e-05,4.4267034815611584e-05,5.0025870784463758e-05,1.7917594692280547,-3.1376399569252924,1.8723003365892616,-0.013793237731102999,2,0,6
1479831150,0.0,42.331564379895404,-71.109851505673603,10.0,0.0,5.7282923125712483e-06,5.1943836573413232e-05,3.5812812518039926e-05,3.7007329630696389e-05,4.6278923360623808e-05,1.945910149055313,-3.1376527003279731,1.8722200295451412,-0.013802356452149571,2,0,6
1479831180,0.0,42.331564379895404,-71.109851505673603,10.0,0.0,5.5695474010915906e-06,5.1806857334732699e-05,3.5812812518039926e-05,4.1993048521035581e-05,4.8803450198797634e-05,1.945910149055313,-3.1376494021280044,1.8723205670788243,-0.013833456193138527,2,0,6
1479831210,0.0,42.331564379895404,-71.109851505673603,10.0,0.0,7.5792666646654856e-06,5.7281268799440682e-05,3.296894351962899e-05,4.7438627943698011e-05,5.1570861651201801e-05,1.7917594692280547,-3.1376569634314051,1.8723972545115946,-0.013821272822648731,2,0,6
1479831240,0.0,42.331564379895404,-71.109851505673603,10.0,0.0,8.2535411282932741e-06,5.7281268799440682e-05,3.296894351962899e-05,3.7711457730768055e-05,5.0452226199990471e-05,1.945910149055313,-3.1376793131678729,1.8724012372358643,-0.013795452345462913,2,0,6
1479831270,0.0,42.331564379895404,-71.109851505673603,10.0,0.0,7.4220776579699317e-06,6.0055630660002377e-05,3.5405048881100187e-05,4.0830264333587341e-05,4.9071555031408588e-05,1.945910149055313,-3.1376613108043441,1.8724664329626941,-0.013823766559034755,2,0,6
1479831300,0.0,42.331564379895404,-71.109851505673603,10.0,0.0,8.0358127095546139e-06,6.0055630660002377e-05,3.2581765069421781e-05,4.4508538283292873e-05,4.7912250244949299e-05,1.7917594692280547,-3.1376268389993562,1.8723211087328904,-0.013844364316830601,2,0,6
1479831330,0.0,42.331564379895404,-71.109851505673603,10.0,0.0,1.1763271315940708e-05,6.7410205475595272e-05,3.2581765069421781e-05,4.4567755603875308e-05,5.7255394168490348e-05,1.945910149055313,-3.137648105054629,1.8724037453241387,-0.013831537871993928,2,0,6
1479831360,0.0,42.331564379895404,-71.109851505673603,10.0,0.0,8.7789130022326608e-06,6.7410205475595272e-05,4.5176758457424269e-05,4.7655678909920954e-05,5.8883207411450542e-05,1.945910149055313,-3.1376784676883824,1.8725059115685743,-0.013849732494170942,2,0,6
1479831390,0.0,42.331564379895404,-71.109851505673603,10.0,0.0,8.8619428183012091e-06,6.4900250751626025e-05,3.6022147979327822e-05,4.3675469626978809e-05,5.0388202161461866e-05,1.7917594692280547,-3.1377323329418569,1.8723155114990051,-0.0138392619611975,2,0,6
1479831420,0.0,42.331564379895404,-71.109851505673603,10.0,0.0,8.6760557960610931e-06,6.4900250751626025e-05,3.6022147979327822e-05,4.1844411883390446e-05,5.1229611429553377e-05,1.945910149055313,-3.1377357653751123,1.8723929236029357,-0.013819108476531713,2,0,6
1479831450,0.0,42.331564379895404,-71.109851505673603,10.0,0.0,6.8168359477658353e-06,5.1941231449425085e-05,3.4989320582368052e-05,3.6118921337738187e-05,4.9407141499598791e-05,1.945910149055313,-3.1376987813752857,1.87249232275046,-0.013822848320544428,2,0,6
1479831480,0.0,42.331564379895404,-71.109851505673603,10.0,0.0,6.4330138715330244e-06,4.9565877398829139e-05,3.0675600755642756e-05,3.5199063002497939e-05,4.2786279870488756e-05,1.7917594692280547,-3.137722655825558,1.8726052869023719,-0.01387499109594275,2,0,6
1479831510,0.0,42.331564379895404,-71.109851505673603,10.0,0.0,6.9514752101779505e-06,5.2611296447782529e-05,3.0675600755642756e-05,4.1758000005279769e-05,4.8732857520010899e-05,1.945910149055313,-3.1377781458903242,1.8724831332380345,-0.013964796494452055,2,0,6
1479831540,0.0,42.331564379895404,-71.109851505673603,10.0,0.0,5.8840014485402309e-06,5.2611296447782529e-05,3.3637006789153302e-05,4.0236554512153248e-05,4.7717678123078379e-05,1.945910149055313,-3.1377834079449416,1.8720762614197259,-0.013966637182085812,2,0,6
1479831570,0.0,42.331564379895404,-71.109851505673603,10.0,0.0,7.4997892402051113e-06,4.8676790293472597e-05,2.6998680051422511e-05,3.2333657817156266e-05,4.3177797466014295e-05,1.7917594692280547,-3.1377335765970353,1.8714989138925215,-0.01388068766093555,2,0,6
1479831600,0.0,42.331564379895404,-71.109851505673603,10.0,0.0,1.2056681955858169e-05,5.8441136536019658e-05,2.6998680051422511e-05,3.3301315927137544e-05,5.5150052225921991e-05,1.945910149055313,-3.1377183018070101,1.8712529250528875,-0.013916593305133926,2,0,6
1479831630,0.0,42.331564379895404,-71.109851505673603,10.0,0.0,1.1583263966553757e-05,5.8441136536019658e-05,2.4879565544891849e-05,3.7414734008355295e-05,5.5150052225921991e-05,1.945910149055313,-3.137719306384767,1.87110732753346,-0.013937713791294699,2,0,6
1479831660,0.0,42.331564379895404,-71.109851505673603,10.0,0.0,1.1572642602247852e-05,6.2489733991070049e-05,2.4879565544891849e-05,3.6672352609324203e-05,4.7438193295447183e-05,1.7917594692280547,-3.1377416380301679,1.8711771731196685,-0.013851817784868133,2,0,6
1479831690,0.0,42.331564379895404,-71.109851505673603,10.0,0.0,8.6716091971801558e-06,6.2489733991070049e-05,3.5521122038345793e-05,3.7445559853270214e-05,4.6102932720300382e-05,1.945910149055313,-3.1377689865459248,1.8712465776869129,-0.013855321507829029,2,0,6
1479831720,0.0,42.331564379895404,-71.109851505673603,10.0,0.0,4.8832771589334073e-06,5.1383939331285632e-05,3.585562905694764e-05,3.7445559853270214e-05,4.2608806657591847e-05,1.945910149055313,-3.1377659869853254,1.8711843154183729,-0.013875642422609,2,0,6
1479831750,0.0,42.331564379895404,-71.109851505673603,10.0,0.0,9.3122074943738217e-06,5.9736864163956151e-05,3.3189578049976406e-05,3.6593569970434816e-05,4.8703199222045583e-05,1.7917594692280547,-3.1377720823310131,1.8712023333548915,-0.013949286757647601,2,0,6
1479831780,0.0,42.331564379895404,-71.109851505673603,10.0,0.0,7.8770323993538442e-06,5.9736864163956151e-05,3.3189578049976406e-05,4.2115895815652512e-05,4.9502810217861974e-05,1.945910149055313,-3.1377459577569504,1.8710383367044643,-0.013966536120869372,2,0,6
1479831810,0.0,42.331564379895404,-71.109851505673603,10.0,0.0,4.5389903447409867e-06,5.1036546579392739e-05,3.5978436662322979e-05,4.4354742240488001e-05,4.8460173441947125e-05,1.945910149055313,-3.13773866687198,1.8708677246810315,-0.013927998371628642,2,0,6
1479831840,0.0,42.331564379895404,-71.109851505673603,10.0,0.0,5.1077812789807766e-06,5.0342947512366446e-05,3.5978436662322979e-05,4.2071024864776814e-05,4.9080601089200662e-05,1.7917594692280547,-3.137725199061467,1.8706861981777134,-0.013921697827185832,2,0,6
1479831870,0.0,42.331564379895404,-71.109851505673603,10.0,0.0,5.9824730366172345e-06,5.8235109842992524e-05,4.0262138679245823e-05,4.3563256223492309e-05,5.2077653799258903e-05,1.945910149055313,-3.1377071827249412,1.8707525580982427,-0.01386928773636493,2,0,6
1479831900,0.0,42.331564379895404,-71.109851505673603,10.0,0.0,6.8516582682534727e-06,5.8235109842992524e-05,3.7641910215272268e-05,4.1894849301989334e-05,5.1870893776323395e-05,1.945910149055313,-3.1377073759847156,1.8709801919144471,-0.013838792386674043,2,0,6
1479831930,0.0,42.331564379895404,-71.109851505673603,10.0,0.0,4.5035469107364624e-06,5.0958459693527278e-05,3.7641910215272268e-05,4.4200047858938828e-05,4.9545037982681468e-05,1.7917594692280547,-3.1377305724345015,1.870958903849625,-0.013816368757578718,2,0,6
1479831960,0.0,42.331564379895404,-71.109851505673603,10.0,0.0,5.2842003375084815e-06,5.0958459693527278e-05,3.5545881466484344e-05,3.9354724264221401e-05,4.7304690596398162e-05,1.945910149055313,-3.1377285880936125,1.8705228255930799,-0.01379080916342133,2,0,6
1479831990,0.0,42.331564379895404,-71.109851505673603,10.0,0.0,1.0454377679568435e-05,6.9484196576458684e-05,3.5545881466484344e-05,3.9354724264221401e-05,4.4733434932583066e-05,1.945910149055313,-3.1376736705296686,1.8699002735129255,-0.013829660470974043,2,0,6
1479832020,0.0,42.331564379895404,-71.109851505673603,10.0,0.0,1.1436429495085874e-05,6.9484196576458684e-05,3.3832977418962706e-05,3.9274092657645232e-05,4.8718911195630427e-05,1.7917594692280547,-3.1376823047442248,1.8696615582980749,-0.013887522948448481,2,0,6
1479832050,0.0,42.331564379895404,-71.109851505673603,10.0,0.0,5.6038790194617533e-06,4.9840805661535862e-05,3.3832977418962706e-05,4.0421390713112652e-05,4.8320250968535692e-05,1.945910149055313,-3.1377224129566796,1.8705988646566742,-0.013907183222304245,2,0,6
1479832080,0.0,42.331564379895404,-71.109851505673603,10.0,0.0,2.2824138842262661e-06,5.0559484516550201e-05,4.3181871905115658e-05,4.6738374499296332e-05,4.9189581279455403e-05,1.945910149055313,-3.1377371821988382,1.8710568871478699,-0.013906630634296769,2,0,6
1479832110,0.0,42.331564379895404,-71.109851505673603,10.0,0.0,2.9436553805176068e-06,5.0559484516550201e-05,4.1674670355253005e-05,4.5698069163974429e-05,4.9059862427936926e-05,1.7917594692280547,-3.137796012098665,1.8711220209018933,-0.013910933015403901,2,0,6
1479832140,0.0,42.331564379895404,-71.109851505673603,10.0,0.0,6.5246884749855837e-06,6.0515380442403626e-05,3.9898884839284779e-05,4.1672651689835698e-05,4.6533440891048798e-05,1.945910149055313,-3.1377747399989957,1.8705531706867458,-0.013947138972618183,2,0,6
1479832170,0.0,42.331564379895404,-71.109851505673603,10.0,0.0,6.6075079055136899e-06,6.0515380442403626e-05,3.9898884839284779e-05,4.2393883098397061e-05,4.9392906333663831e-05,1.945910149055313,-3.1377327122434653,1.8700252735680887,-0.013992897283640159,2,0,6
1479832200,0.0,42.331564379895404,-71.109851505673603,10.0,0.0,3.3411670418651278e-06,5.1477248631182986e-05,4.089098181725135e-05,4.4755396360029387e-05,4.8105423688921974e-05,1.7917594692280547,-3.1377248663039516,1.8700380116534048,-0.013975630716528848,2,0,6
1479832230,0.0,42.331564379895404,-71.109851505673603,10.0,0.0,4.5527735063316313e-06,5.4609739622418234e-05,4.089098181725135e-05,4.498808070105706e-05,5.1352478420143975e-05,1.945910149055313,-3.1377166799915277,1.8704767729046516,-0.013931593956600744,2,0,6
1479832260,0.0,42.331564379895404,-71.109851505673603,10.0,0.0,3.903730516274529e-06,5.4609739622418234e-05,4.2928681249937348e-05,4.7131893666570859e-05,5.1464191858039296e-05,1.945910149055313,-3.1377119290245594,1.8705263156888268,-0.013936585774042757,2,0,6
1479832290,0.0,42.331564379895404,-71.109851505673603,10.0,0.0,4.306521178259418e-06,5.4465697621380308e-05,4.1431715933733789e-05,4.5549952963492549e-05,5.0498481397985104e-05,1.7917594692280547,-3.137682645889543,1.8705394641324684,-0.013924983359528881,2,0,6
1479832320,0.0,42.331564379895404,-71.109851505673603,10.0,0.0,8.1470021640947888e-06,5.8400026411688812e-05,3.4164801907248016e-05,4.2615523502022918e-05,5.5128939424829503e-05,1.945910149055313,-3.1376989706259728,1.870595520814953,-0.013888213962447628,2,0,6
1479832350,0.0,42.331564379895404,-71.109851505673603,10.0,0.0,1.0149378746764324e-05,6.6611270833985369e-05,3.4164801907248016e-05,4.3412998457355e-05,5.7096103819983755e-05,1.945910149055313,-3.1377117755388766,1.8703040517786127,-0.013863492346295584,2,0,6
1479832380,0.0,42.331564379895404,-71.109851505673603,10.0,0.0,7.8544257437799924e-06,6.6611270833985369e-05,4.3026665844397953e-05,4.540129327685468e-05,5.4019754088878932e-05,1.7917594692280547,-3.1377065410922533,1.8703884949891083,-0.01390187917048355,2,0,6
1479832410,0.0,42.331564379895404,-71.109851505673603,10.0,0.0,3.4925490783358273e-06,5.456440344308506e-05,4.4369328138724405e-05,4.7241167076017155e-05,5.2639047547699226e-05,1.945910149055313,-3.1377292391682725,1.8708746080622514,-0.013945380714929873,2,0,6
1479832440,0.0,42.331564379895404,-71.109851505673603,10.0,0.0,3.5016992350021728e-06,5.3754187939884738e-05,4.3455220725227012e-05,4.5891816261250504e-05,5.1265021119037079e-05,1.945910149055313,-3.1377043208229067,1.8712365027855971,-0.013952187323361485,2,0,6
1479832470,0.0,42.331564379895404,-71.109851505673603,10.0,0.0,5.2802973368800373e-06,5.6895675192227801e-05,4.2428577674253384e-05,4.3232833592383138e-05,4.9439271210614729e-05,1.7917594692280547,-3.1377237311719468,1.8713539910748034,-0.013969353062630132,2,0,6
1479832500,0.0,42.331564379895404,-71.109851505673603,10.0,0.0,6.6791292703267733e-06,5.9043459192879051e-05,4.2428577674253384e-05,4.3800662835567663e-05,5.6285815565728959e-05,1.945910149055313,-3.1377807544277769,1.8714905922800684,-0.013952986712646142,2,0,6
1479832530,0.0,42.331564379895404,-71.109851505673603,10.0,0.0,5.1988237442063709e-06,5.9043459192879051e-05,4.4442621123033492e-05,4.5583674788604849e-05,5.4105481256633338e-05,1.945910149055313,-3.1377284871527529,1.8716268215441885,-0.013903572169456343,2,0,6
1479832560,0.0,42.331564379895404,-71.109851505673603,10.0,0.0,2.9807524084999261e-06,5.4795070703998964e-05,4.5235386300958869e-05,4.9069175223904018e-05,5.2021835437274267e-05,1.7917594692280547,-3.1377171478603354,1.8715825121732248,-0.013909437010916565,2,0,6
1479832590,0.0,42.331564379895404,-71.109851505673603,10.0,0.0,4.754201439915452e-06,5.6569257944485026e-05,4.1717606430864124e-05,4.6353541328854973e-05,5.2265435238623979e-05,1.945910149055313,-3.1377023264670663,1.8716979847038571,-0.013936486812444016,2,0,6
1479832620,0.0,42.331564379895404,-71.109851505673603,10.0,0.0,4.762393307903967e-06,5.6569257944485026e-05,4.0876192757872726e-05,4.4013856690941399e-05,4.7501720170738702e-05,1.945910149055313,-3.1376625547702157,1.8717026764845071,-0.013932917074744186,2,0,6
1479832650,0.0,42.331564379895404,-71.109851505673603,10.0,0.0,8.1019574329660397e-06,6.0563523826598108e-05,3.466337365326608e-05,4.0938917021352449e-05,4.7870883113673329e-05,1.7917594692280547,-3.1377043562141083,1.8715627610919652,-0.013944419321045483,2,0,6
1479832680,0.0,42.331564379895404,-71.109851505673603,10.0,0.0,8.8375562841580946e-06,6.0563523826598108e-05,3.466337365326608e-05,4.1862842407200861e-05,5.4862225536421601e-05,1.945910149055313,-3.137682094783476,1.8713714803200685,-0.01397101802136093,2,0,6
1479832710,0.0,42.331564379895404,-71.109851505673603,10.0,0.0,5.3216061676607442e-06,5.9316476039486211e-05,4.2598595002610104e-05,4.6242648294216062e-05,5.2107755750493986e-05,1.945910149055313,-3.1376715322549211,1.87106542964912,-0.013982168434050455,2,0,6
1479832740,0.0,42.331564379895404,-71.109851505673603,10.0,0.0,6.5027277353503328e-06,6.0462080079397538e-05,4.0583757125659708e-05,4.4873632741991928e-05,5.2753322456096331e-05,1.7917594692280547,-3.1377393671311347,1.8706178594101381,-0.013982471536046851,2,0,6
1479832770,0.0,42.331564379895404,-71.109851505673603,10.0,0.0,1.0273913173910301e-05,6.4176501037913582e-05,3.2196969678757193e-05,4.4940806052341742e-05,5.745350523134963e-05,1.945910149055313,-3.1377612403377184,1.8705345677037826,-0.013978082318344258,2,0,6
1479832800,0.0,42.331564379895404,-71.109851505673603,10.0,0.0,9.3954551416371465e-06,6.4176501037913582e-05,3.2196969678757193e-05,4.531310544005393e-05,5.358803480617864e-05,1.945910149055313,-3.1377632205844757,1.8709057898952284,-0.01398612736128777,2,0,6
1479832830,0.0,42.331564379895404,-71.109851505673603,10.0,0.0,7.1035264423814696e-06,6.1092679056353645e-05,4.0054466080519312e-05,4.3478555061948701e-05,5.2573037671570974e-05,1.7917594692280547,-3.1377868286007549,1.8713589040342999,-0.014014256971371916,2,0,6
1479832860,0.0,42.331564379895404,-71.109851505673603,10.0,0.0,7.1858388449273077e-06,6.1092679056353645e-05,4.0054466080519312e-05,4.6503800511793231e-05,5.6205932144463689e-05,1.945910149055313,-3.1377713631642412,1.8711753873283399,-0.013986075757764959,2,0,6
1479832890,0.0,42.331564379895404,-71.109851505673603,10.0,0.0,4.6194784041812087e-06,6.0313131289810122e-05,4.4115823373550012e-05,4.8351355216609258e-05,5.1456727551870424e-05,1.945910149055313,-3.1377624436391831,1.8707254877648616,-0.014018740436164001,2,0,6
1479832920,0.0,42.331564379895404,-71.109851505673603,10.0,0.0,5.1635147630372831e-06,5.2088977420771754e-05,3.6692433591111644e-05,4.3042542047898786e-05,4.9766229943949756e-05,1.7917594692280547,-3.1377474324528714,1.870642843806783,-0.014003122169378332,2,0,6
1479832950,0.0,42.331564379895404,-71.109851505673603,10.0,0.0,7.0361492015749926e-06,5.9862770944396427e-05,3.6692433591111644e-05,4.2046842339092171e-05,4.7886649528935257e-05,1.945910149055313,-3.1377362151985215,1.8706016125420974,-0.013964035796201386,2,0,6
1479832980,0.0,42.331564379895404,-71.109851505673603,10.0,0.0,7.605835103293408e-06,6.2012821541957851e-05,4.1593738510636636e-05,4.4021809017790562e-05,5.7495933842412481e-05,1.945910149055313,-3.13777783300484,1.8706087954561557,-0.013983446311044713,2,0,6
1479833010,0.0,42.331564379895404,-71.109851505673603,10.0,0.0,8.9208355501109653e-06,6.2012821541957851e-05,3.6230651558082285e-05,4.7136754571432279e-05,5.9025095387983982e-05,1.7917594692280547,-3.1378216817551698,1.8713604432681501,-0.013928203206624084,2,0,6
1479833040,0.0,42.331564379895404,-71.109851505673603,10.0,0.0,8.780650899262844e-06,6.0323761603835802e-05,3.5794623375301685e-05,3.7951888481009051e-05,5.2699516917987491e-05,1.945910149055313,-3.137797942462579,1.8719123557594812,-0.013900450702782244,2,0,6
1479833070,0.0,42.331564379895404,-71.109851505673603,10.0,0.0,8.5333468043260484e-06,5.9614652592936235e-05,3.394173637710049e-05,3.7733874389618747e-05,5.0093354998805298e-05,1.945910149055313,-3.1378208236675258,1.8719188682805226,-0.013916921038535928,2,0,6
1479833100,0.0,42.331564379895404,-71.109851505673603,10.0,0.0,8.0754419615482047e-06,5.9614652592936235e-05,3.394173637710049e-05,3.9903881046092034e-05,4.7432743710114749e-05,1.7917594692280547,-3.1378154197631036,1.8718740545123398,-0.013929370988886781,2,0,6
1479833130,0.0,42.331564379895404,-71.109851505673603,10.0,0.0,7.2503437110145534e-06,6.2160089658852636e-05,3.9601055745771561e-05,4.1085405893044168e-05,4.7844951273630951e-05,1.945910149055313,-3.1377783707469615,1.8721528869330772,-0.013973790069863301,2,0,6
1479833160,0.0,42.331564379895404,-71.109851505673603,10.0,0.0,6.2662722209371488e-06,6.2160089658852636e-05,4.1358454839034891e-05,4.5179615597757383e-05,5.0604968474703013e-05,1.945910149055313,-3.1378173110445986,1.8719368519800201,-0.013985932686579458,2,0,6
1479833190,0.0,42.331564379895404,-71.109851505673603,10.0,0.0,3.2706157682438423e-06,5.1013178700909513e-05,4.0278142844974594e-05,4.5378925994905298e-05,4.788885569362609e-05,1.7917594692280547,-3.1378310697731702,1.8715163673894148,-0.01393009611440775,2,0,6
1479833220,0.0,42.331564379895404,-71.109851505673603,10.0,0.0,7.6786221139678119e-06,5.8773574211302572e-05,3.4490961732818116e-05,3.8352791289276522e-05,4.7746952802799244e-05,1.945910149055313,-3.13779169879147,1.87146527278376,-0.013919129456265457,2,0,6
1479833250,0.0,42.331564379895404,-71.109851505673603,10.0,0.0,8.0498184582316798e-06,5.8773574211302572e-05,3.4490961732818116e-05,3.9510584305774656e-05,5.118799297801425e-05,1.945910149055313,-3.137775121443827,1.8715090736217956,-0.01390023889484274,2,0,6
1479833280,0.0,42.331564379895404,-71.109851505673603,10.0,0.0,4.7462956266051227e-06,5.1712502570070414e-05,3.8951382410202741e-05,4.4101362572666548e-05,5.0646147810039866e-05,1.7917594692280547,-3.1377814361783281,1.8718332553480082,-0.01389469118850805,2,0,6
1479833310,0.0,42.331564379895404,-71.109851505673603,10.0,0.0,4.7325022803938896e-06,5.5996502549095231e-05,3.8951382410202741e-05,4.8291521168386566e-05,5.0701639564421037e-05,1.945910149055313,-3.137861797361476,1.8717180131393671,-0.013945317780966216,2,0,6
1479833340,0.0,42.331564379895404,-71.109851505673603,10.0,0.0,2.9691799191289421e-06,5.5996502549095231e-05,4.795877868001953e-05,4.8993892891746458e-05,5.3577831219089929e-05,1.945910149055313,-3.1378512132063938,1.8714776923447414,-0.013951587511769928,2,0,6
1479833370,0.0,42.331564379895404,-71.109851505673603,10.0,0.0,4.0285703085286986e-06,5.6417955859276183e-05,4.4685385788850745e-05,4.8994341724431174e-05,5.4531021576843302e-05,1.7917594692280547,-3.1377261505275533,1.8715826099941213,-0.01392353091055,2,0,6
