TIMESTAMP,DISTANCE,AVG_LAT,AVG_LNG,GPS_ACCURACY,AVG_SPEED_BY_GPS,ACCLERATOR_STD,MAX_ACCLERATOR,MIN_ACCLERATOR,PERCENTILE_25_ACCLERATOR,PERCENTILE_75_ACCLERATOR,ACCLERATOR_ENTROPY,AVG_ROLL,AVG_YAW,AVG_PITCH,WEEK_DAY,LABEL1,LABEL2
1479739380,8.77811348645054,42.331614499756689,-71.109900758429504,17.625,0.14630189144084232,0.032396648808885847,0.08104367619280313,3.965714006238626e-05,4.4869667116155849e-05,6.5282184766196676e-05,1.5284657100610246,0.054191552701888135,-0.4614831049526481,0.0069945680734614015,1,0,6
1479739410,6.868776897061181,42.33162659177777,-71.109911500542566,10.0,0.11447961495101969,1.0182093541709931e-05,6.5282184766196676e-05,2.9276766775277379e-05,4.2263403589271051e-05,5.0037691291670062e-05,1.945910149055313,0.06922563681032555,-0.57483037630402445,-0.014316655314408528,1,0,6
1479739440,0.0,42.331626866983598,-71.109912525928721,10.0,0.0,9.8378258447378684e-06,5.0152166689963499e-05,2.5217129505585976e-05,3.7981924384804285e-05,4.9487476331768024e-05,1.945910149055313,0.067117355802712997,-0.57459821731982874,-0.0097876963830774814,1,0,6
1479739470,0.0,42.331626866983598,-71.109912525928721,10.0,0.0,1.1683973530027981e-05,6.4704690999943811e-05,2.5217129505585976e-05,4.1496240350502708e-05,4.8460573076202378e-05,1.7917594692280547,0.065161675655394311,-0.57385357588534192,-0.0059845691449885883,1,0,6
1479739500,0.0,42.331626866983598,-71.109912525928721,10.0,0.0,1.2681520365557987e-05,6.4704690999943811e-05,2.2350238892976355e-05,3.3877294775143098e-05,4.7315389952304798e-05,1.945910149055313,0.064992169972228814,-0.5731675544009166,-0.0057813155293444402,1,0,6
1479739530,0.0,42.331626866983598,-71.109912525928721,10.0,0.0,8.5785081489311006e-06,5.0298043958983445e-05,2.2350238892976355e-05,3.3877294775143098e-05,4.3189051199023397e-05,1.945910149055313,0.064912205928229605,-0.57272941419953405,-0.0056322095945665132,1,0,6
1479739560,0.0,42.331626866983598,-71.109912525928721,10.0,0.0,2.8515742003278191e-06,4.5730823971153925e-05,3.7123238089094274e-05,3.8843180873038112e-05,4.2436182083195199e-05,1.7917594692280547,0.064840155315279466,-0.57283106576539267,-0.0055357392213495086,1,0,6
1479739590,0.0,42.331626866983598,-71.109912525928721,10.0,0.0,2.1397741327013052e-06,4.5132973047683804e-05,3.8241815021753193e-05,3.9644133633355509e-05,4.2059627212534715e-05,1.945910149055313,0.064818665817871587,-0.57333803517238546,-0.0054346496508195386,1,0,6
1479739620,0.0,42.331626866983598,-71.109912525928721,10.0,0.0,3.3352734703431713e-06,4.5402376729654562e-05,3.5123411186816532e-05,3.9295451480041445e-05,4.3168730435151251e-05,1.945910149055313,0.06475887941449586,-0.57336866093108718,-0.0053450030667472736,1,0,6
1479739650,0.0,42.331626866983598,-71.109912525928721,10.0,0.0,2.3638803438275911e-05,9.9139743050991627e-05,2.6023707197506144e-05,3.6123977177148097e-05,5.0375649281428391e-05,1.7917594692280547,0.064729626779606586,-0.57329026246751513,-0.0052676470329698745,1,0,6
1479739680,0.0,42.331626866983598,-71.109912525928721,10.0,0.0,2.5217058941950627e-05,9.9139743050991627e-05,2.6023707197506144e-05,3.4185886065191433e-05,6.6378228837814184e-05,1.945910149055313,0.064680589619038026,-0.57337699551391907,-0.0050539989544757854,1,0,6
1479739710,0.0,42.331626866983598,-71.109912525928721,10.0,0.0,0.00028918268861528732,0.00086898373876582069,3.020644414386919e-05,3.4185886065191433e-05,6.2072426755778351e-05,1.945910149055313,0.064501962811636254,-0.57336474875559329,-0.0049822419726312309,1,0,6
1479739740,0.0,42.331626866983598,-71.109912525928721,10.0,0.0,0.00031216413005119478,0.00086898373876582069,2.3228411686867626e-05,2.5809586733536559e-05,4.0111137931066175e-05,1.7917594692280547,0.064395669777407141,-0.57334041101790267,-0.0047489033295302152,1,0,6
1479739770,1.4244641381483962,42.331626934038823,-71.109912313587174,10.487018873615478,0.023741068969139936,0.35764020430470661,1.0369307582826459,2.3228411686867626e-05,2.6365296699174834e-05,0.11062022893904676,1.7770332013812695,0.074266637806334704,-0.029961206498261728,-0.13477032105962616,1,0,6
1479739800,12.87914019386728,42.331651476251302,-71.109936537287297,19.892926382338324,0.21465233656445465,0.35763091965325766,1.0369307582826459,1.6528375612309571e-05,2.2683825316640326e-05,0.11062022893904676,1.7770332013812697,0.014933695712166873,-0.5487388560626757,-0.14717393255824709,1,0,6
1479739830,14.507025471034897,42.331704571416928,-71.10999202828026,29.405907508722848,0.24178375785058162,6.343606114898775e-05,0.00018318242862198198,6.1731393148757807e-06,1.0825139779656232e-05,1.7987758658708422e-05,1.7917594692280547,-0.048210570933479885,-1.7964014121870768,-0.011069266924830319,1,0,6
1479739860,4.5936000205803245,42.331722755955866,-71.110017890642496,30.0,0.0765600003430054,7.3609119093302839e-05,0.00018081431006864264,5.9713988432828254e-06,7.5486002418237831e-06,9.5545331478337991e-05,1.945910149055313,0.18461079431218749,-1.7966273679856872,-0.032852129739630621,1,0,6
1479739890,4.5936000205803245,42.331687971057711,-71.110000582012447,30.0,0.0765600003430054,6.1207112335315677e-05,0.00018081431006864264,5.9713988432828254e-06,5.2607258003865667e-05,0.00013703775008430728,1.945910149055313,0.50754989058525291,-1.7857239212650071,-0.10625331207970591,1,0,6
1479739920,0.0,42.331663621629005,-71.109988465971412,30.0,0.0,2.9998146114037634e-05,0.00017699922020312267,8.2654738808684558e-05,9.9961747453154208e-05,0.00011584371608754725,1.7917594692280547,0.73595495697407864,-1.7856356023113136,-0.16316942686489766,1,0,6
1479739950,0.0,42.331663621629005,-71.109988465971412,29.0,0.0,3.2141237448601325e-05,0.00017699922020312267,7.2251336768973395e-05,8.785328097688961e-05,0.00011105886635706086,1.945910149055313,0.74403888059483003,-1.7881408619200532,-0.17284747145633142,1,0,6
1479739980,0.0,42.331663621629005,-71.109988465971412,29.0,0.0,4.1217253658984295e-05,0.00016834390745563293,1.741786662108173e-05,7.4460844950455268e-05,9.370418903426812e-05,1.945910149055313,0.74540326735046047,-1.7852169008071714,-0.1835929091501447,1,0,6
1479740010,0.0,42.331663621629005,-71.109988465971412,30.0,0.0,0.00020848599861046527,0.0006229867077620964,1.741786662108173e-05,8.1774258262260217e-05,0.00031077290943201945,1.7917594692280547,0.73832334449466408,-1.7854802694286418,-0.20763523917157733,1,0,6
1479740040,0.0,42.331663621629005,-71.109988465971412,29.333333333333332,0.0,0.00068015644781876852,0.0022279491181641116,9.7085973653229476e-05,0.00038665215552968486,0.0010830269023206327,1.945910149055313,0.76065241434900532,-1.7696255130461354,-0.21893039956721788,1,0,6
1479740070,0.0,42.331663621629005,-71.109988465971412,22.0,0.0,0.00065538528643258195,0.0022279491181641116,6.4513872798352631e-05,0.00059817166099779522,0.0013424169585503996,1.945910149055313,0.79046357580297855,-1.7335201700065042,-0.21080753737490157,1,0,6
1479740100,0.0,42.331663621629005,-71.109988465971412,19.333333333333332,0.0,0.00064151552254748743,0.002124015342009854,6.4513872798352631e-05,0.0006325368248941551,0.00122912764735685,1.7917594692280547,0.80763893862608915,-1.6815312314430315,-0.20618358758750768,1,0,6
1479740130,0.0,42.331663621629005,-71.109988465971412,29.333333333333332,0.0,0.00058668003676589525,0.002124015342009854,0.00016538224995300656,0.00052046818726705034,0.00091840574043190596,1.945910149055313,0.81538644237335844,-1.6276137897075384,-0.217785495336936,1,0,6
1479740160,0.0,42.331663621629005,-71.109988465971412,29.666666666666668,0.0,0.0002249999935917593,0.0008717171335720687,0.00016538224995300656,0.00043020051192221701,0.00069558761091696719,1.945910149055313,0.83273313135571969,-1.560681905812187,-0.22425958268049914,1,0,6
1479740190,2.2257941156859595,42.331650369840069,-71.109984266637923,22.0,0.03709656859476599,0.00027004932418599913,0.0012038568721177891,0.00041577223444126297,0.00048944232913720564,0.00081647336004651882,1.7917594692280547,0.86085784149691869,-1.4514717034272915,-0.21177374230356563,1,0,6
1479740220,2.2257941156859595,42.33162828352517,-71.109977267748775,22.333333333333332,0.03709656859476599,0.00027868574594086055,0.0012038568721177891,0.00022791285825248247,0.00051075228969051426,0.00071997175863303749,1.945910149055313,0.76806168282057974,-1.3384236643641114,-0.17447330634951594,1,0,6
1479740250,0.0,42.331619448999206,-71.109974468193116,23.333333333333332,0.0,0.0041754564807545275,0.012625996240343794,0.00022791285825248247,0.00051075228969051426,0.001187207496789869,1.8675843750169279,0.4753549748032368,-0.66476093636437406,-0.73575719439111986,1,0,6
1479740280,3.9568187919086046,42.331612599587331,-71.109972110084357,23.333333333333332,0.0659469798651434,0.1277146773121578,0.3527703859443706,0.0009807117420740784,0.0027369834631302079,0.030094485524409437,1.7480673485460894,-0.78090328639232365,0.01253283433963818,-1.4752215732736265,1,0,6
1479740310,10.644128093838528,42.331529091384546,-71.110009705714049,17.333333333333332,0.1774021348973088,0.13331362468869115,0.3527703859443706,2.9029025924043668e-07,0.0033837356090112539,0.13816104995601602,1.8937882323911377,-1.7378575528443057,-0.12217963040306899,-1.4395365974719598,1,0,6
1479740340,2.892488727626825,42.331454957641959,-71.110047107162998,10.0,0.048208145460447084,0.082829540888772119,0.24040478462626741,2.9029025924043668e-07,0.00044338808659560505,0.0076508697178000644,1.9036483899019154,-1.3322274338764122,1.1431766703120814,-1.395992222387477,1,3,8
1479740370,44.5675362649625,42.331481065174877,-71.10994004930474,10.0,0.7427922710827083,0.36209207697487056,0.96738275292916076,0.00088612905317255407,0.0071885113910886405,0.48847193491559016,1.7328679513998633,-0.27606982863111901,0.091136955392686403,-1.355786510471815,1,3,8
1479740400,44.58656012327494,42.331414023919351,-71.109734191159816,10.0,0.7431093353879157,0.64039791560810089,2.0509822455435902,0.11164878430340917,0.20429712971454295,0.77102764253246259,1.9459101490553139,0.20323688042064189,-0.79218732454323848,-1.2530522604915053,1,3,8
1479740430,20.092646352600667,42.331182696663163,-71.109637702881457,10.0,0.3348774392100111,0.63022775049406066,2.0509822455435902,0.11164878430340917,0.23771036962462305,0.35690033475511551,1.8891591637540215,0.75764732374104604,0.17923743012532717,-1.1780893211677725,1,3,8
1479740460,49.52734183426527,42.330948351921833,-71.109531175877066,10.0,0.8254556972377546,0.085079071684130078,0.41316743163175118,0.16637518572770299,0.26370924763520681,0.37919853790783908,1.791759469228055,1.9088318692301527,-0.53054052497755377,-1.1109165025350263,1,3,8
1479740490,98.35079334275669,42.330811907111055,-71.10919669603102,10.0,1.6391798890459448,0.38197738467838904,1.2381035608654485,0.16637518572770299,0.24283593968409062,0.73221553026855202,1.9459101490553139,0.10568132607612031,0.64909764272738169,-1.2193145076850469,1,3,8
1479740520,56.05194081361023,42.33065609242054,-71.1088224957428,10.0,0.9341990135601705,0.39920082776673749,1.2381035608654485,0.032998106197872322,0.29819823534662265,0.88535431254783892,1.9459101490553139,-1.4674704659640401,1.2863744962465085,-1.2735025521411043,1,3,8
1479740550,29.73192035311104,42.330359125782117,-71.108732021479966,10.0,0.495532005885184,0.33587888249404357,0.93585053961465525,0.032998106197872322,0.15116007314963426,0.72748670659183967,1.791759469228055,-1.7110576592863691,0.48663948779095278,-1.1118761183398054,1,3,8
1479740580,30.508845472829837,42.329970910951808,-71.108838767810823,10.0,0.5084807578804973,2.0302877403780024,6.4893027098153189,0.0804007484838688,0.70253866348667127,1.2183179637871109,1.9459101490553139,0.51784029343580373,-0.56259736750692613,-1.087588150765844,1,3,8
1479740610,28.060359182954052,42.329599880419984,-71.108797816625895,10.0,0.4676726530492342,2.0884682300158737,6.4893027098153189,0.083590168402840476,0.3133443408396388,1.1850125669322924,1.9459101490553139,1.2831898348581308,-0.81987973803433023,-1.102479230215941,1,3,8
1479740640,25.418294289255197,42.329486702986166,-71.108730482965697,10.0,0.4236382381542533,0.1396411447106638,0.32549121508707279,1.3517472039502456e-05,0.0043354234050558592,0.24679564204486368,1.7328679513998633,-0.28377537793411584,0.1088976613347178,-0.3094440281739092,1,3,8
1479740670,122.85354345497593,42.330159105845127,-71.10887970662219,10.0,2.0475590575829323,0.0082353435772403345,0.026360877723291393,1.3517472039502456e-05,0.0025334048840256252,0.0090386869127697719,1.8562701281920879,-0.22440324240772996,0.5448309745177381,0.36504431291616118,1,3,8
1479740700,105.16334147993304,42.331710237561538,-71.109232424075117,10.0,1.752722357998884,0.015153412696604576,0.047934938550081983,0.0019295352774533103,0.0049219027069032648,0.022054615288016624,1.8043716191528456,-0.17780755808829765,0.1491871319971986,0.29563745273935682,1,3,8
1479740730,500.0166337840015,42.333046003304808,-71.108123583296887,10.0,8.333610563066692,0.015261772868172182,0.047934938550081983,0.0018268166833186759,0.0059161275580997819,0.017939898112200675,1.7480673485460896,-0.2221215404935325,-0.72870658356501183,0.36346221334214035,1,3,8
1479740760,634.715692155993,42.334015445357501,-71.105173657714488,10.0,10.57859486926655,0.0056011286991949636,0.01800374653202028,0.00016910946285431818,0.0022652498051979604,0.0071583632485630495,1.8562701281920886,-0.21714091547635431,-1.0750089516818422,0.34152767711341203,1,3,8
1479740790,476.7207379941425,42.334931208093032,-71.102718193150238,10.0,7.945345633235708,0.0028472056886047073,0.009800679355279486,0.00016910946285431818,0.0023728337670100011,0.0047368120992915333,1.8842428460867393,-0.22574038289578385,-1.0530024008899554,0.3289196557306277,1,3,8
1479740820,452.9873278013159,42.335529361658111,-71.101052783030184,10.0,7.549788796688599,0.0027692440098278921,0.009800679355279486,0.0015123263301252317,0.0022211090483636124,0.0047901619973228548,1.7480673485460896,-0.24139723671136118,-1.0863859742248316,0.37727503757431785,1,3,8
1479740850,281.26698606302233,42.33616793904671,-71.099296524255635,10.0,4.687783101050372,0.0073732623990417591,0.022416744016368256,5.984479235028014e-05,0.0005322114498188639,0.0045585681295615618,1.8056165767134953,-0.17539165985528635,-1.0441908432842644,0.35848406795893351,1,3,8
1479740880,75.73372379673076,42.336636036906718,-71.098275366771134,10.666666666666666,1.2622287299455126,0.010417113536443617,0.025465473355744783,5.984479235028014e-05,0.0005322114498188639,0.012995934720778354,1.8056165767134955,-0.16140585081136935,-0.82029893476299687,0.37497859016192842,1,3,8
1479740910,249.18388623728106,42.337553363565689,-71.097758732802319,10.666666666666666,4.153064770621351,0.0086753751342213449,0.025465473355744783,0.00067597306993876915,0.0014271491663420547,0.0066997000849451406,1.6581101035673729,-0.23092536035110664,-0.50632697740504151,0.38772418811439402,1,3,8
1479740940,684.0789493721975,42.339510421308077,-71.095712502087551,10.0,11.401315822869957,0.0029952407107921033,0.0077412249715307028,0.00012302454451674837,0.00075832746066703972,0.0045854764901251078,1.8842428460867393,-0.25682074831155854,-0.74911937029672437,0.35618708644812519,1,3,8
1479740970,586.2019868192848,42.341773951465591,-71.09274529020405,10.0,9.770033113654746,0.0044607271478027174,0.01224175053308064,0.00012302454451674837,0.00082804458269253485,0.0079025059588529421,1.9361470098309512,-0.22939394476151453,-0.69112475084784231,0.34742861950073917,1,3,8
1479741000,148.3952014952076,42.343317274974986,-71.091198041169989,10.0,2.47325335825346,0.009824691350928328,0.028163937030167754,0.0002564522158637345,0.00083426816390284484,0.011323422780460023,1.7347645210257752,-0.20063688749012198,-0.36085759998881151,0.40740391081916316,1,3,8
1479741030,19.18960697114875,42.343832440015255,-71.090951863276871,10.0,0.3198267828524791,0.015101605468004622,0.040110445125937096,0.00011164886167190184,0.0004159797820777884,0.018608464980480584,1.7770332013812697,-0.23606594192062857,-0.21103072353296909,0.51454871583529005,1,3,8
1479741060,91.34166561931525,42.343944990115574,-71.090686925287457,10.0,1.522361093655254,0.01314959909553347,0.040110445125937096,0.00011164886167190184,0.00046918563581499712,0.01078207882685709,1.9036483899019154,-0.2953870154168346,-0.71612533558221714,0.570050761068292,1,3,8
1479741090,407.82025427483325,42.343526914755209,-71.089699301003563,10.0,6.797004237913887,0.007674801000105186,0.023348706113949128,0.00036286392333815203,0.0029776223454890199,0.011190459700369502,1.7347645210257749,-0.27594199365666344,-1.5050206426091333,0.61060642964945888,1,3,8
1479741120,358.06584888946657,42.342888761351212,-71.087869647490876,11.0,5.967764148157776,0.0070672528179816542,0.023348706113949128,0.00059247570344810149,0.0027432867988083707,0.0072824559316413684,1.9036483899019154,-0.24324002187807986,-1.6211959195853158,0.58007756409722122,1,3,8
1479741150,151.64788541104872,42.342310882212921,-71.087188821817833,11.0,2.527464756850812,0.0024068917642439168,0.0073365672305670399,0.00052059731859070853,0.00089267300168695664,0.0042490466651531429,1.8842428460867393,-0.28157835087242589,-2.1925387581116556,0.56304466441190459,1,3,8
1479741180,195.49917832051108,42.341664106624528,-71.088151392593133,10.0,3.2583196386751845,0.00055647683041092208,0.0020460565412036128,0.00052059731859070853,0.00056096750601808767,0.0013705519390181757,1.7917594692280547,-0.24760193067369149,-2.5574846000455715,0.55326643447736301,1,3,8
1479741210,15.369448531435744,42.341378436696118,-71.0887285033903,10.0,0.25615747552392903,0.082198589946389608,0.21207265825835003,0.00052594288914516348,0.0009657028266242373,0.074116400359674026,1.8056165767134955,0.33120778508444632,-1.4575899306926874,0.0093160323016728674,1,3,8
1479741240,16.93963565594358,42.341302405150948,-71.088720727778124,10.0,0.28232726093239296,0.35918198476756874,0.94422852061782958,0.0012653642966116143,0.02223635892710072,0.48640139966361151,1.8891591637540219,0.95149038142167697,-1.2987954863901445,-0.74865148166989404,1,3,8
1479741270,77.42622635065923,42.341146006521164,-71.088905959456312,10.0,1.2904371058443205,0.70103012812877286,2.1548780287423641,0.042261362331334575,0.38033971777372122,1.2471025934447548,1.791759469228055,1.2108237605316781,-1.951750868111289,-1.1697721054404557,1,3,8
1479741300,47.61130196945555,42.340974165631785,-71.089233289538967,10.0,0.7935216994909259,2.0329177516461328,6.3538688728714883,0.23801462433121895,0.27137160632825036,1.7514693232313805,1.9459101490553139,1.034077382065433,-1.5677650406278698,-1.1217661429858647,1,3,8
1479741330,37.876433587270135,42.340793371472834,-71.089269271652313,11.75,0.6312738931211689,2.030421788899869,6.3538688728714883,0.23801462433121895,0.3944955294411604,1.0352204224408257,1.9459101490553139,1.2643952975938115,-0.87510818146738578,-1.1932854149991683,1,3,8
1479741360,66.32094184289404,42.340543668290927,-71.089031247953983,19.25,1.1053490307149008,0.27750382782454491,1.2341283667110889,0.49979075623449082,0.56324817633269553,0.97284564796433981,1.791759469228055,1.8746214066540601,-0.0020475602532505168,-1.1765236976796067,1,3,8
1479741390,59.75917086232941,42.340285489607929,-71.088741920023324,25.0,0.9959861810388235,0.57170397424132902,2.1681255717453576,0.3754335605251008,0.50110408724222433,0.95012111211706596,1.9459101490553139,0.3148730389866285,0.050298793257317155,-1.1262474922072301,1,3,8
1479741420,44.36455900468044,42.340005414599879,-71.088512690338391,25.0,0.7394093167446739,0.60826178922144303,2.1681255717453576,0.31634101844822182,0.39065985991653418,0.67997540038039139,1.9459101490553139,-1.6927235272445245,0.38292958903151636,-1.2201460230875372,1,3,8
1479741450,44.886832323028464,42.339684830552287,-71.088336139517921,25.0,0.7481138720504744,0.37675293960162759,1.338450385243334,0.21558194090601052,0.33872730366315829,0.72558049127995949,1.791759469228055,-1.4861544016576449,1.1696403850218522,-1.3295598306081817,1,3,8
1479741480,46.599405388881564,42.33940814881803,-71.088117023996176,25.916666666666668,0.7766567564813595,0.45556825840941068,1.4518326854626771,0.21558194090601052,0.41948707900179949,1.2218569430328119,1.9459101490553139,0.93191009480175779,0.7668845133213118,-1.2035037160078446,1,3,8
1479741510,20.012579031382717,42.339286044046581,-71.087981787576439,38.083333333333336,0.33354298385637865,0.50117059009811771,1.4518326854626771,0.00041310065889350558,0.18371491066870232,0.92492013596072942,1.9459101490553139,1.6852090415778369,0.78277249346918754,-1.2421944395147944,1,3,8
1479741540,0.9335024069352702,42.339288471716898,-71.087960400273417,66.069110402658438,0.01555837344892117,0.27222452032424033,0.74457677109916909,0.00025879018654129538,0.0015271408802698995,0.036873680184475496,1.6609474332869181,1.1697389121520474,0.32926694848302535,-1.4602923136841219,1,3,8
1479741570,29.68354361020274,42.339284303414814,-71.087937426894939,97.296367899137309,0.49472572683671234,0.022028056489189263,0.064611487064235446,1.1583625149302124e-05,0.0025640258654701883,0.020644874259171775,1.8640435797520258,1.006004011286185,-0.20314918804751544,-1.4409012203282729,1,3,8
1479741600,0.6800564345967876,42.33923167068334,-71.087795813973869,95.672361495903957,0.011334273909946459,0.02164271540490495,0.064611487064235446,1.1583625149302124e-05,0.0012954125946059341,0.007650966566267299,1.8562701281920884,1.572124747253302,1.1084450793259994,-1.457732833299513,1,3,8
1479741630,13.83276453686195,42.339204754219892,-71.087773027961902,91.837539724489602,0.23054607561436583,0.00083161492986827119,0.002224822695958281,1.3071085772168592e-05,0.00051659729062753716,0.0019444008222741786,1.7917594692280547,2.1378037573341881,2.2700002199121885,-1.5019774274643283,1,3,8
1479741660,16.87954073581044,42.339179362645567,-71.087748273752467,92.289844692207595,0.281325678930174,0.0027938274440900963,0.0082351216669571178,1.3071085772168592e-05,2.2437303299781776e-05,0.0010357584419856299,1.8675843750169279,1.9105417217382801,1.9194244455734017,-1.5025367798341001,1,3,8
1479741690,11.815893457593848,42.339159020372563,-71.087755360796706,73.694987795053791,0.19693155762656414,0.098667321990257434,0.28432855666408291,1.3425540639189588e-05,2.7359320583477391e-05,0.0074916423232931576,1.8562701281920881,1.5580774046290962,1.8763362513659056,-1.4611715553185787,1,3,8
1479741720,36.26932212160644,42.339094234682449,-71.087661837479843,65.0,0.6044887020267741,0.79096286510138025,2.2875616940855839,2.3269575206580816e-05,0.076143261400742623,0.40541382866409992,1.791759469228055,0.88610587274417485,2.3598966257155172,-1.3723789564801503,1,3,8
1479741750,33.62225386376988,42.338843193121555,-71.087747045658574,35.0,0.560370897729498,0.72951411128704791,2.2875616940855839,0.091262706827325388,0.36447933982637482,1.0219895102621259,1.9459101490553139,-0.091245721030372984,1.2416905166422108,-1.2872517005544972,1,3,8
1479741780,79.27065741238538,42.338783826157453,-71.087922787434266,27.87037037037037,1.3211776235397563,0.40271423442267934,1.4660289444913071,0.091262706827325388,0.37640959094078996,0.71000189802773805,1.9459101490553139,-0.12743334933063402,-0.90503304888193625,-1.2248323964440748,1,3,8
1479741810,58.54525587591237,42.338719226925015,-71.088192047617468,35.083333333333336,0.9757542645985394,0.27233795322337234,1.1122432444965531,0.34327528821657105,0.51297329394487345,0.93302497761037306,1.791759469228055,0.25605331663516645,-2.3102133409406718,-1.1500070518208048,1,3,8
1479741840,11.848652408119175,42.338668189516589,-71.088356053522844,57.833333333333336,0.1974775401353196,0.41965685215184312,1.1122432444965531,0.0050130211306902515,0.086083349408675888,0.7273315483609184,1.9459101490553139,-0.7939805584555264,-0.38117858044582142,-1.1636914195882568,1,3,8
1479741870,16.558257817977367,42.338665386767389,-71.08835976544708,81.039427772690814,0.2759709636329561,0.091765975735887226,0.27438992301308474,0.0012665788173392082,0.0082492609796738642,0.12556091273403047,1.8891591637540215,-1.4472878654417503,1.2119884227431637,-1.2782424527567335,1,3,8
1479741900,15.83853347847269,42.338736403819098,-71.088309326431002,95.644697776706323,0.26397555797454486,0.049665243287266667,0.13829915166853624,2.8044764635953934e-05,0.0014993823898554991,0.01330632418556936,1.7347645210257756,-0.61226038229436819,0.88772894163965399,-1.4078361206490133,1,4,2
1479741930,3.695087763069701,42.338862119812234,-71.088207455533677,119.25667320559482,0.06158479605116169,0.18844521369117656,0.54217630569214204,2.8044764635953934e-05,0.00051883160205251698,0.0097854982707785872,1.8562701281920881,1.2214900487197311,-0.33262893965444212,-1.4783690602881359,1,4,2
1479741960,11.685923928609611,42.338890406606225,-71.088215234274699,136.98075405030471,0.1947653988101602,0.18930640063891752,0.54217630569214204,2.7824750352548596e-05,9.000292512429764e-05,0.0033120469870089914,1.8056165767134955,1.5155847478127951,-1.4105670943855182,-1.0597592926423374,1,4,2
1479741990,12.051356276873912,42.338901898183991,-71.088251380205847,128.51902450238097,0.20085593794789855,0.0025847766445137969,0.0070672777492432701,9.8628955908738766e-06,4.8044908550500007e-05,0.00036930387127387745,1.710560083757924,0.54933732641305577,-2.4192852208029128,-0.24574837160337751,1,4,2
1479742020,1.849149174116083,42.338879848362993,-71.08824475812014,148.13297564390842,0.030819152901934717,0.0028125750249410465,0.0070672777492432701,9.8628955908738766e-06,0.00010894397070205418,0.0032502217180293801,1.8842428460867393,0.098017841423611321,-2.7310045519394661,-0.023157344851028848,1,4,2
1479742050,33.698931726357415,42.338842141027932,-71.08817544701877,178.77708640800824,0.5616488621059569,0.39196104083881728,1.1338906236011415,0.00010460239675870652,0.00023810728704157336,0.05385387985300695,1.7770332013812693,0.49498354497852837,-1.8291339460569631,-0.38893357029746883,1,4,2
1479742080,6.718969534513371,42.33882675037097,-71.088150878764225,183.4317790693251,0.11198282557522285,0.4054294215678233,1.1338906236011415,1.3856359882002932e-05,0.0036738211647049934,0.25345687395049415,1.7328679513998633,0.57449979296179954,-1.2652900255691784,-0.64499311580968688,1,4,2
1479742110,50.39639115625372,42.338876686400866,-71.088261250039551,139.13487001484609,0.8399398526042287,0.10402842286332473,0.30394294446566533,1.3856359882002932e-05,4.3557584151525806e-05,0.03624720842563197,1.7770332013812697,0.048561829465353909,-2.3958093181371338,-0.15102214307835449,1,4,2
1479742140,13.155531610712512,42.33889087215227,-71.088294562145592,111.54010078682018,0.21925886017854185,0.020503441561818429,0.058731649317871427,2.2008879010034113e-05,4.3117251592400736e-05,0.00033682570928396182,1.8675843750169276,0.042931877343631734,-2.7318169679250972,0.051693022958355393,1,4,2
1479742170,2.620271867180168,42.338875777961412,-71.088280840273711,92.094523084211204,0.04367119778633613,0.00080161124924423911,0.002233447172243348,2.2008879010034113e-05,3.6757706509580766e-05,0.0004341926711154041,1.7917594692280547,0.046811713975783299,-2.6763397543469636,0.056550636265547106,1,4,2
1479742200,7.502937170981612,42.338883937723622,-71.088273369269999,123.62820791445941,0.12504895284969353,0.0023311455090108449,0.0067091352456296379,2.8036771262361638e-05,3.5628513357543058e-05,0.0011508239999489243,1.8675843750169276,0.048766535448021432,-2.6450087055563398,0.012149063330488834,1,4,2
1479742230,3.3314228275395323,42.338882038370528,-71.088265686774193,110.27553807087232,0.05552371379232554,0.0023244252344142859,0.0067091352456296379,2.1311441820044004e-05,2.7979021097110249e-05,0.0001515238620493846,1.8675843750169276,0.048578252454220837,-2.6215686936550702,-0.060413183786567425,1,4,2
1479742260,5.301527806708741,42.338876022706124,-71.088274717970492,88.259088180716333,0.088358796778479,0.0011086012069830178,0.0030316749792615285,3.659013056867933e-06,2.296389909799772e-05,0.00018473024906301853,1.7917594692280547,0.037533588501715023,-2.6167723605327535,-0.1070462086874519,1,4,2
1479742290,0.37965692693129116,42.338884241907898,-71.088281571469395,98.914191077281728,0.006327615448854853,0.0018868753581738351,0.005047586154427056,3.659013056867933e-06,3.2351732916117352e-05,0.0015479980798737917,1.8675843750169279,0.036830111947550349,-2.6169764456539615,-0.11947695576025449,1,4,2
1479742320,4.398276122793631,42.338879673493373,-71.088280451800017,74.626851885777825,0.07330460204656052,0.0017434306248659205,0.005047586154427056,1.4333527378616959e-05,2.6250238811505809e-05,0.00014839830395841985,1.8675843750169276,0.036413715362605736,-2.6012515595864714,-0.13570179930781928,1,4,2
1479742350,4.909244498101924,42.338859578602197,-71.088267422620859,66.759266103236072,0.08182074163503207,7.9028467104522477e-05,0.00023247542743078469,1.4333527378616959e-05,2.2769586850890486e-05,0.00010020250538561835,1.7917594692280547,0.028480192065398893,-2.5973555869648033,-0.13183593597821697,1,4,2
1479742380,2.5558639213200864,42.338858313040049,-71.088265484887515,66.640956606130885,0.04259773202200144,0.00034666860411815313,0.0010361814498790044,2.4546391273428539e-05,3.324126443806162e-05,8.2186228077050751e-05,1.945910149055313,0.040232261490600628,-2.5787654486465712,-0.13109288420637299,1,4,2
1479742410,3.1423409378052938,42.338868417199727,-71.088257588686034,92.144139919941296,0.052372348963421564,0.00085902651275586146,0.0023759371746833462,3.0166933479439081e-05,4.0846558234932985e-05,0.0012198551523956245,1.945910149055313,0.050834594132847397,-2.5724741484710059,-0.13223623130956214,1,4,2
1479742440,7.08776224990504,42.338872072368829,-71.088240244713489,113.69089609376655,0.11812937083175067,0.0018979351486376108,0.0054146331297989635,4.1200783924257294e-05,0.00013173528921474431,0.0021328350947405709,1.710560083757924,0.040495518333824032,-2.5983552647204116,-0.11680077469572016,1,4,2
1479742470,1.5629910692193267,42.338893119225851,-71.088232414102478,133.1554145430992,0.026049851153655445,0.0037462270981020356,0.0094191281625418538,5.5948532813196884e-05,6.3770214264993437e-05,0.0063555567907145009,1.9361470098309517,0.030536757386849283,-2.6035327902515197,-0.115464458046991,1,4,2
1479742500,4.5658357141888555,42.338907121318591,-71.088214465645834,143.31075443238299,0.0760972619031476,0.0035232900081170592,0.0094191281625418538,1.8485876101468289e-05,5.6322998308647412e-05,0.0059963844978305654,1.8842428460867393,0.033235021010376072,-2.58576158087951,-0.12075004020062372,1,4,2
1479742530,22.021673801245058,42.338898581942246,-71.088234298451155,121.88639189666711,0.36702789668741764,0.002392139202501808,0.0054770370326247819,1.8485876101468289e-05,4.6787006203693793e-05,0.0045479130945836671,1.710560083757924,0.035164510431686953,-2.5823811489807316,-0.11950682820935933,1,4,2
1479742560,4.809217933977426,42.338883879784063,-71.088282396902144,85.489837155555193,0.0801536322329571,0.0059672267993333026,0.014262431361709288,1.8895333125292723e-05,5.2498279015230168e-05,0.0092974319006802093,1.9361470098309512,0.039750094380876629,-2.5874700605586889,-0.11984546238743089,1,4,2
1479742590,1.8153384886068349,42.338883824265068,-71.088275469900395,108.411414438677,0.03025564147678058,0.00648150355711705,0.014262431361709288,1.8895333125292723e-05,8.389795370466411e-05,0.012606034888326912,1.9361470098309514,0.042392648388210052,-2.5870529054891422,-0.11618458984449205,1,4,2
1479742620,3.332374876428443,42.338877572187243,-71.088254918273265,156.95521424054743,0.055539581273807384,0.0045015228318199488,0.012094243007918188,7.6870390643012988e-05,0.00013713272398852727,0.0042547143925439354,1.7480673485460896,0.024294705668680684,-2.5645424002983366,-0.12240074780824101,1,4,2
1479742650,2.858070818664155,42.338873499912523,-71.088255665797831,123.44530770345325,0.04763451364440258,0.0022311864495014279,0.0055830284475672622,1.5218658123815009e-05,4.6161876834490202e-05,0.0022647876326121166,1.8675843750169276,0.022573097128420972,-2.5334712041337371,-0.132621151529148,1,4,2
1479742680,0.37923740809751477,42.338881699383833,-71.088278882368016,70.553900058002256,0.006320623468291913,0.0015117123147835438,0.0043478590642403456,8.0341758286241566e-06,1.6540694679117901e-05,5.0725563680360126e-05,1.945910149055313,0.0354998018798591,-2.5166696746436128,-0.1341042847181067,1,4,2
1479742710,0.7083254214163217,42.338883828446363,-71.088283248504837,75.795243881810421,0.011805423690272028,0.0094277403708303981,0.023406399091184932,8.0341758286241566e-06,1.9163278115910509e-05,0.0115682688467459,1.7480673485460894,0.042336759122660494,-2.5079093373210664,-0.13444195633440051,1,4,2
1479742740,0.7671932799240692,42.338874074534019,-71.088280279235804,110.2799968537269,0.012786554665401153,0.0080498286266406944,0.023406399091184932,1.6747271481313115e-05,0.0016061311397897449,0.010763578492165011,1.9254081650860659,0.045436474686433005,-2.5126666485204816,-0.13136508337219516,1,4,2
1479742770,0.6606828707534751,42.338860517906021,-71.088267045138764,103.77598348032541,0.011011381179224585,0.0024897209135233034,0.0061117952236442097,6.8553961769994609e-06,2.8207761892484265e-05,0.0041608314527738135,1.8842428460867393,0.03880317621789077,-2.5103289880937156,-0.131343791553233,1,4,2
1479742800,2.7767179157427915,42.338864796425348,-71.088262613514644,68.060791311774651,0.04627863192904653,3.4871237105806077e-05,0.00011240564950239881,6.8553961769994609e-06,1.7488339088507743e-05,3.9342103857322763e-05,1.7917594692280547,0.034511940734956136,-2.5025670650290133,-0.13476554808862382,1,4,2
1479742830,1.4800982097865072,42.338864817845987,-71.088269933140936,65.0,0.024668303496441786,0.00032657764039536352,0.00097389607060003062,1.6365460573972071e-05,2.0619358169284549e-05,0.00013213535234576104,1.945910149055313,0.031402083375219568,-2.5079149730271384,-0.14047137190000514,1,4,2
1479742860,2.217774147660478,42.338867333987736,-71.08828312182375,74.441350539924699,0.03696290246100797,0.00032700523370630057,0.00097389607060003062,1.3220278332044257e-05,2.1735050108785503e-05,0.00013213535234576104,1.945910149055313,0.03147115171741293,-2.5047597488342128,-0.140588782082291,1,4,2
1479742890,7.095239515036119,42.33887311037951,-71.088283405596783,84.939140462360001,0.11825399191726865,0.0065384069197412659,0.017722113802106962,1.3220278332044257e-05,2.6310115067753774e-05,0.0081595093797945627,1.6581101035673729,0.032967592308257056,-2.5132299707685251,-0.12750008212650685,1,4,2
1479742920,4.294491445909964,42.338876442830845,-71.088275183503157,126.65690385008001,0.07157485743183273,0.0061438714335752126,0.017722113802106962,0.0001626435125754727,0.0024130326312848207,0.011618235575103022,1.8562701281920884,0.019540174684614015,-2.5352920746056844,-0.11502497532460876,1,4,2
1479742950,0.6456449048460691,42.338870505178967,-71.088263391180789,168.27623394808541,0.010760748414101151,0.0073786748962859942,0.021453843253867559,0.0001626435125754727,0.0013606118326814206,0.0097993436434852619,1.8562701281920881,0.023660891212899056,-2.498335605657803,-0.12776203449360021,1,4,2
1479742980,7.4810368063345365,42.338862846495317,-71.088253054946463,183.11835435306261,0.12468394677224227,0.0073489748091850309,0.021453843253867559,0.00019625241396384178,0.0022114782772881063,0.012100163339067434,1.7347645210257754,0.034862804710265767,-2.4302874321168217,-0.16332982961324236,1,4,2
1479743010,4.962286108377729,42.338874927362845,-71.088255457356439,197.42420157020885,0.08270476847296214,0.0046971287589361406,0.013402928596200153,0.00019625241396384178,0.0010807497855827475,0.0084551136127907628,1.9361470098309514,0.04204751009837028,-2.4027205076422846,-0.16514711415962072,1,4,2
1479743040,1.4923547546996057,42.338881451909764,-71.088252108603598,187.73769307689091,0.024872579244993427,0.019055698119393134,0.05710412819355655,0.00081664307370701438,0.0012531424317720149,0.0064503163508596697,1.8056165767134955,0.042512893959992561,-2.3901717904976323,-0.15437887827933999,1,4,2
1479743070,4.777796718936701,42.338881966779383,-71.088257988636173,167.29338089918591,0.07962994531561168,0.019624943170571108,0.05710412819355655,5.7891467188874018e-05,0.0019166395355159358,0.01824317310590811,1.7347645210257756,0.038228989483715746,-2.3546062189488381,-0.14010721639631732,1,4,2
1479743100,2.923290875198194,42.338859231783637,-71.088247703259043,131.6906695893442,0.048721514586636566,0.009430066961411649,0.026274092493042241,5.7891467188874018e-05,0.001897285181505326,0.017916777318874859,1.8640435797520256,0.050848972862200463,-2.3432044428612189,-0.13677655472498867,1,4,2
1479743130,7.154916354959789,42.338863190516847,-71.088257895950576,110.59140686606402,0.11924860591599648,0.01720868534352276,0.050885436399836656,3.5112295206131389e-05,0.001897285181505326,0.017196428218452107,1.8640435797520258,0.074971449046074848,-2.3598004166302347,-0.15095124602129714,1,4,2
1479743160,4.700038624386238,42.338888075256811,-71.088287323335337,104.914217696685,0.07833397707310397,0.018560978994039749,0.050885436399836656,9.6915638884585667e-06,2.679393648936353e-05,0.005903005153519005,1.6581101035673729,0.099085977803854933,-2.4247598194573636,-0.076599423462411026,1,4,2
1479743190,8.399567292974126,42.338875521411154,-71.088285023089014,95.974302069992092,0.13999278821623543,0.00040989181871381415,0.0013122627766092778,9.6915638884585667e-06,0.00011592701626390647,0.00040282510724604439,1.945910149055313,0.074947498498511206,-2.4678770042255587,0.021776678676126527,1,4,2
1479743220,2.119510721777805,42.338865836654108,-71.088272149869283,131.79551857150989,0.03532517869629675,0.00037426256840099857,0.0013122627766092778,0.00015632042628271089,0.00023900774824908054,0.00051912383217634739,1.945910149055313,0.066667851377507456,-2.4211019069262845,0.088676960398402532,1,4,2
1479743250,10.063519477225437,42.338862466690564,-71.08827295614266,127.17148324611951,0.16772532462042394,0.00055310768783511542,0.0017223746378266167,0.00011933196395961528,0.00019577666531673572,0.00056743668384386233,1.7917594692280547,0.060190693007339403,-2.3740106331215367,0.10058260158431694,1,4,2
1479743280,2.0423062681958712,42.338858499670067,-71.088262766533816,144.47249214598963,0.03403843780326452,0.0005618966341610043,0.0017223746378266167,4.2334502480879813e-05,9.756548559003947e-05,0.00021939463817618836,1.945910149055313,0.017234912162422317,-2.3090676282381701,0.0019566914791592574,1,4,2
1479743310,6.856704677598884,42.338869411495473,-71.088262416967979,174.82820181485411,0.11427841129331474,0.016315932096417865,0.042561908164898278,4.2334502480879813e-05,9.9278639630566442e-05,0.015199111574897671,1.8056165767134955,-0.0055410668176972978,-2.2989048077167098,-0.081045073203513035,1,4,2
1479743340,3.5812150992455183,42.338853817095824,-71.088245271637902,184.85210647142239,0.05968691832075864,0.014399059161551146,0.042561908164898278,0.0018210410698027801,0.0058470777137383193,0.025084893869567373,1.6609474332869181,-0.016383866235598964,-2.3340990060159363,-0.16750326868746668,1,4,2
1479743370,12.770492378291005,42.338866309807351,-71.088240004446007,188.58997908104163,0.21284153963818342,0.0050065481133136332,0.014608029238291811,2.991446981882194e-05,0.0023291521577120866,0.0096139650555283011,1.9361470098309514,-0.016730060540352289,-2.3542641972255871,-0.16185955288468215,1,4,2
1479743400,3.247750284988554,42.338876297539706,-71.088258591394109,149.02762035780245,0.0541291714164759,0.0060615658589799649,0.016380665860650505,2.9353470239917441e-05,0.00019563793502004489,0.0077006526524077794,1.8056165767134955,-0.013459978581741375,-2.3788889410527614,-0.15174226266646529,1,4,2
1479743430,1.0436220583837998,42.338859741680366,-71.088253536770296,128.7854773852732,0.01739370097306333,0.013685886044619728,0.036809575521800197,2.9353470239917441e-05,0.00027768138639532058,0.012494513966367353,1.6581101035673729,-0.018023022173919014,-2.3798823767528199,-0.15558619635102014,1,4,2
1479743460,8.902470475333994,42.338872302969094,-71.08824130415671,156.44141572746491,0.14837450792223322,0.014598870111214187,0.036809575521800197,6.4561210722574185e-06,0.00050974536137441242,0.023412439049361029,1.7770332013812695,-0.016340804307271691,-2.3744473141354669,-0.16280465253271112,1,4,2
1479743490,8.370635809438063,42.338875924655682,-71.088262819186824,119.34186405692269,0.13951059682396771,0.010762609146177242,0.030609612997855074,3.240363222097104e-06,1.242702262066027e-05,0.012847820336759731,1.7770332013812697,-0.015423630153890104,-2.3759237321748072,-0.16053480475028756,1,4,2
1479743520,5.303349000612749,42.33888330525609,-71.088297534546641,96.665723730435275,0.08838915001021248,0.012635987378074497,0.037448732368660462,3.240363222097104e-06,0.0023838923362899159,0.015518448212320721,1.7480673485460894,-0.016585532023700982,-2.4020725725760248,-0.14879384268753618,1,4,2
1479743550,1.962490678808272,42.338883660182333,-71.08829208614128,99.891323090396298,0.03270817798013787,0.011772113845050561,0.037448732368660462,1.9544544129913972e-05,0.0038468351270344119,0.015205259215502042,1.8640435797520258,-0.01461262344065904,-2.4565166209451301,-0.15911476046301615,1,4,2
1479743580,9.203605681879111,42.338882181655308,-71.088287295987413,79.512910385929018,0.15339342803131853,0.0043801754025692549,0.012206349909440998,1.2401435104725306e-05,0.00010882582733331578,0.0059896706112344267,1.8842428460867393,-0.019536790647072227,-2.4966133729470417,-0.17750921761953184,1,4,2
1479743610,0.5134269965944879,42.338882529558859,-71.088292202019375,84.385445584743593,0.008557116609908131,0.001585799672004369,0.0044837780789367459,4.4976142428898747e-06,8.2684660928508005e-06,0.0012186592190926073,1.7917594692280547,-0.024961649062516633,-2.5665641222254916,-0.17476868425041917,1,4,2
1479743640,1.5183763978137292,42.338875185317086,-71.088279070542555,84.202884933434092,0.025306273296895488,0.00045044501744877149,0.0013078285876442167,4.4976142428898747e-06,7.7264532614033861e-06,5.5061581402282573e-05,1.945910149055313,-0.029938456685161426,-2.5528992383645486,-0.16619768860197173,1,4,2
1479743670,0.6790256572055638,42.338874709732785,-71.088282068814266,70.517343232132532,0.011317094286759397,6.4271413124969193e-05,0.0001924344506372376,8.5620967672474746e-06,1.1981964085728877e-05,5.965522004885482e-05,1.945910149055313,-0.034847353251438687,-2.5087767378381827,-0.17154371031095975,1,4,2
1479743700,0.590364275701402,42.338871789902164,-71.088286797279494,73.529761318030637,0.009839404595023367,0.0012222929940352266,0.0034041685381950384,1.1695139822361386e-05,1.9346256591822091e-05,0.00060535112611021479,1.7917594692280547,-0.035038620522362902,-2.5066942896687836,-0.17066914517682,1,4,2
1479743730,0.24845265701151395,42.338866324966652,-71.088281210302171,80.399469332855631,0.004140877616858566,0.0030755636179015671,0.0088519952195912667,1.6819327211841434e-06,8.030668091945235e-06,0.0020735792780647894,1.8675843750169276,-0.033266368078041224,-2.4954034754253742,-0.17133572051935583,1,4,2
1479743760,0.39455213753671,42.338862100289326,-71.088258929364713,86.539606819452899,0.006575868958945167,0.0030211903339872467,0.0088519952195912667,1.6819327211841434e-06,1.2866776655658593e-05,0.00091201797835887611,1.8675843750169276,-0.038239353815066886,-1.7970508739473143,-0.12088186116804185,1,4,2
1479743790,2.485032886085365,42.338851231563496,-71.08824758589995,78.982928003145389,0.04141721476808942,0.00096915744526305191,0.0025904619334012799,2.7021914537163367e-05,8.1283072415005498e-05,0.0012461356864434602,1.7917594692280547,-0.033098431918084766,-1.7480438386129933,-0.092297018883920792,1,4,2
1479743820,1.9449782663349129,42.338860906021061,-71.088269194493591,75.114630508872906,0.03241630443891522,0.0010505297764693943,0.0025904619334012799,1.2820496785092558e-05,1.7481307973035164e-05,0.0010463293023253038,1.945910149055313,-0.018954418215889415,-2.6072501320591241,-0.13531031570517185,1,4,2
1479743850,1.65884932735246,42.33886367303257,-71.088273255641226,81.323031239376448,0.027647488789207666,0.00081560536764723672,0.0020606365922175912,1.1811565425892165e-05,1.350324479687372e-05,0.00085199507867488511,1.945910149055313,-0.019033410236153615,-2.5919315984720699,-0.13876152839337613,1,4,2
1479743880,0.38479122859115844,42.338860723766139,-71.088275668493722,69.576097606565895,0.006413187143185974,0.00057323188480125603,0.0015754493385102283,4.5171562204911933e-06,7.500367957687922e-06,0.00011084575832981091,1.7917594692280547,-0.023989200811389704,-2.5871299228777063,-0.1414127670141497,1,4,2
1479743910,0.5094192999263907,42.338858377220305,-71.088266028550535,65.356541089543242,0.008490321665439844,1.7977676100959622e-05,5.7760576800617729e-05,4.5171562204911933e-06,6.0367262279947154e-06,8.6458342968969886e-06,1.945910149055313,-0.028098030860966714,-2.5807126984393172,-0.13942786726542528,1,4,2
1479743940,4.6737248260739985,42.338851963852612,-71.088257563070812,68.734878724045657,0.07789541376789998,0.0043675962864780813,0.012636959747952597,6.0101503210362574e-06,6.202079756184417e-06,0.00056925560384578269,1.8675843750169276,-0.025860436678064553,-2.576244044024834,-0.13743910353903582,1,4,2
1479743970,1.1120887622017657,42.338858740139941,-71.088267181494928,72.860144176335979,0.01853481270336276,0.0046267781422394613,0.012636959747952597,5.7534267331949278e-06,3.8027290784173121e-05,0.00080214826004110674,1.7105600837579242,-0.024468995605573324,-2.5624213362430019,-0.13954817779293066,1,4,2
1479744000,5.382180399947042,42.338870094292666,-71.088274316480422,79.280899889193989,0.08970300666578403,0.0023823426599945455,0.0069781894530146649,5.7534267331949278e-06,4.2454510649725755e-05,0.00045672127903602372,1.8675843750169276,-0.025662495713603187,-2.5482067092006111,-0.14121774662955344,1,4,2
1479744030,2.5837735443319647,42.338903940694692,-71.088257944805179,130.96868494458019,0.043062892405532745,0.0023784951736823771,0.0069781894530146649,6.553925602422127e-05,0.00024254952267930814,0.0023545864692468207,1.8675843750169279,-0.0270268364679229,-2.50858103353006,-0.14321067290664202,1,4,2
1479744060,6.743552199776717,42.338897786149076,-71.08826182704415,117.07808110967704,0.11239253666294528,0.0012770127938303074,0.0034877198000270258,1.0694402862544163e-05,1.7528904534050253e-05,0.00093247466785601678,1.7917594692280547,-0.027606547051293149,-2.4268470565215901,-0.15683084833282768,1,4,2
1479744090,1.4484551487629131,42.338879815838595,-71.088286832371892,66.080643514470665,0.024140919146048552,5.2954787369478141e-06,2.1147904661278295e-05,3.4932195919883425e-06,9.8767108268661165e-06,1.5924411263548521e-05,1.945910149055313,-0.025636838428931514,-2.3866610328582198,-0.16557994374625887,1,4,2
1479744120,0.19394911656161318,42.338878208166697,-71.088290458641922,65.0,0.0032324852760268865,0.0033328499810478191,0.0095349256501776961,3.4932195919883425e-06,7.3799735997253356e-06,1.680842758491268e-05,1.8675843750169276,-0.027423949229708085,-2.3851114652547758,-0.16260432630421415,1,4,2
1479744150,1.494343704628858,42.338872784673242,-71.088289108383961,65.0,0.024905728410480964,0.0052042580895688461,0.012306974501976339,5.7009284082626002e-06,1.1160291881199743e-05,0.0071557168885835309,1.7480673485460896,-0.029070102094891401,-2.3946612263624636,-0.15845048876889151,1,4,2
1479744180,1.9654902221966668,42.338870417976388,-71.088276769533536,87.6185798793191,0.032758170369944446,0.0052357210291128506,0.012306974501976339,9.528712645260455e-06,1.1966835476043624e-05,0.0054362787230091743,1.8842428460867393,-0.035711333701836032,-2.4039603062070172,-0.15485070635555173,1,4,2
1479744210,1.3527437432878626,42.338867908898081,-71.088272622194182,87.6185798793191,0.022545729054797712,0.0037815743623187516,0.01084021332660608,9.9884138299005807e-06,1.0800681167604997e-05,8.0204910626387467e-05,1.8675843750169276,-0.039867568491029425,-2.3994386272949813,-0.15659856107269515,1,4,2
1479744240,2.2994311193300727,42.338868191335031,-71.088283128944383,74.314931797922199,0.03832385198883455,0.002902108847994344,0.0078401524798226516,9.9884138299005807e-06,1.2779030459258619e-05,0.00012119767501638827,1.710560083757924,-0.042789468510236246,-2.4022903365505197,-0.1521548098614815,1,4,2
1479744270,1.0131401207301036,42.338873371604322,-71.088284670840082,84.958231367644956,0.01688566867883506,0.0026449762628062614,0.0078401524798226516,2.1088633093811779e-05,3.779190985706788e-05,0.0016101535023675044,1.8675843750169276,-0.056667601638123677,-2.4263935131990801,-0.13818798434508756,1,4,2
1479744300,1.7989023199387815,42.338873650363738,-71.088282994005567,77.639122706487257,0.029981705332313025,0.00075812576943676518,0.0020628600007792978,5.1793109646439526e-06,9.6085554057335031e-06,0.00059859646586923388,1.945910149055313,-0.0540628704989519,-2.4121933176949391,-0.14029350370574226,1,4,2
1479744330,1.9717781829061976,42.338873757356431,-71.08828542461103,65.640258704695583,0.032862969715103295,0.0031935709916771898,0.0087255274543822786,5.1793109646439526e-06,7.5678516063949579e-06,0.00074836488088870145,1.710560083757924,-0.034409189689680757,-2.4112952451730765,-0.14269485351395417,1,4,2
1479744360,2.535484051242729,42.33887331615859,-71.088262430066976,87.460171654769539,0.04225806752071215,0.0074369115233027501,0.019722441166824006,1.5349128170051512e-05,4.9905716787953771e-05,0.011232211794348263,1.8562701281920879,-0.032256487946626729,-2.4483079212611645,-0.14359099823281601,1,4,2
1479744390,0.7020066240908884,42.338870319036197,-71.08826088908458,86.883938820543491,0.011700110401514807,0.0077158135956128214,0.019722441166824006,6.9532249958637313e-06,1.1753196262936158e-05,0.006901291940490736,1.8056165767134953,-0.037455864244337507,-2.4382058145916945,-0.14550224537948073,1,4,2
1479744420,5.683195740236968,42.338862233246083,-71.088267964334989,65.0,0.09471992900394947,3.029821143256116e-06,1.5512723641652558e-05,6.9532249958637313e-06,9.1122513792186767e-06,1.3311796034222768e-05,1.7917594692280547,-0.040536536637560495,-2.4126613332288183,-0.1413670186687295,1,4,2
1479744450,0.7734502317923746,42.338876538287657,-71.088266518635493,87.551291096786642,0.012890837196539577,0.0039781374442653282,0.010762330892314431,9.0857357535220134e-06,1.2908062484926334e-05,0.0064445199095557945,1.9361470098309514,-0.034898381069169752,-2.4470621636424399,-0.14830891363744544,1,4,2
1479744480,1.8851260981170674,42.338884885461695,-71.088265407990903,107.37311869770214,0.031418768301951124,0.0036994136360702576,0.010762330892314431,1.0105711333710037e-06,0.00088991964623679279,0.0064445199095557945,1.9361470098309514,-0.029057685897855123,-2.4534434966568042,-0.149856197152126,1,4,2
1479744510,4.113701577484159,42.338863461382502,-71.088251367637767,86.804010361007045,0.06856169295806931,0.001740388430413397,0.0047241845565818234,1.0105711333710037e-06,3.9400617874665984e-06,0.00022099650650209271,1.7917594692280547,-0.032484365685551152,-2.4083712138943869,-0.14554429329669583,1,4,2
1479744540,0.440536120882803,42.338860889182939,-71.088253911745412,94.6974103680962,0.0073422686813800495,0.0026441647023911492,0.0073986885692361231,4.4196139822461335e-06,1.2446715947638566e-05,0.0020582942317654736,1.8675843750169279,-0.043736319441064327,-2.4430230939730326,-0.15641425460852387,1,4,2
1479744570,3.7251622720682716,42.338868761545982,-71.088270716851611,97.667151404905837,0.062086037867804526,0.0026652643194331293,0.0073986885692361231,2.5747874852374679e-06,1.583188740876998e-05,0.0020582942317654736,1.8675843750169276,-0.052297882664561514,-2.4691066743363241,-0.16787486365911283,1,4,2
1479744600,0.34810976776970026,42.338874240039175,-71.088282409765384,65.0,0.005801829462828338,8.210316231067058e-06,2.584858166661969e-05,2.5747874852374679e-06,7.5843779461221659e-06,1.9340456772685079e-05,1.7917594692280547,-0.060727938999526783,-2.4530378272928099,-0.17308216675468482,1,4,2
1479744630,0.6633830359719307,42.338873937011101,-71.088277049879338,68.026589501728139,0.011056383932865512,0.0080573066989971277,0.021863286998431795,4.6693493997446204e-06,1.0365897233423761e-05,0.0063304788007663192,1.8056165767134955,-0.064034994688658461,-2.4618391024484798,-0.16798784767896416,1,4,2
1479744660,1.2274811672094332,42.338866857665558,-71.0882688616895,79.633262243026593,0.020458019453490555,0.0076494907039762498,0.021863286998431795,2.2976316621912496e-06,0.00027410647491336746,0.010315232088150855,1.8562701281920886,-0.066400332290678293,-2.4646949431672782,-0.16528940442932444,1,4,2
1479744690,2.865315997664665,42.338865670618887,-71.088266827391124,83.671427093715849,0.04775526662774442,0.0028548806996329802,0.0085130501751960602,2.2976316621912496e-06,0.0026039475349384804,0.0065344840710796276,1.7480673485460896,-0.059581813912164334,-2.46654713866528,-0.16640009193390218,1,4,2
1479744720,152.1640346322021,42.339060132221221,-71.087930062735694,232.22228258364512,2.536067243870035,0.0072519797508211322,0.025361604702727358,0.0027128087789784305,0.0042541935308647374,0.0073183004348848398,1.8562701281920886,-0.047281893009255359,-2.4787708716162071,-0.17058917672506341,1,4,2
1479744750,154.32788416007742,42.338955443777564,-71.088126044596564,173.54021055035065,2.572131402667957,0.0082153314890124375,0.025361604702727358,0.0024399312021017219,0.0038561498532589727,0.016370929225759577,1.8640435797520256,-0.047648317297161673,-2.4830048183683031,-0.20050616732526599,1,4,2
1479744780,4.029549721606999,42.338889725805295,-71.088244910474245,162.86940798816738,0.06715916202678332,0.0064853028526894374,0.019432152479465527,0.0022527816344803122,0.0028472408299790837,0.011013779528469349,1.6581101035673729,-0.036580665636701794,-2.4494764049410001,-0.21260136812390348,1,4,2
1479744810,9.839242437446373,42.338894528759887,-71.088243020553833,178.32290888987009,0.16398737395743954,0.017216058305210301,0.05227041621749931,0.00035709779696292394,0.0030010082315610367,0.01077930158723754,1.8056165767134955,-0.0366649358975547,-2.4177079397681474,-0.1861988781112493,1,4,2
1479744840,2.6449436017607355,42.338900175339077,-71.088257078396865,184.94630996843711,0.044082393362678926,0.017023818036816213,0.05227041621749931,0.00035709779696292394,0.0030472172012907788,0.012715998424167145,1.7770332013812693,-0.059179803770330767,-2.4236348731976327,-0.17751771183778026,1,4,2
1479744870,4.251531436799668,42.338897826372758,-71.088261890866278,186.50583960161779,0.07085885727999447,0.0070572244987541204,0.021167461325556681,0.002250420852414687,0.0027146945474296486,0.013095513583209048,1.7347645210257754,-0.095745795474681247,-2.4550359073990435,-0.1587749245549335,1,4,2
1479744900,2.1266445553017075,42.338885466712192,-71.088262474932534,176.36864718553528,0.03544407592169512,0.0072525273272625399,0.021167461325556681,0.0010870619723614946,0.0025315406554211215,0.0089979847122281433,1.8056165767134953,-0.087024156254211435,-2.5094288398071654,-0.046810278366240896,1,4,2
1479744930,6.930563640301356,42.338881140479387,-71.088270841935071,153.91473762133276,0.11550939400502261,0.0029649004970449242,0.00945128059214723,2.9336589285881439e-05,0.00066662320609701129,0.0030182684850135408,1.8675843750169276,-0.065183671364847678,-2.5222874063959755,0.0058069220826341044,1,4,2
1479744960,2.906696056407135,42.338871749224261,-71.088278238427648,132.35110025306238,0.04844493427345225,0.0032247797186267853,0.00945128059214723,2.9336589285881439e-05,0.00039115579050482991,0.0022867782749301357,1.7105600837579242,-0.067014974873437896,-2.5103708637963646,-0.031221689772853181,1,4,2
1479744990,1.6205852965943384,42.338859251275395,-71.088269469717261,147.03468076429729,0.027009754943238973,0.0009822576678353654,0.0022875786727018883,8.0762800903078012e-06,2.0612057204475022e-05,0.001555223462068306,1.945910149055313,-0.057128785459019706,-2.4337601164964786,-0.028498451170343584,1,4,2
1479745020,1.5346313586438947,42.338885632083532,-71.088281032525103,104.79428417142059,0.025577189310731576,0.00027163780603842798,0.00080093430746698395,8.0762800903078012e-06,1.3859605329716041e-05,6.04340796161763e-05,1.945910149055313,-0.043505425048684453,-2.3730758040697855,-0.019193660580843826,1,4,2
1479745050,7.682604473920583,42.338886692388165,-71.088279286836595,65.0,0.12804340789867638,0.00029385870698079203,0.00080093430746698395,3.5178053624341994e-06,1.3305867910344856e-05,1.663879653552004e-05,1.7917594692280547,-0.037085958467551215,-2.3795505294334802,-0.024075222091582932,1,4,2
1479745080,2.0633564263277244,42.338861945323238,-71.088259994403089,69.93442887954582,0.03438927377212874,0.0015904965712541777,0.0046194148909129039,3.5178053624341994e-06,1.0261487785551914e-05,0.00033378929646386504,1.945910149055313,-0.038326378570417451,-2.377122157670184,-0.019474051091969088,1,4,2
1479745110,4.836480931155594,42.33886505112438,-71.0882588523111,96.099566982775315,0.0806080155192599,0.0015354731028817616,0.0046194148909129039,6.4946560958872733e-06,6.2259884592555552e-05,0.00058799821616688079,1.945910149055313,-0.055683701466613791,-2.3088964036133213,-0.026852002666445256,1,4,2
1479745140,22.71092012118318,42.338875250360111,-71.088221847349317,153.3135727152148,0.378515335353053,0.0002642213289678892,0.00069214508426887825,5.1761708597635214e-06,3.5661074640221869e-05,0.00049152959605649679,1.7917594692280547,-0.073069082989867903,-2.2438276242627402,-0.050722152068579468,1,4,2
1479745170,10.14829320982357,42.33888253440476,-71.088232895924392,127.64187749993989,0.16913822016372618,0.00023751127184922874,0.00069214508426887825,5.1761708597635214e-06,9.3229621135508124e-06,2.0111414129289317e-05,1.945910149055313,-0.057121726896098034,-2.235764400820996,-0.052360736361375969,1,4,2
1479745200,1.9765288557159282,42.338881558854411,-71.088281366511026,68.501254815256544,0.03294214759526547,0.00022134896351518266,0.00065196519868907562,3.2169702560280626e-06,1.227575130633339e-05,4.0692411960974187e-05,1.945910149055313,-0.048502366025873773,-2.2456040801881167,-0.060247059104487979,1,4,2
1479745230,1.4801986988302185,42.338867338835271,-71.088266972063167,99.911216052443407,0.024669978313836976,0.0022726840998367427,0.0062594609830232155,3.2169702560280626e-06,2.5213218166545692e-05,0.00054501881783602436,1.710560083757924,-0.052149642171057629,-2.4010893098845063,-0.097663438801265809,1,4,2
1479745260,2.714332612972169,42.338864131242637,-71.088255541387056,109.26750091898157,0.04523887688286949,0.0035579950845137428,0.0093494804781934678,7.7995904795405677e-06,5.320330578026981e-05,0.003332444543662506,1.8842428460867393,-0.050717927794195997,-2.4811961278294619,-0.139748729158401,1,4,2
1479745290,2.0876945352061846,42.338872162211764,-71.088255261922868,98.874604141194084,0.034794908920103076,0.0032440611476154892,0.0093494804781934678,2.0973052542039342e-06,5.3731004233311456e-06,0.00024905512829529451,1.8675843750169276,-0.06275355595158498,-2.4724766199479911,-0.16477163376872914,1,4,2
1479745320,7.326567926307587,42.338867466699476,-71.088259246134527,84.311791656760377,0.12210946543845978,0.00023360544956586458,0.00063673814569455297,2.0973052542039342e-06,3.863245255129375e-06,2.5249850199909534e-05,1.7917594692280547,-0.081763047462549199,-2.5205957666809033,-0.18442010512044985,1,4,2
1479745350,7.983943490802522,42.338869122674275,-71.0882743084032,71.751977009677532,0.1330657248467087,0.0036367022136563434,0.010522556005945212,3.7474046146866493e-06,7.8601878486605829e-06,0.00041772034869902853,1.8675843750169276,-0.073742065308327859,-2.5211890623728528,-0.18257419396993546,1,4,2
1479745380,2.150923902829117,42.338865716024273,-71.088277861380632,86.227798190613697,0.03584873171381862,0.0036699972980037982,0.010522556005945212,1.1307688986098728e-07,3.4406115035230857e-06,0.00010390488874083647,1.8675843750169279,-0.079028289832733536,-2.5064616063946743,-0.18160495583605543,1,4,2
