TIMESTAMP,DISTANCE,AVG_LAT,AVG_LNG,GPS_ACCURACY,AVG_SPEED_BY_GPS,ACCLERATOR_STD,MAX_ACCLERATOR,MIN_ACCLERATOR,PERCENTILE_25_ACCLERATOR,PERCENTILE_75_ACCLERATOR,ACCLERATOR_ENTROPY,AVG_ROLL,AVG_YAW,AVG_PITCH,WEEK_DAY,LABEL1,LABEL2
1479651480,5.491268071791411,42.33167305127003,-71.109938012153009,10.300555534644076,0.09152113452985684,0.0010436412979120996,0.0025792134386647698,0.00049193084284057079,0.0010137514917966206,0.0020573927897087202,0.69314718055994529,-0.31272569080857998,0.3887761792968899,-0.27217022320332002,0,0,6
1479651510,5.491268071791411,42.331688439350998,-71.109942272574187,10.104541055528374,0.09152113452985684,0.00092990237671596249,0.0025792134386647698,2.4248538191896626e-05,3.3686335324296056e-05,0.00037914901735253267,1.7917594692280547,-0.18799040860597915,-1.4985873739265116,-0.35889955731029954,0,0,6
1479651540,0.0,42.331696646327501,-71.109944544798793,10.0,0.0,6.6587316542542828e-06,4.0803540888418414e-05,1.9010333328101478e-05,2.5594916141661597e-05,3.372334262084273e-05,1.945910149055313,-0.12553319387317213,-2.4415935771927257,-0.40241342148021031,0,0,6
1479651570,0.0,42.331696646327501,-71.109944544798793,10.0,0.0,6.1531946394250661e-06,3.9745168931423232e-05,1.9010333328101478e-05,2.7554427215666991e-05,3.1362165725099119e-05,1.7917594692280547,-0.12535970759494083,-2.4404278409504383,-0.40257265370397016,0,0,6
1479651600,0.0,42.331696646327501,-71.109944544798793,10.0,0.0,5.0988352935893412e-06,3.9745168931423232e-05,2.1007072130716788e-05,2.8116960987522336e-05,2.9951702075879351e-05,1.945910149055313,-0.12530844511102929,-2.44055750717092,-0.40254641911055655,0,0,6
1479651630,0.0,42.331696646327501,-71.109944544798793,10.0,0.0,3.0772723562805647e-06,3.1546968614619914e-05,2.1007072130716788e-05,2.6323372031778409e-05,2.8723291896298032e-05,1.945910149055313,-0.1253054036671423,-2.4407536713996598,-0.40256009713832469,0,0,6
1479651660,0.0,42.331696646327501,-71.109944544798793,10.0,0.0,2.6820763062664744e-06,3.1546968614619914e-05,2.2818788975014587e-05,2.507054091839159e-05,2.7114237117928589e-05,1.7917594692280547,-0.12530089121556151,-2.440831592751862,-0.40251147670885512,0,0,6
1479651690,0.0,42.331696646327501,-71.109944544798793,10.0,0.0,4.086929822091708e-06,3.4769019364084099e-05,2.2818788975014587e-05,2.5914861395579679e-05,3.229441049923588e-05,1.945910149055313,-0.12526605373774399,-2.4411085572935485,-0.40245933776070331,0,0,6
1479651720,0.0,42.331696646327501,-71.109944544798793,10.0,0.0,2.9869298454266161e-06,3.4769019364084099e-05,2.6191047610519043e-05,2.7502268222151252e-05,3.229441049923588e-05,1.945910149055313,-0.1252945282066967,-2.4412448419171198,-0.40245352217860664,0,0,6
1479651750,0.0,42.331696646327501,-71.109944544798793,10.0,0.0,4.2297341271782726e-06,3.5708408609663796e-05,2.6029389387388989e-05,2.6480163528990964e-05,3.3675330409384991e-05,1.7917594692280547,-0.12531770271678602,-2.4411584003186584,-0.40246948888262807,0,0,6
1479651780,0.0,42.331696646327501,-71.109944544798793,10.0,0.0,6.3457369873563862e-06,3.5708408609663796e-05,1.9159061475875e-05,2.215782608038005e-05,3.3108981337022144e-05,1.945910149055313,-0.12520331850564798,-2.4405890206628844,-0.40252698965963291,0,0,6
1479651810,0.0,42.331696646327501,-71.109944544798793,10.0,0.0,5.9541739162771766e-06,3.4898258606091054e-05,1.9159061475875e-05,2.215782608038005e-05,3.2379116452343804e-05,1.945910149055313,-0.12515863598055002,-2.4398548951945438,-0.40253238158319776,0,0,6
1479651840,0.0,42.331696646327501,-71.109944544798793,10.0,0.0,3.4709498657785724e-06,3.5467783862683846e-05,2.5236435968014538e-05,3.1154329524332903e-05,3.4729119552032803e-05,1.7917594692280547,-0.12514291793369733,-2.4391452060148953,-0.40254850565329675,0,0,6
1479651870,0.0,42.331696646327501,-71.109944544798793,10.0,0.0,3.7658771002771172e-06,3.7729569290978715e-05,2.6446349975258467e-05,2.9219450461701136e-05,3.4305415376162764e-05,1.945910149055313,-0.12510054016578742,-2.4394391296815683,-0.40255676249850586,0,0,6
1479651900,0.0,42.331696646327501,-71.109944544798793,10.0,0.0,3.7861885387220973e-06,3.7729569290978715e-05,2.6446349975258467e-05,2.7583599727712797e-05,3.2908233165100309e-05,1.945910149055313,-0.12507334224492872,-2.4399313109387242,-0.40250968666222958,0,0,6
1479651930,0.0,42.331696646327501,-71.109944544798793,10.0,0.0,2.5785716085558185e-06,3.2673419440558949e-05,2.5143406395746895e-05,2.723678094998464e-05,3.0847735590393018e-05,1.7917594692280547,-0.125103429545489,-2.4404126568477382,-0.40247223019493644,0,0,6
1479651960,0.0,42.331696646327501,-71.109944544798793,10.0,0.0,2.5534027215194735e-06,3.1529036298225333e-05,2.5041510356153978e-05,2.5462231163882623e-05,2.9326132209976077e-05,1.945910149055313,-0.12203088427023671,-2.4406770373812425,-0.40091147838780083,0,0,6
1479651990,0.0,42.331696646327501,-71.109944544798793,10.0,0.0,2.8212363390188659e-06,3.2238724531162339e-05,2.4419530762122788e-05,2.5411283144086164e-05,2.9786896131491071e-05,1.945910149055313,-0.11962545558301829,-2.4407610214737128,-0.39971766929361296,0,0,6
1479652020,0.0,42.331696646327501,-71.109944544798793,10.0,0.0,4.1873496576033464e-06,3.3340618871160186e-05,2.2597603338008894e-05,2.386388326700918e-05,3.1239234958132625e-05,1.7917594692280547,-0.119507260938789,-2.4410988559230749,-0.39964650602249813,0,0,6
1479652050,0.0,42.331696646327501,-71.109944544798793,10.0,0.0,4.3337861228488288e-06,3.3340618871160186e-05,2.2210114622387363e-05,2.3138135386656771e-05,2.888018169571892e-05,1.945910149055313,-0.11949597266243073,-2.4412886427028084,-0.3996575055228217,0,0,6
1479652080,0.0,42.331696646327501,-71.109944544798793,10.0,0.0,4.8627964435883171e-06,3.5919457717184494e-05,2.2210114622387363e-05,2.3732226669759299e-05,2.888018169571892e-05,1.945910149055313,-0.1194569658413587,-2.4414108352709758,-0.39967300203867617,0,0,6
1479652110,0.0,42.331696646327501,-71.109944544798793,10.0,0.0,4.43320710374544e-06,3.5919457717184494e-05,2.3668017557170362e-05,2.4492924251515801e-05,3.1355111550685471e-05,1.7917594692280547,-0.11937234267534269,-2.4419387954957519,-0.39964842373443082,0,0,6
1479652140,0.0,42.331696646327501,-71.109944544798793,10.0,0.0,5.9325280418007705e-06,3.4707061357654592e-05,1.8808801983797992e-05,2.3122957367977243e-05,3.2723061762180648e-05,1.945910149055313,-0.1193673115564327,-2.4421958411821718,-0.39962851126649607,0,0,6
1479652170,0.0,42.331696646327501,-71.109944544798793,10.0,0.0,6.6245432308461005e-06,3.4707061357654592e-05,1.7817355375408909e-05,1.9236163530366982e-05,3.0950165189111115e-05,1.945910149055313,-0.11934765365059571,-2.4424469092595649,-0.39955018437049833,0,0,6
1479652200,0.0,42.331696646327501,-71.109944544798793,10.0,0.0,4.0908365950028093e-06,2.8859861684144799e-05,1.7817355375408909e-05,2.2309018844722531e-05,2.8416002026729025e-05,1.7917594692280547,-0.11937258576313085,-2.4423935047717849,-0.39946622068680981,0,0,6
1479652230,0.0,42.331696646327501,-71.109944544798793,10.0,0.0,3.113821173535641e-06,2.8859861684144799e-05,1.8777384569453332e-05,2.3145615445574952e-05,2.6498785859492944e-05,1.945910149055313,-0.119405195207459,-2.4423042287426426,-0.39946363245654087,0,0,6
1479652260,0.0,42.331696646327501,-71.109944544798793,10.0,0.0,4.4478415791525813e-06,3.3536955505285569e-05,1.8777384569453332e-05,2.3145615445574952e-05,2.7355066267226727e-05,1.945910149055313,-0.11938378992115528,-2.4430118335023061,-0.39943705454750233,0,0,6
1479652290,0.0,42.331696646327501,-71.109944544798793,10.0,0.0,4.389304740199729e-06,3.3536955505285569e-05,1.9735399599856659e-05,2.5413344851137245e-05,2.9797768919921749e-05,1.7917594692280547,-0.11935203727477367,-2.4434221805162402,-0.39936788184720634,0,0,6
1479652320,0.0,42.331696646327501,-71.109944544798793,10.0,0.0,5.2602012187647522e-06,3.5699631326398743e-05,1.9735399599856659e-05,2.1677197993384802e-05,2.9003739455004783e-05,1.945910149055313,-0.11925063742208185,-2.4428405180085071,-0.39934872038782904,0,0,6
1479652350,0.0,42.331696646327501,-71.109944544798793,10.0,0.0,6.0548438937526005e-06,3.8536164857718031e-05,2.0601521597511674e-05,2.5004429285406129e-05,3.3716420394151714e-05,1.945910149055313,-0.11919038381926084,-2.4426447666380002,-0.39933951518944755,0,0,6
1479652380,0.0,42.331696646327501,-71.109944544798793,10.0,0.0,6.7076580792964855e-06,3.8536164857718031e-05,1.8113386144464979e-05,2.3734625198959748e-05,3.152369614058504e-05,1.7917594692280547,-0.11919406490451116,-2.4430867543619184,-0.39923628760580021,0,0,6
1479652410,0.0,42.331696646327501,-71.109944544798793,10.333333333333334,0.0,4.8309871184102977e-06,3.1283183352298681e-05,1.8113386144464979e-05,2.0017283620817311e-05,2.7896723096835127e-05,1.945910149055313,-0.11915867922516729,-2.4434194682209385,-0.39915174501280726,0,0,6
1479652440,0.0,42.331696646327501,-71.109944544798793,10.333333333333334,0.0,4.8901874108447799e-06,3.1283183352298681e-05,1.6040429515804822e-05,1.8769906856238692e-05,2.4426555331694038e-05,1.945910149055313,-0.11911474875951658,-2.4435145531199685,-0.39912065165864202,0,0,6
1479652470,0.0,42.331696646327501,-71.109944544798793,10.0,0.0,4.3321223233671398e-06,2.7940122167764898e-05,1.6040429515804822e-05,1.945947374268984e-05,2.6320772623403053e-05,1.7917594692280547,-0.11911549207058135,-2.4436761734698718,-0.39910426790728248,0,0,6
1479652500,0.0,42.331696646327501,-71.109944544798793,10.0,0.0,3.122436010447216e-06,3.1873587643590599e-05,2.2732821480115186e-05,2.3268758506771706e-05,2.7844037194300099e-05,1.945910149055313,-0.11911561564386557,-2.4437253325149229,-0.39903987824767356,0,0,6
1479652530,0.0,42.331696646327501,-71.109944544798793,10.0,0.0,6.1283108448821266e-06,3.1873587643590599e-05,1.242012254115077e-05,2.109424774201884e-05,2.8626649400103736e-05,1.945910149055313,-0.11907706630801143,-2.4438397136963386,-0.39902734708888304,0,0,6
1479652560,0.0,42.331696646327501,-71.109944544798793,10.0,0.0,7.1455802061154839e-06,3.4946046883037167e-05,1.242012254115077e-05,2.062575449334142e-05,2.8488814616928193e-05,1.7917594692280547,-0.11871031479611083,-2.4440335389420729,-0.39923329112765044,0,0,6
1479652590,0.0,42.331696646327501,-71.109944544798793,10.0,0.0,4.7336612231987955e-05,0.00016350783009699761,2.4135995961598206e-05,2.5772468243505116e-05,3.4847606117342576e-05,1.945910149055313,-0.11726745495316114,-2.4440212936231482,-0.40028968311606061,0,0,6
1479652620,0.0,42.331696646327501,-71.109944544798793,10.0,0.0,4.7827666829502621e-05,0.00016350783009699761,1.5653560967976275e-05,2.6571964254968851e-05,3.3824468983146751e-05,1.945910149055313,-0.11619590482870756,-2.4440709791156285,-0.40118583173807398,0,0,6
1479652650,0.0,42.331696646327501,-71.109944544798793,10.0,0.0,6.5610918971227379e-06,3.2899772614645518e-05,1.5653560967976275e-05,2.1490500941183018e-05,3.0847336244153321e-05,1.7917594692280547,-0.11588439756320018,-2.4443912560382284,-0.40149981912551375,0,0,6
1479652680,0.0,42.331696646327501,-71.109944544798793,10.0,0.0,6.0373511460972381e-06,3.4628314038425264e-05,1.7138825938567896e-05,2.0373609548630561e-05,3.0039433409006135e-05,1.945910149055313,-0.11587594975323287,-2.4445327714905014,-0.40145841070384797,0,0,6
1479652710,0.0,42.331696646327501,-71.109944544798793,10.0,0.0,5.2145842436264339e-06,3.4628314038425264e-05,1.7138825938567896e-05,2.0126347913289185e-05,2.3027752176015688e-05,1.945910149055313,-0.1159254027522757,-2.4446870371612115,-0.40140798516135684,0,0,6
1479652740,0.0,42.331696646327501,-71.109944544798793,10.0,0.0,8.32941873103315e-06,4.3241044269721469e-05,1.9144659096167131e-05,2.1304408610296509e-05,2.8270076913918406e-05,1.7917594692280547,-0.11596620711495449,-2.4447963224633349,-0.40138914594559022,0,0,6
1479652770,0.0,42.331696646327501,-71.109944544798793,10.0,0.0,8.0797133461946582e-06,4.3241044269721469e-05,1.8786924811683396e-05,2.0181414122098411e-05,2.6947307810432668e-05,1.945910149055313,-0.11596466395407187,-2.4447619294482115,-0.40143145735071012,0,0,6
1479652800,0.0,42.331696646327501,-71.109944544798793,19.666666666666668,0.0,4.3446461669135342e-06,3.2533660129788738e-05,1.8786924811683396e-05,2.0181414122098411e-05,2.4640045152664354e-05,1.945910149055313,-0.1159787974381247,-2.4450750473231544,-0.40145663532223191,0,0,6
1479652830,0.0,42.331696646327501,-71.109944544798793,20.666666666666668,0.0,3.5865250262441905e-06,3.2533660129788738e-05,2.228073953238439e-05,2.3370020488886431e-05,2.8212853651686377e-05,1.7917594692280547,-0.11597354926315583,-2.44545548063723,-0.4014801887479576,0,0,6
1479652860,0.0,42.331696646327501,-71.109944544798793,11.0,0.0,5.7715977234050023e-06,3.9356794695453677e-05,2.1629389601556124e-05,2.2493611257368509e-05,2.8471050997948759e-05,1.945910149055313,-0.11600695532484787,-2.4457419669063531,-0.40152577994247551,0,0,6
1479652890,0.0,42.331696646327501,-71.109944544798793,10.0,0.0,7.0651782707485915e-06,3.9356794695453677e-05,1.6204460160711065e-05,2.0097147467765881e-05,2.6873152443057741e-05,1.945910149055313,-0.11598910067958157,-2.44596476708892,-0.40150198737490178,0,0,6
1479652920,0.0,42.331696646327501,-71.109944544798793,10.0,0.0,4.9822319005357369e-06,3.0348286257480429e-05,1.6204460160711065e-05,1.9860185658193446e-05,2.7379793804339762e-05,1.7917594692280547,-0.11600060886799633,-2.4462059409964598,-0.40152271266581385,0,0,6
1479652950,0.0,42.331696646327501,-71.109944544798793,10.0,0.0,5.6848359412539388e-06,4.0670233020098194e-05,2.3497421055517494e-05,2.3944791532345046e-05,2.9115246666036577e-05,1.945910149055313,-0.11605951423861428,-2.4465625930629114,-0.40155813665136464,0,0,6
1479652980,0.0,42.331696646327501,-71.109944544798793,10.0,0.0,6.4273215554855818e-06,4.0670233020098194e-05,1.9372205251066591e-05,2.2511529491106269e-05,2.5828033439897218e-05,1.945910149055313,-0.11606432712006844,-2.4460713577594286,-0.40155276802494244,0,0,6
1479653010,0.0,42.331696646327501,-71.109944544798793,10.0,0.0,2.9463286658189023e-06,2.628927336973995e-05,1.8170089377812369e-05,1.9874186009308786e-05,2.4425586666132206e-05,1.7917594692280547,-0.11610807234540216,-2.4451770584931896,-0.40157899495164912,0,0,6
1479653040,0.0,42.331696646327501,-71.109944544798793,10.0,0.0,5.4750434100907136e-06,3.4726320495856246e-05,1.8170089377812369e-05,2.0410017520394819e-05,2.8008286955275233e-05,1.945910149055313,-0.11616811888732585,-2.4451453446206699,-0.40163621710752795,0,0,6
1479653070,0.0,42.331696646327501,-71.109944544798793,10.0,0.0,5.37311162760921e-06,3.4726320495856246e-05,1.9439906756754271e-05,1.9990009648768163e-05,2.812998536796837e-05,1.945910149055313,-0.1162191830238833,-2.4453127203995542,-0.40169485092963825,0,0,6
1479653100,0.0,42.331696646327501,-71.109944544798793,10.0,0.0,2.6819280652231408e-06,2.6474830386811922e-05,1.9698159339679116e-05,2.1150736024715936e-05,2.5907873152977629e-05,1.7917594692280547,-0.11648996815887518,-2.4454206170591899,-0.40122846413653313,0,0,6
1479653130,0.0,42.331696646327501,-71.109944544798793,10.0,0.0,3.0307242457382576e-06,2.6258537370101503e-05,1.6927613488853626e-05,2.2396494468000216e-05,2.5191395825476295e-05,1.945910149055313,-0.11749321698744886,-2.4447124087047967,-0.39958687211672289,0,0,6
1479653160,0.0,42.331696646327508,-71.109944544798822,10.0,0.0,3.1361340136446378e-06,2.6208707265497772e-05,1.6927613488853626e-05,2.1677601324312866e-05,2.5581022624928625e-05,1.945910149055313,-0.11806297446575943,-2.4441740649632284,-0.39874273251857983,0,0,6
1479653190,2.0332919880420186,42.331685802544982,-71.109935920669628,12.825605431738577,0.03388819980070031,3.6143778376649489e-06,3.1234315021315321e-05,1.9511294296439086e-05,2.296136571207053e-05,2.6120330086943843e-05,1.7917594692280547,-0.11806215515807084,-2.4437538226465714,-0.39870194232292605,0,0,6
1479653220,2.042018609225457,42.331675725267203,-71.109927906485368,16.578778241457393,0.034033643487090946,5.9799784281894682e-06,3.1234315021315321e-05,1.2991137754779349e-05,1.7197510602316309e-05,2.5624514634940082e-05,1.945910149055313,-0.11797426985522286,-2.4428751604608929,-0.3987049189953204,0,0,6
1479653250,0.0,42.33167535629341,-71.109927613354401,24.461537850896754,0.0,5.6392056081487188e-06,2.9293379189573748e-05,1.2991137754779349e-05,1.6749709403669517e-05,2.5743229710629215e-05,1.945910149055313,-0.11796791341422241,-2.4424651476573258,-0.39874636863677432,0,0,6
1479653280,0.0,42.33167535629341,-71.109927613354401,31.196007364380698,0.0,4.9237166943622664e-06,2.9293379189573748e-05,1.6478956200974087e-05,1.815941080343326e-05,2.6415972671716991e-05,1.7917594692280547,-0.11807279743445966,-2.4426021752070919,-0.39875528495871398,0,0,6
1479653310,0.0,42.33167535629341,-71.109927613354401,31.196007364380698,0.0,6.5783749605119325e-06,3.7428440934208587e-05,1.6478956200974087e-05,1.9549528474074132e-05,2.7237989781808302e-05,1.945910149055313,-0.11808279439599885,-2.4425971132571211,-0.39877314900003863,0,0,6
1479653340,0.0,42.33167535629341,-71.109927613354401,31.196007364380698,0.0,5.8741891728469378e-06,3.7428440934208587e-05,1.8429767767121519e-05,2.1092159939983086e-05,2.5550516159938464e-05,1.945910149055313,-0.11806490147672957,-2.4424855111501431,-0.39880415764122501,0,0,6
1479653370,0.0,42.33167535629341,-71.109927613354401,27.522660357025821,0.0,3.5479245748227921e-06,2.9709654465872002e-05,1.8429767767121519e-05,2.0883029485019101e-05,2.2930639445488366e-05,1.7917594692280547,-0.1180631756310785,-2.4423965350809671,-0.39886913116709199,0,0,6
1479653400,0.0,42.33167535629341,-71.109927613354401,18.339292838638624,0.0,3.8673345966294606e-06,2.9709654465872002e-05,1.9221733423435371e-05,2.0071513097348573e-05,2.6404659622266527e-05,1.945910149055313,-0.11807077291234272,-2.4427592009723367,-0.39890052924591174,0,0,6
1479653430,0.0,42.33167535629341,-71.109927613354401,12.829272327606303,0.0,4.5298968978670209e-06,3.2618003193172118e-05,1.9221733423435371e-05,2.2400559174920142e-05,2.8144403489723506e-05,1.945910149055313,-0.11809205153238529,-2.4432170719263717,-0.39890003180887756,0,0,6
1479653460,0.0,42.33167535629341,-71.109927613354401,12.829272327606303,0.0,5.4233568658627091e-06,3.2618003193172118e-05,1.5391700697039466e-05,2.2785665272499649e-05,2.8306838645327869e-05,1.7917594692280547,-0.11808563174299465,-2.4430703173330435,-0.39889428754299899,0,0,6
1479653490,0.0,42.33167535629341,-71.109927613354401,12.829272327606303,0.0,4.1267063718203651e-06,2.596355272890219e-05,1.52058923097478e-05,1.6756160325939414e-05,2.3993478751547445e-05,1.945910149055313,-0.11810118569732699,-2.4426501450757088,-0.39890863348880468,0,0,6
1479653520,0.0,42.33167535629341,-71.109927613354401,12.829272327606303,0.0,4.8916002821436609e-06,2.596355272890219e-05,1.350620665058237e-05,1.666325613229358e-05,2.5038346621977113e-05,1.945910149055313,-0.11814781318196729,-2.4425774217581067,-0.3989545666008637,0,0,6
1479653550,0.0,42.33167535629341,-71.109927613354401,12.829272327606303,0.0,4.0369078665271702e-06,2.5344137652679691e-05,1.350620665058237e-05,1.896168933892297e-05,2.4078227119191329e-05,1.7917594692280547,-0.11812600129921401,-2.4425401120368684,-0.39894358794351664,0,0,6
1479653580,0.0,42.33167535629341,-71.109927613354401,12.829272327606303,0.0,6.4330075860559637e-06,3.2685071722694301e-05,1.0415037281204641e-05,1.6943831473378102e-05,2.2168929625503995e-05,1.945910149055313,-0.11816281737125256,-2.4426225734488831,-0.39898893319739842,0,0,6
1479653610,0.0,42.33167535629341,-71.109927613354401,13.13538457821921,0.0,7.0257982367935374e-06,3.2685071722694301e-05,1.0415037281204641e-05,1.3551049108277221e-05,2.1926134494365148e-05,1.945910149055313,-0.11819588317952086,-2.4429164360652296,-0.3990527733408834,0,0,6
1479653640,0.0,42.33167535629341,-71.109927613354401,13.13538457821921,0.0,4.2704816980742445e-06,2.5713401961129413e-05,1.2067931121483141e-05,2.1284016259214462e-05,2.2787149622808288e-05,1.7917594692280547,-0.11819118504299668,-2.4431454471296217,-0.39900720490227853,0,0,6
1479653670,0.0,42.33167535629341,-71.109927613354401,12.829272327606303,0.0,3.5398353402676906e-06,2.7453061581066482e-05,1.7220307439038709e-05,1.8948903260935386e-05,2.4312671726638641e-05,1.945910149055313,-0.118231668739385,-2.4430319999721974,-0.3989682343367974,0,0,6
1479653700,0.0,42.33167535629341,-71.109927613354401,15.278170332509552,0.0,5.2943208207995771e-06,3.0186493957146716e-05,1.4782793988128857e-05,1.7609135486826274e-05,2.5824859638583904e-05,1.945910149055313,-0.11823251004874627,-2.4429838998700673,-0.39893794321883064,0,0,6
1479653730,0.0,42.33167535629341,-71.109927613354401,17.727068337412806,0.0,5.9008041905165635e-06,3.0186493957146716e-05,1.2214049974598944e-05,1.6065266142323755e-05,2.3256849922630754e-05,1.7917594692280547,-0.11828890479262884,-2.4430019430373284,-0.39894668250827664,0,0,6
1479653760,0.0,42.33167535629341,-71.109927613354401,15.278170332509555,0.0,8.4690871578728698e-06,3.4986108776520614e-05,1.1425525557498273e-05,1.6063366289753698e-05,2.7286751134367435e-05,1.945910149055313,-0.11827847931192058,-2.443149655562757,-0.39900689195786915,0,0,6
1479653790,0.0,42.33167535629341,-71.109927613354401,12.829272327606303,0.0,7.6815164397658314e-06,3.4986108776520614e-05,1.1425525557498273e-05,1.9415298180620775e-05,2.8886049838920826e-05,1.945910149055313,-0.11823879329875428,-2.4431472915603569,-0.3989851701126077,0,0,6
1479653820,0.0,42.33167535629341,-71.109927613354401,12.829272327606303,0.0,2.9999794322316576e-06,2.4864595624041202e-05,1.6955794648635339e-05,1.8123685078752878e-05,2.3215153089474556e-05,1.7917594692280547,-0.11823176925700284,-2.44307779685218,-0.39891699470459763,0,0,6
1479653850,0.0,42.33167535629341,-71.109927613354401,12.829272327606303,0.0,4.135826510993607e-06,2.6460729435571126e-05,1.4485370715260265e-05,1.8660073182835518e-05,2.4754106535288631e-05,1.945910149055313,-0.11816662097155257,-2.443074827692473,-0.39896096261407871,0,0,6
1479653880,0.0,42.33167535629341,-71.109927613354401,12.829272327606303,0.0,6.1415693038564273e-06,3.014279693814418e-05,1.2750346623960276e-05,1.7424861216147978e-05,2.6362382402470942e-05,1.945910149055313,-0.11819206098786071,-2.4428516297362859,-0.39897602331578846,0,0,6
1479653910,0.0,42.33167535629341,-71.109927613354401,12.829272327606303,0.0,5.6393992175372084e-06,3.014279693814418e-05,1.2750346623960276e-05,1.8641953216995198e-05,2.5598984320870527e-05,1.7917594692280547,-0.11822333025365066,-2.4431085306112768,-0.39890365021041818,0,0,6
1479653940,0.0,42.33167535629341,-71.109927613354401,12.829272327606303,0.0,5.2654475943311341e-06,2.5776353946243159e-05,9.7664308888104594e-06,1.5584004679143085e-05,2.2330904560564559e-05,1.945910149055313,-0.11822772551913373,-2.4436661306722671,-0.39885963306625882,0,0,6
1479653970,0.0,42.33167535629341,-71.109927613354401,12.829272327606303,0.0,5.8034306574538021e-06,2.5776353946243159e-05,9.7664308888104594e-06,1.3033975740210271e-05,2.2911558185751694e-05,1.945910149055313,-0.11820223762806401,-2.4436948174125015,-0.39883806360042001,0,0,6
1479654000,0.0,42.33167535629341,-71.109927613354401,12.829272327606303,0.0,6.0276551383774425e-06,3.2209364566117898e-05,1.273655376287487e-05,1.8668299130433265e-05,2.4119020359391298e-05,1.7917594692280547,-0.1182417725011195,-2.4436292504187347,-0.39884773974320958,0,0,6
1479654030,0.0,42.33167535629341,-71.109927613354401,12.829272327606303,0.0,5.8794579738910669e-06,3.2209364566117898e-05,1.5525440264979199e-05,1.7441384972282257e-05,2.6381951411310937e-05,1.945910149055313,-0.11832025952198401,-2.4438847171281575,-0.39885077923108236,0,0,6
1479654060,0.0,42.33167535629341,-71.109927613354401,12.829272327606303,0.0,5.5928016054885896e-06,3.0861080308428725e-05,1.5525440264979199e-05,1.7215268443457893e-05,2.3978341696560091e-05,1.945910149055313,-0.1182899499080583,-2.4436311812045171,-0.39884212269303188,0,0,6
1479654090,0.0,42.33167535629341,-71.109927613354401,12.829272327606303,0.0,1.0645395904629491e-05,4.4220978336460171e-05,1.2354843441764362e-05,1.7578968613340939e-05,2.814470494543828e-05,1.7917594692280547,-0.11829156749139234,-2.4427992280445614,-0.398804314451145,0,0,6
1479654120,0.0,42.33167535629341,-71.109927613354401,12.829272327606303,0.0,9.7721758969172037e-06,4.4220978336460171e-05,1.2354843441764362e-05,1.6309180412033016e-05,2.0173690384164494e-05,1.945910149055313,-0.11835958633065884,-2.4432825548243966,-0.39879095588714369,0,0,6
1479654150,0.0,42.33167535629341,-71.109927613354401,12.829272327606303,0.0,2.8116909653705141e-06,2.035180191186205e-05,1.247857061575668e-05,1.4182862677504455e-05,1.8777637152399465e-05,1.945910149055313,-0.11838686094955515,-2.4438784359668242,-0.39882579021517511,0,0,6
1479654180,0.0,42.33167535629341,-71.109927613354401,12.829272327606303,0.0,0.00034979154963295472,0.00095308696963327375,1.0224462309098455e-05,1.2839970957053271e-05,1.9663641626300516e-05,1.7917594692280547,-0.11840035577197751,-2.4441848917788049,-0.39886822657529969,0,0,6
1479654210,0.0,42.33167535629341,-71.109927613354401,12.829272327606303,0.0,0.00032708918198173841,0.00095308696963327375,1.0224462309098455e-05,1.5828771823475898e-05,2.4042781165166991e-05,1.945910149055313,-0.11851902990925871,-2.4447316835457911,-0.39885237139882468,0,0,6
1479654240,0.0,42.33167535629341,-71.109927613354401,12.829272327606303,0.0,4.0662405923795089e-06,2.6799059383421956e-05,1.2352061425930301e-05,1.8206695900735137e-05,2.1066074981337096e-05,1.945910149055313,-0.11858202473721757,-2.4452846581261545,-0.39877507161901271,0,0,6
1479654270,0.0,42.33167535629341,-71.109927613354401,12.829272327606303,0.0,3.5528458380233948e-06,2.1280998274594969e-05,1.1008689476222084e-05,1.681638982588183e-05,2.0668663277722628e-05,1.7917594692280547,-0.11855744665648632,-2.4453252308418518,-0.39874258485716102,0,0,6
1479654300,0.0,42.33167535629341,-71.109927613354401,16.502619334961178,0.0,4.6176885552595512e-06,2.4946954308223876e-05,1.1008689476222084e-05,1.7978365950124248e-05,2.4003245764319594e-05,1.945910149055313,-0.11857204943057401,-2.4450314912843214,-0.3988129567234015,0,0,6
1479654330,0.0,42.33167535629341,-71.109927613354401,27.019320186681707,0.0,2.0360424160215254e-06,2.5808078033910735e-05,1.9237515325888982e-05,2.4003245764319594e-05,2.5133405378408303e-05,1.945910149055313,-0.11856031232521215,-2.4452599270686628,-0.39884260236241625,0,0,6
1479654360,0.0,42.33167535629341,-71.109927613354401,26.713207936068805,0.0,5.9759098553152061e-06,2.6876930388869691e-05,1.1209377860837333e-05,1.7721030875948142e-05,2.5686022637581233e-05,1.7917594692280547,-0.11852013086397734,-2.4455877816731948,-0.39885986992492245,0,0,6
1479654390,0.0,42.33167535629341,-71.109927613354401,16.196507084348276,0.0,6.3320932377003902e-06,3.0181839232595992e-05,1.1209377860837333e-05,1.5497506701637853e-05,2.3053646776757844e-05,1.945910149055313,-0.1185600362728633,-2.4455140855976003,-0.39883456249876259,0,0,6
1479654420,0.0,42.33167535629341,-71.109927613354401,15.278170332509553,0.0,5.1064995165991467e-06,3.0181839232595992e-05,1.5561763809803277e-05,1.7420180591732804e-05,2.417632356786605e-05,1.945910149055313,-0.1185734762611443,-2.4455630022136843,-0.39885564494784426,0,0,6
1479654450,0.0,42.33167535629341,-71.109927613354401,17.420956086799901,0.0,2.7963110780716437e-06,2.7023142468885388e-05,1.8522311993896934e-05,1.9413110021205998e-05,2.1684552121385697e-05,1.7917594692280547,-0.11858587286148685,-2.4456828514904698,-0.39889174855430154,0,0,6
1479654480,0.0,42.33167535629341,-71.109927613354401,14.972058081896648,0.0,8.2399812701397595e-06,4.0293530454432328e-05,1.158855463533358e-05,1.8092844460812348e-05,2.1557268361081279e-05,1.945910149055313,-0.11861643649100871,-2.4458499362314727,-0.39888660178895757,0,0,6
1479654510,0.0,42.33167535629341,-71.109927613354401,12.829272327606303,0.0,8.9039081765324843e-06,4.0293530454432328e-05,1.158855463533358e-05,1.4877205475823232e-05,2.2307002836552802e-05,1.945910149055313,-0.11861329459250157,-2.4461671712778346,-0.39892378273942619,0,0,6
1479654540,0.0,42.33167535629341,-71.109927613354401,12.829272327606303,0.0,4.2965372196353178e-06,2.3864428654601913e-05,1.2091034023918701e-05,1.5703505198963625e-05,2.2461834469571466e-05,1.7917594692280547,-0.11861278850139367,-2.4463670797633053,-0.39895773793797679,0,0,6
1479654570,0.0,42.33167535629341,-71.109927613354401,12.829272327606303,0.0,4.3395667669533642e-06,2.8397151657208221e-05,1.5053589819046461e-05,1.7839873429531801e-05,2.4149103730936156e-05,1.945910149055313,-0.11864608732705799,-2.4464699633744718,-0.39893817716107921,0,0,6
1479654600,0.0,42.33167535629341,-71.109927613354401,12.829272327606303,0.0,4.7861257253003543e-06,2.8397151657208221e-05,1.1978703983379852e-05,1.836334517047808e-05,2.2665256400726379e-05,1.945910149055313,-0.11866583340019229,-2.4466263491403404,-0.39894047472626604,0,0,6
1479654630,0.0,42.33167535629341,-71.109927613354401,12.829272327606303,0.0,2.8473533904213609e-06,2.089673399418236e-05,1.1978703983379852e-05,1.6325590812349582e-05,1.9109168661660033e-05,1.7917594692280547,-0.11865677625740001,-2.4469152565861303,-0.39899096963894154,0,0,6
1479654660,0.0,42.33167535629341,-71.109927613354401,19.563741841090245,0.0,3.3942906435408923e-06,2.4791433124223783e-05,1.3413233168882331e-05,1.5638408896710059e-05,1.8256771368689578e-05,1.945910149055313,-0.118648706499624,-2.4468486322841931,-0.39900207154358597,0,0,6
1479654690,0.0,42.33167535629341,-71.109927613354401,19.563741841090245,0.0,4.5262529647236857e-06,2.4791433124223783e-05,1.0855192117561575e-05,1.433930651659067e-05,1.9601238871007278e-05,1.945910149055313,-0.11867763603787143,-2.4467125337143316,-0.39900105413840531,0,0,6
1479654720,0.0,42.33167535629341,-71.109927613354401,12.829272327606303,0.0,5.3283185495283967e-06,2.4182977063229423e-05,9.8849772826339472e-06,1.23134850933655e-05,2.1314361564505521e-05,1.7917594692280547,-0.11869376697749266,-2.4468038921756765,-0.39907165858497651,0,0,6
1479654750,0.0,42.33167535629341,-71.109927613354401,12.829272327606303,0.0,4.3341147203675595e-06,2.4182977063229423e-05,9.8849772826339472e-06,1.5892118230225079e-05,2.035485180464095e-05,1.945910149055313,-0.11871789645792442,-2.4471955526595757,-0.39913335088465418,0,0,6
1479654780,0.0,42.33167535629341,-71.109927613354401,12.829272327606303,0.0,3.6119505471298855e-06,2.3182033216252302e-05,1.2707818560418519e-05,1.5892118230225079e-05,2.1695655460075239e-05,1.945910149055313,-0.11872559737083559,-2.4476592059964872,-0.39914178287825181,0,0,6
1479654810,0.0,42.33167535629341,-71.109927613354401,12.829272327606303,0.0,3.4192319893676141e-06,2.3182033216252302e-05,1.2707818560418519e-05,1.6444049627984946e-05,2.0254500619167126e-05,1.7917594692280547,-0.11871577219263935,-2.4480808982563595,-0.3991240296176593,0,0,6
1479654840,0.0,42.33167535629341,-71.109927613354401,12.829272327606303,0.0,3.0899595943799343e-06,2.2503259346511566e-05,1.2322971318420618e-05,1.665091369007355e-05,1.9164551231567646e-05,1.945910149055313,-0.11872246220074513,-2.447882696969323,-0.39914247737328473,0,0,6
1479654870,0.0,42.33167535629341,-71.109927613354401,18.33929283863862,0.0,4.3053571779136354e-06,2.5948056756278581e-05,1.2322971318420618e-05,1.6122433066557549e-05,2.1812429866897748e-05,1.945910149055313,-0.11866479414710415,-2.4476373371764373,-0.39915466696760055,0,0,6
1479654900,0.0,42.33167535629341,-71.109927613354401,27.522660357025817,0.0,3.4014064339075764e-06,2.5948056756278581e-05,1.5157976931026497e-05,1.7236413502734778e-05,1.9411498912149801e-05,1.7917594692280547,-0.11865142502346999,-2.4478094553895051,-0.39911071488706024,0,0,6
1479654930,0.0,42.33167535629341,-71.109927613354401,27.243769189133339,0.0,3.413709459939466e-06,2.256209749204231e-05,1.1076349344840367e-05,1.6528616618563672e-05,1.9959746817901808e-05,1.945910149055313,-0.1186627017106483,-2.4479385626787717,-0.39911818928360476,0,0,6
1479654960,0.0,42.33167535629341,-71.109927613354401,18.060401670746142,0.0,4.8819212045762738e-06,2.3690090127715524e-05,1.1076349344840367e-05,1.4140163489340975e-05,2.2821548859110153e-05,1.945910149055313,-0.11865061578179528,-2.4480407911988915,-0.39907002116923895,0,0,6
1479654990,0.0,42.33167535629341,-71.109927613354401,15.278170332509555,0.0,1.919051164581395e-05,6.8147423311558966e-05,1.1156671485454962e-05,1.4762460924830594e-05,2.3537817652331142e-05,1.7917594692280547,-0.11869728030877784,-2.4478652712647282,-0.39903476196009047,0,0,6
1479655020,0.0,42.33167535629341,-71.109927613354401,15.278170332509555,0.0,1.8035991047057515e-05,6.8147423311558966e-05,1.1156671485454962e-05,1.892396816981676e-05,3.7064576605854029e-05,1.945910149055313,-0.11869928207890214,-2.4475590974050325,-0.39910434478584911,0,0,6
1479655050,0.0,42.33167535629341,-71.109927613354401,13.441496828832117,0.0,1.2224740800046321e-05,4.2419798494742862e-05,9.4005861242238915e-06,1.892396816981676e-05,4.0247452502347634e-05,1.945910149055313,-0.118660270676289,-2.4476359182306182,-0.39912544000015643,0,0,6
1479655080,0.0,42.33167535629341,-71.109927613354401,13.441496828832117,0.0,9.7513741662276095e-05,0.00029703835983233972,9.4005861242238915e-06,3.7089201049663947e-05,6.7949497805808994e-05,1.7917594692280547,-0.13085186330020518,-2.4724491643352233,-0.38106440124533386,0,0,6
1479655110,0.0,42.33167535629341,-71.109927613354401,12.829272327606303,0.0,9.5729943253962735e-05,0.00029703835983233972,1.1030663330304121e-05,1.6821201700250408e-05,5.6551347757052302e-05,1.945910149055313,-0.1527924129669227,-2.498963498479124,-0.35868825229432327,0,0,6
1479655140,0.0,42.33167535629341,-71.109927613354401,12.829272327606303,0.0,4.123654377534892e-06,2.1823198099350252e-05,1.1030663330304121e-05,1.2340735282639701e-05,1.9543317746325886e-05,1.945910149055313,-0.16005874957701385,-2.5001672142733042,-0.3554659188291841,0,0,6
1479655170,0.0,42.33167535629341,-71.109927613354401,12.829272327606303,0.0,2.8889211601669863e-06,1.9111334735885596e-05,1.0190549273613594e-05,1.1385238807161232e-05,1.3292502940176323e-05,1.7917594692280547,-0.16005019399434767,-2.5000339037249333,-0.35546547025503816,0,0,6
1479655200,0.0,42.33167535629341,-71.109927613354401,12.829272327606303,0.0,2.2942459918066821e-06,1.712038774180576e-05,9.5625838137028927e-06,1.1123516667169487e-05,1.3011703218940105e-05,1.945910149055313,-0.16006056555616716,-2.5001693764090076,-0.35544995633807697,0,0,6
1479655230,0.0,42.33167535629341,-71.109927613354401,13.441496828832117,0.0,3.2756230364235035e-06,1.927303569408294e-05,9.5625838137028927e-06,1.1755544216666129e-05,1.6976136119317733e-05,1.945910149055313,-0.16005316380541953,-2.50003434792368,-0.3554704287535822,0,0,6
1479655260,0.0,42.33167535629341,-71.109927613354401,13.441496828832117,0.0,7.3241078808592333e-06,3.1192951440027867e-05,7.7946825138589707e-06,1.2792821152299056e-05,1.8662747894769632e-05,1.7917594692280547,-0.16007097248407418,-2.499660046319355,-0.35546130395785164,0,0,6
1479655290,0.0,42.33167535629341,-71.109927613354401,12.829272327606303,0.0,7.1867115769328262e-06,3.1192951440027867e-05,7.7946825138589707e-06,1.11501357739133e-05,1.7365619234621303e-05,1.945910149055313,-0.16007356928859215,-2.499408201445477,-0.35540940244080366,0,0,6
1479655320,0.0,42.33167535629341,-71.109927613354401,12.829272327606303,0.0,5.641800481866698e-06,2.5528601829796241e-05,9.5885240549175781e-06,1.11501357739133e-05,1.9592905203553747e-05,1.945910149055313,-0.16006476717439774,-2.4993585031036312,-0.35541769578329802,0,0,6
1479655350,0.0,42.33167535629341,-71.109927613354401,13.13538457821921,0.0,1.9208334613244735e-05,6.655549477377195e-05,9.5885240549175781e-06,1.4068584251451794e-05,2.4461962229657303e-05,1.7917594692280547,-0.16019503335682916,-2.4997892872184484,-0.35536731926893789,0,0,6
1479655380,0.0,42.33167535629341,-71.109927613354401,13.13538457821921,0.0,1.900454389345584e-05,6.655549477377195e-05,7.9854308092146086e-06,1.2896462504119126e-05,2.2010728395884062e-05,1.945910149055313,-0.16051389836961902,-2.5000936581057145,-0.35527932386782518,0,0,6
1479655410,0.0,42.33167535629341,-71.109927613354401,12.829272327606303,0.0,1.4327231850469972e-05,5.2118310077711464e-05,7.9854308092146086e-06,1.1852993659832358e-05,2.6107849471684027e-05,1.945910149055313,-0.16067044304101,-2.5000043433760544,-0.35526456390591116,0,0,6
1479655440,0.0,42.33167535629341,-71.109927613354401,17.944836999176218,0.0,1.5201988073832543e-05,5.2118310077711464e-05,6.0507050229221065e-06,1.1897424639853945e-05,2.0437523875420418e-05,1.7917594692280547,-0.16076797251026784,-2.5000645191434017,-0.35517767171016695,0,0,6
1479655470,0.0,42.33167535629341,-71.109927613354401,27.794871184230086,0.0,3.8699628992931848e-06,1.4206273015048824e-05,3.0056589196587795e-06,8.619743782985436e-06,1.3051072386343602e-05,1.945910149055313,-0.16069986041113643,-2.5003229327436229,-0.35498284308781136,0,0,6
1479655500,0.0,42.33167535629341,-71.109927613354401,23.597643264498888,0.0,3.5806274374163696e-06,1.5112258953854857e-05,3.0056589196587795e-06,1.0165535412346967e-05,1.2489122773764586e-05,1.945910149055313,-0.16059906021362472,-2.5006067134427368,-0.35494910935497376,0,0,6
1479655530,0.0,42.33167535629341,-71.109927613354401,13.747609079445022,0.0,1.7844707284908172e-06,1.5112258953854857e-05,9.1422882816451696e-06,1.169324027741875e-05,1.2858697364344281e-05,1.7917594692280547,-0.16061329282371703,-2.5010740694534017,-0.3549562306972725,0,0,6
1479655560,0.0,42.33167535629341,-71.109927613354401,19.114843836186992,0.0,3.5375687144221875e-06,2.1212771183409035e-05,9.2412859969338263e-06,1.1418787672612791e-05,1.292313140361218e-05,1.945910149055313,-0.16062008007529344,-2.5012419312593073,-0.35486443553010033,0,0,6
1479655590,0.0,42.33167535629341,-71.109927613354401,19.420956086799901,0.0,4.7286706610500617e-06,2.1212771183409035e-05,7.1398065374259103e-06,9.0598370835062089e-06,1.5185978706354745e-05,1.945910149055313,-0.1606067646193837,-2.5010496175602084,-0.35488850337698913,0,0,6
1479655620,0.0,42.33167535629341,-71.109927613354401,13.13538457821921,0.0,4.2308315580160815e-06,1.7931943454222951e-05,7.1398065374259103e-06,9.200011033915755e-06,1.6885135158863324e-05,1.7917594692280547,-0.16060518492761869,-2.5009072392542451,-0.35493324631522305,0,0,6
1479655650,0.0,42.33167535629341,-71.109927613354401,12.829272327606303,0.0,2.5799776282330637e-06,1.7931943454222951e-05,1.0164879625427248e-05,1.1860289570836224e-05,1.5526398845762102e-05,1.945910149055313,-0.16061028382555101,-2.5010145348762669,-0.35494064530072561,0,0,6
1479655680,0.0,42.33167535629341,-71.109927613354401,12.829272327606303,0.0,1.7188542676326747e-06,1.6448230076506572e-05,1.080453537897486e-05,1.1860289570836224e-05,1.3612807382850383e-05,1.945910149055313,-0.16064270236979414,-2.5010939527581084,-0.35497090818294802,0,0,6
1479655710,0.0,42.33167535629341,-71.109927613354401,12.829272327606303,0.0,2.9586851190830821e-06,1.9391573905423586e-05,1.080453537897486e-05,1.3528601197683267e-05,1.7772281285897971e-05,1.7917594692280547,-0.16072012172434849,-2.5013533179624634,-0.3550086379944975,0,0,6
1479655740,0.0,42.33167535629341,-71.109927613354401,12.829272327606303,0.0,3.1241546300472556e-06,2.2233622599438007e-05,1.1865913326274064e-05,1.5315901218500012e-05,1.8862180465865643e-05,1.945910149055313,-0.16071175318592859,-2.501772712573588,-0.35495883169962889,0,0,6
1479655770,0.0,42.33167535629341,-71.109927613354401,12.829272327606303,0.0,5.7429178890790024e-06,2.8229523775531916e-05,1.1865913326274064e-05,1.554491046792874e-05,2.4542140446173466e-05,1.945910149055313,-0.16119087980478083,-2.5021493686803602,-0.35538124521085684,0,0,6
1479655800,0.0,42.33167535629341,-71.109927613354401,12.829272327606303,0.0,6.8256356127416539e-06,2.8229523775531916e-05,1.0600086596550143e-05,1.3612027872769867e-05,2.5644174896839965e-05,1.7917594692280547,-0.16312496168412535,-2.5030884807508933,-0.35702623829123731,0,0,6
1479655830,0.0,42.33167535629341,-71.109927613354401,12.829272327606303,0.0,2.2643459921083415e-06,1.8330872813377128e-05,1.0600086596550143e-05,1.3858936180765517e-05,1.5965001903920354e-05,1.945910149055313,-0.1643963499891557,-2.5033803519510727,-0.35801135660768374,0,0,6
1479655860,0.0,42.33167535629341,-71.109927613354401,12.829272327606303,0.0,1.6789797074261071e-05,6.2452078683689533e-05,1.0743510840095728e-05,1.4192577109859759e-05,1.7435943513593895e-05,1.945910149055313,-0.16443191189376427,-2.5029193215853942,-0.3579847103193407,0,0,6
1479655890,0.0,42.33167535629341,-71.109927613354401,12.829272327606303,0.0,3.2446387981462008e-05,0.00010184737690610465,1.0743510840095728e-05,2.3404078583984397e-05,7.1628494928208781e-05,1.7917594692280547,-0.16445367534466049,-2.502822509138833,-0.35793509786883049,0,0,6
1479655920,0.0,42.33167535629341,-71.109927613354401,12.829272327606303,0.0,3.5363303854233563e-05,0.00010184737690610465,1.1981683094709899e-06,1.3459427520630779e-05,6.4358101655725188e-05,1.945910149055313,-0.16470848242587771,-2.5033719842315727,-0.35795518980725072,0,0,6
1479655950,0.0,42.33167535629341,-71.109927613354401,18.645405089251529,0.0,0.00018606414117858054,0.00054391846634404108,1.1981683094709899e-06,1.2936106569141157e-05,1.606382575108142e-05,1.945910149055313,-0.12653347529802347,-2.5105744209646046,-0.27613222477485017,0,0,6
1479655980,2.5319483870904373,42.33167391320908,-71.109927015445308,20.081657264729188,0.04219913978484062,0.016332032173372202,0.043944794699550163,1.2154803816208648e-05,1.4736506168921887e-05,0.00041665169230628948,1.710560083757924,-0.051150452136352137,-2.4731598657497735,-0.11227323497882824,0,0,6
1479656010,2.5319483870904373,42.331652266944133,-71.109918046808914,12.850888339280807,0.04219913978484062,0.063559560209225555,0.18375507766522162,1.0537986706376248e-05,1.3001569823780429e-05,0.022025937018985763,1.8056165767134955,0.30171885771436641,-1.5443084239985356,-0.1867921613972256,0,0,6
1479656040,0.0,42.331632063763514,-71.1099096760816,10.0,0.0,0.06386297465038876,0.18375507766522162,1.0537986706376248e-05,6.0463837126357302e-05,0.0030693463328761127,1.8675843750169279,1.1086690002819675,-0.19586529696537422,-0.66109296283647478,0,0,6
1479656070,5.589148468900868,42.331626556853131,-71.109899785435857,11.503502952276582,0.09315247448168114,0.02172147460658012,0.059842288198823118,0.00015069828329729713,0.00070623741354717011,0.0032637702350631621,1.710560083757924,1.6595609263798083,0.77168656505957856,-1.1095721392128663,0,0,6
1479656100,5.589148468900868,42.331612789577186,-71.109875058821501,15.26226033296803,0.09315247448168114,0.020843114270697863,0.059842288198823118,7.4064378388421042e-06,9.3509332851355136e-05,0.00055601511889605282,1.8675843750169276,0.6652763178835629,-0.66242177364364907,-0.72618833061441168,0,0,6
1479656130,0.0,42.33160452921161,-71.109860222852902,17.517514761382902,0.0,0.00022562293441346067,0.00065559453651386286,2.281056374178765e-06,2.1863410122127621e-05,0.00028169925091440189,1.945910149055313,-0.14506371625679532,-2.1208495594564893,-0.36024773246477443,0,0,6
1479656160,0.0,42.33160452921161,-71.109860222852902,17.517514761382902,0.0,5.8988393429070774e-05,0.00018152078839630401,2.281056374178765e-06,2.3637075258596478e-05,8.001040755167752e-05,1.7917594692280547,-0.38577805946968308,-2.5893667705497618,-0.17994472522362234,0,0,6
1479656190,0.0,42.33160452921161,-71.109860222852902,17.517514761382902,0.0,0.014402196320870172,0.041888143592841647,1.8309008670527756e-05,4.8883258909067531e-05,0.0017677580267541739,1.8675843750169276,0.83415645516483483,-0.6084083988880159,-0.74718239734920999,0,0,6
1479656220,2.1093031186651223,42.331602270288705,-71.10986125662096,17.298318345888912,0.03515505197775204,0.23439040760901494,0.68317783151810785,0.0011137283695055651,0.0017677580267541739,0.031367900957535583,1.8640435797520258,1.5716542237341358,0.52357138208847576,-1.1915904696492834,0,0,6
1479656250,23.416598911552544,42.331580334848105,-71.109812781280951,14.94506628671903,0.39027664852587574,0.46929076693831961,1.372752593906972,0.019631787447498519,0.085281655185328736,0.66977687649630602,1.7328679513998633,1.2968064328369706,0.53994503640722502,-1.1529479883865486,0,0,6
1479656280,30.462023611625177,42.331442268837563,-71.109703166942211,11.405505321521566,0.5077003935270863,0.43985497305840893,1.372752593906972,0.0012718891308788961,0.11218380557875707,0.47067768725958414,1.9459101490553139,1.3279856894814188,1.6193694861618388,-1.1063776446082769,0,3,8
1479656310,25.762456402477827,42.331161025950998,-71.109634210421802,10.0,0.42937427337463047,0.15585492512853275,0.45265858185293062,0.0012718891308788961,0.11218380557875707,0.34813835083674483,1.9459101490553139,1.757289613516871,0.063776155246390492,-1.0577469366666512,0,3,8
1479656340,67.96493567592312,42.330915225942,-71.109452672368946,10.09683121211779,1.132748927932052,0.39527368700043547,1.2166724105719904,0.27244150618578977,0.36862754933804848,0.99916047102622096,1.791759469228055,2.3781180613774118,-2.1198495831032984,-0.88138846859148112,0,3,8
1479656370,100.35830186578661,42.330789606359168,-71.109033061723323,10.552796116626388,1.6726383644297769,0.39954978310055905,1.2166724105719904,0.18263626334551403,0.28853941466900135,0.99272381564316525,1.9459101490553139,1.1553029635177043,-1.4861023338038426,-1.0589170730954494,0,3,8
1479656400,36.15963994263298,42.330566054016664,-71.108743676516326,10.455964904508598,0.6026606657105497,0.24827355289556552,0.80411986386901291,0.18263626334551403,0.22474828471431543,0.70536107242124324,1.9459101490553139,-0.35133815737341784,-1.0352005040363925,-1.1552803674862975,0,3,8
1479656430,36.79763319644218,42.330187343566067,-71.108761166754292,10.0,0.6132938866073696,0.20800218005689103,0.75409572601168806,0.075256336830517509,0.25554655808170246,0.41483873182717262,1.791759469228055,-0.45196953612612023,0.020456162172781723,-1.156495623722569,0,3,8
1479656460,26.539963422284114,42.329811408223897,-71.10879525595449,10.0,0.44233272370473525,0.99395095400037203,2.8673976339858562,0.075256336830517509,0.21562064709811479,1.2278397719994012,1.9459101490553139,-0.02991722927801372,0.68115097840003591,-1.3583258240435785,0,3,8
1479656490,45.203301531886005,42.329454564761683,-71.108687091685013,10.0,0.7533883588647667,1.014165280026343,2.8673976339858562,0.11632314090827622,0.15703847088512321,1.2278397719994012,1.9459101490553139,-0.24514416739186262,0.63546402884279751,-1.3658976316995699,0,3,8
1479656520,51.95719172060579,42.329153435111365,-71.108470151267113,10.0,0.8659531953434298,0.063873255573496629,0.17949622479669927,0.00099450910181669979,0.064958131891569404,0.15948767936255198,1.791759469228055,0.40084452421138334,0.93429024176072062,-1.2651463522983875,0,3,8
1479656550,17.082296972570305,42.329006844006784,-71.108327762290003,10.0,0.2847049495428384,0.17152684802521836,0.51733689861465348,0.00043861049596493598,0.0012625764019058988,0.11197859302240842,1.8043716191528454,0.29507495818175877,-0.50582715706285819,-0.61724626316408304,0,3,8
1479656580,8.222817565458774,42.328983851049379,-71.108326358321222,10.0,0.13704695942431291,0.17936491550533298,0.51733689861465348,3.3575714893408959e-05,0.00055929880632739782,0.072654857487729707,1.8056165767134953,-0.52160539979861398,-2.0428080375602202,-0.0051867113006778499,0,3,8
1479656610,33.39720465899999,42.328997880489347,-71.108348357964388,10.0,0.5566200776499998,0.01417848767131509,0.038400756965347671,3.3575714893408959e-05,8.5562628107627696e-05,0.00081910121055307251,1.710560083757924,-0.74776805440220973,-2.1969207908015052,0.2229273140818617,0,3,8
1479656640,111.20262404047337,42.329623369652055,-71.108545076899034,10.0,1.8533770673412229,0.018007375187746481,0.042956655745505563,4.7761609310622775e-05,0.00083361917030372562,0.034768436714895545,1.7347645210257752,-0.80657497154753133,-1.4377183915807479,0.16994849230381345,0,3,8
1479656670,158.27400843507317,42.331120207950498,-71.109154279284667,10.0,2.637900140584553,0.016339484413865762,0.048664381980708403,0.0027375796277189753,0.0093374230276700044,0.033414065854522362,1.8937882323911377,-0.68623912115342256,-1.7355463081406828,0.096027464847216568,0,3,8
1479656700,84.82266333519568,42.332435215854751,-71.109573046449611,10.0,1.4137110555865948,0.016282613102696887,0.048664381980708403,3.0973703102970312e-05,7.3290323181636453e-05,0.015794932655660995,1.8640435797520258,-0.62049971336321619,-2.6463899534417075,0.072194382767767684,0,3,8
1479656730,221.53078757434855,42.333012963049015,-71.109353219351249,10.0,3.6921797929058093,0.024857548095003779,0.066936814910911982,1.3327348510969239e-05,3.6078145261840767e-05,0.00079555230033495031,1.710560083757924,-0.68310503602262473,-2.0577916013630553,0.095320756558788314,0,3,8
1479656760,437.1226616917291,42.333295880383822,-71.107694365026333,10.0,7.285377694862151,0.023441589290373602,0.066936814910911982,1.3327348510969239e-05,0.0018977298670938775,0.023211536419022585,1.7770332013812697,-0.71682813919966526,0.78081022351249008,0.11840061639211925,0,3,8
1479656790,330.84001911403595,42.333664044544413,-71.105829805667625,10.0,5.514000318567266,0.011487026607770191,0.036492492266940742,0.00091086035890349296,0.0032270992048155202,0.007567890119170223,1.8562701281920886,-0.80169501451977898,2.3997479997440432,0.1708226040420506,0,3,8
1479656820,268.01139505537407,42.334213681558474,-71.104480595859798,10.0,4.466856584256234,0.0033955188663445201,0.011062718509585841,0.00091086035890349296,0.0016656400649582514,0.0050334949360784798,1.7480673485460896,-0.88677648613479676,2.4607102333188551,0.21687808281181201,0,3,8
1479656850,538.1429296749063,42.334968845632254,-71.102482941067876,10.0,8.969048827915106,0.0034530178598224182,0.011062718509585841,0.00046721543553069798,0.001035967992364306,0.0043758301363891125,1.8842428460867393,-0.86610856976565664,2.395155106285646,0.19842798123294628,0,3,8
1479656880,530.913141277641,42.335871527010902,-71.100036318014475,10.0,8.84855235462735,0.0017777989346181942,0.0054689551523089755,0.00046721543553069798,0.00084808122520309162,0.0034446790922095781,1.8675843750169279,-0.88093094243971237,2.402234322771303,0.20410887210450387,0,3,8
1479656910,407.8244167269551,42.336666229220434,-71.097968913215311,10.0,6.797073612115919,0.0018166003860931709,0.0052375893863688058,0.0007508448454654899,0.00080471091792257219,0.0037912066980777172,1.710560083757924,-0.90795014718027167,2.4458351221711703,0.23520721070930817,0,3,8
1479656940,296.65484403286473,42.337235646827473,-71.096534625693337,10.0,4.944247400547746,0.0022445398542060508,0.0059011602316850417,5.3861648666132172e-05,0.00054718593631108135,0.0033533468208006112,1.8842428460867393,-0.87011508514240599,2.4578283454078331,0.24790932065253785,0,3,8
1479656970,57.39617627710182,42.337564139072896,-71.095816605581973,10.0,0.956602937951697,0.018385256147327431,0.053633355168347802,5.3861648666132172e-05,0.00020873852777883315,0.0036851322434587291,1.8056165767134955,-0.82874611231330941,1.8167605417409713,0.22829289930622237,0,3,8
1479657000,117.42905825648981,42.338314226152235,-71.096213116201142,10.0,1.957150970941497,0.019372554102242562,0.053633355168347802,9.8967895327521286e-05,0.00051442471721618757,0.0039465845969865257,1.7105600837579242,-0.88004113093140324,1.1598273857582684,0.20892476229026982,0,3,8
1479657030,584.2214378672988,42.34023985378586,-71.094674866834438,10.0,9.73702396445498,0.0026354298811746214,0.0094690081133435283,0.00072599881573197486,0.0036964919939430274,0.0059278881983036973,1.8842428460867402,-0.88184359872952167,1.999620819584343,0.21463899341447251,0,3,8
1479657060,482.6376129378325,42.342664215078642,-71.091850129376155,10.0,8.043960215630541,0.010750760357524446,0.033575199517755006,0.00010823160049109527,0.0019319130537922488,0.0084472359838818605,1.8562701281920884,-0.8475703543773373,2.5074643871846982,0.2225201002402768,0,3,8
1479657090,104.17620100133288,42.343949109770477,-71.090891494800857,10.0,1.7362700166888814,0.012254257345414949,0.033575199517755006,1.3167506378293564e-05,0.00016944597001960051,0.0024660724148161967,1.7105600837579242,-0.86435836061435678,2.3983943323703167,0.21589840211100816,0,3,8
1479657120,134.18957212292167,42.343816366558485,-71.090444881135269,10.0,2.236492868715361,0.032643009474352225,0.097319747607823817,1.3167506378293564e-05,0.0018073374425114368,0.0096954356184851195,1.9036483899019156,-0.87419086989056771,1.0038298078045178,0.209275828994156,0,3,8
1479657150,422.11017216203385,42.343234000538942,-71.08892454244355,10.0,7.035169536033897,0.03211339820134039,0.097319747607823817,0.00078878162982217587,0.0048567942383405324,0.0096954356184851195,1.8562701281920884,-0.82896815361518039,0.25553096638696338,0.18934802566066317,0,3,8
1479657180,226.4530216554073,42.342518315702669,-71.087448299170546,10.0,3.7742170275901215,0.0024693527488335123,0.0083040539843083176,0.00078878162982217587,0.005011220205312094,0.0072903059926441183,1.7480673485460896,-0.81413823536564145,-0.32904147598432165,0.1602296555762647,0,3,8
1479657210,209.22688437390048,42.341805967696097,-71.087754492483583,10.0,3.487114739565008,0.0046227186802033603,0.015535120468761992,0.00062435861973620765,0.0036471097763831435,0.007834895236881188,1.8562701281920879,-0.83742409745285651,-1.3960221136582427,0.16917033518671548,0,3,8
1479657240,89.10708305421224,42.341404060340778,-71.088482190484399,10.0,1.4851180509035373,0.015272844812882391,0.045389248638536273,0.00041905386603359414,0.00086601634409756256,0.01086083297653468,1.7770332013812693,-0.18594055775769874,-1.3525057389701858,-0.22557125913434659,0,3,8
1479657270,15.1163152562335,42.341384480635682,-71.088554351075118,11.75,0.25193858760389165,0.10945661221686395,0.2511487297634083,0.00035954337590663751,0.00062758507573252805,0.18492907416769816,1.6609474332869181,1.091583824552518,-0.18036360227837575,-1.0049049402717236,0,3,8
1479657300,60.1316230063922,42.34133370905613,-71.088717526569624,19.368315623018827,1.0021937167732033,0.092023264127838053,0.30585408836285199,0.00035954337590663751,0.22596706413275031,0.25652738368158085,1.8891591637540215,1.3424650401960776,-0.03482382703748562,-1.20725597674193,0,3,8
1479657330,68.81115820062483,42.341150500618248,-71.089052983625891,25.289564452924832,1.1468526366770806,0.27383446434961001,0.96219105327724297,0.22049177892141519,0.25562950826177611,0.52899631492444366,1.9459101490553139,1.0217810133800107,-0.26304883028200643,-1.1991630583103743,0,3,8
1479657360,22.33470554760923,42.340883963082305,-71.08917561785421,25.171248829906006,0.3722450924601538,0.21618410754889528,0.96219105327724297,0.2961744367339274,0.68007366878441777,0.87522989487187042,1.791759469228055,0.67354983245207833,0.11240838525104319,-1.216976058278485,0,3,8
1479657390,24.997818209505134,42.340627942739381,-71.0890719490788,25.0,0.41663030349175223,0.39025979967277802,1.0131507497008241,0.00075077900691806598,0.11450195509953595,0.81360656993831482,1.9459101490553139,0.97949060897915252,-0.41941241793870204,-1.1793242649341162,0,3,8
1479657420,8.183119025516067,42.34050662796232,-71.089034849378365,25.0,0.13638531709193444,0.34319900590184915,1.0131507497008241,0.00075077900691806598,0.01303468886865022,0.11450195509953595,1.8891591637540215,1.3486653951184493,0.32434163777584113,-1.1977467507328377,0,3,8
1479657450,29.87434721854359,42.34045089598964,-71.089010583768697,25.0,0.4979057869757265,0.50375281123069859,1.3931661115298926,0.0066631174648575514,0.010881508139476737,0.19099265949248526,1.7480673485460894,1.4272577320914499,1.6930929786697124,-1.2250974807880866,0,3,8
1479657480,66.10021698737755,42.340286002300999,-71.088779973863709,25.0,1.1016702831229592,0.55297881505542756,1.5851855979377709,0.0066631174648575514,0.30469523730514914,1.0046455191974788,1.9459101490553139,1.7028897016996321,1.7383318147887201,-1.0118238810167732,0,3,8
1479657510,57.675914030146195,42.339969070667721,-71.088512415132584,25.0,0.9612652338357699,0.76896146263861997,2.6678442066299644,0.36302500871188048,0.51666966845758644,1.3740897896370581,1.9459101490553139,2.1163696727925285,1.8701247719397425,-0.88218022562533194,0,3,8
1479657540,46.61668807692525,42.339595429871558,-71.088318705159338,25.0,0.7769448012820875,1.1363174572611148,3.5407900091452968,0.32266677029357366,0.77492374034340772,2.3191525859963482,1.791759469228055,2.3734655159004698,1.9249699659116131,-0.90057342034003174,0,3,8
1479657570,22.365477326861548,42.339334817642673,-71.088173369943263,29.75,0.37275795544769247,1.0508146579879181,3.5407900091452968,0.0077143820457700098,0.7978722471945372,1.4956636213771786,1.9459101490553139,1.8850895417308224,2.0920745386213442,-0.87459078096941378,0,3,8
1479657600,1.8597498086492936,42.339250633299677,-71.088139866079302,46.416666666666664,0.030995830144154895,0.68011797990086098,1.6060080929467668,0.00016601176727553318,0.03718607248323836,1.3615658560854005,1.9459101490553139,1.7587259282711827,1.7902693292308511,-1.0496722669814771,0,3,8
1479657630,62.85316677688237,42.339248651568063,-71.088117486086261,72.208740424266438,1.0475527796147062,0.10743420008696784,0.27904872142666703,0.00016601176727553318,0.023719081136365706,0.19216440160115572,1.7328679513998633,1.8289239269623405,0.88434744794537024,-1.3150122515249334,0,3,8
1479657660,47.618619572306685,42.339190781668989,-71.087932022632486,95.972397337182755,0.7936436595384447,0.0836629676505381,0.23270700180944515,3.3701624819440966e-05,0.0029025346947867052,0.10590520433422494,1.8043716191528449,1.1118940619919564,0.1101723658437886,-1.0471441392554903,0,3,8
1479657690,5.616792785575732,42.339086604370642,-71.087682536687765,65.0,0.09361321309292886,0.048890605789426486,0.14127380769216241,3.3701624819440966e-05,0.00058797282576742934,0.0032831095878553271,1.8675843750169276,0.2949639393300259,-0.68423829393327906,-0.66809954025269802,0,3,8
1479657720,15.515032262687543,42.339071733516839,-71.087649266588542,65.0,0.25858387104479236,0.1089530617042674,0.28389452179947827,0.00033900393883364851,0.00059985686305308577,0.1137549794113817,1.6581101035673729,0.2736117138073238,-0.55475403654509192,-0.69620712946090613,0,3,8
1479657750,26.139803920222395,42.338852019071211,-71.087706125717091,44.405466453144186,0.43566339867037324,0.4461998659555676,1.3889694458562079,0.00052082857983704425,0.083792872497015447,0.28739129364356908,1.9459101490553139,1.1366251948555421,-0.21259375669096389,-1.0068002993470493,0,3,8
1479657780,82.32431130088155,42.338799767909748,-71.087925618525759,29.40228828271152,1.3720718550146924,0.4643712232272113,1.3889694458562079,0.025520761434554642,0.095941672215537621,0.69773023148937319,1.9459101490553139,1.3929472150510374,-0.54806588987792271,-1.1435249462449006,0,3,8
1479657810,59.371959475877446,42.338872813426278,-71.088176520141872,30.166666666666668,0.9895326579312907,1.1164444565597647,3.3605150156320596,0.049818360871599,0.26816776041714108,0.80349758290580531,1.791759469228055,1.2982004867466028,-0.1328560556938998,-1.2798333209955335,0,3,8
1479657840,5.3763583758423685,42.338941243283763,-71.088353149193438,42.0,0.08960597293070614,1.1419273685221889,3.3605150156320596,0.00093715211367254372,0.013628989821442632,0.41736262812998765,1.8891591637540213,1.4268963979193039,0.30438867279563869,-1.3062720126043601,0,3,8
1479657870,11.899844701023435,42.338930934248673,-71.08834354051929,52.910721783661579,0.19833074501705725,0.14260849290864991,0.4213519627997378,0.00093715211367254372,0.0067582503114249157,0.042872415032041304,1.8640435797520256,1.7648601786453255,0.48755675550603678,-1.2753925744461028,0,3,8
1479657900,11.968442098961459,42.338851693269596,-71.088267292712899,85.009098733930784,0.19947403498269098,0.1539084140800609,0.4213519627997378,0.00063274327696607536,0.0033186271497980396,0.017478862223788041,1.7480673485460896,1.6338280619162464,1.3181409437705136,-1.0519768853125206,0,3,8
