TIMESTAMP,DISTANCE,AVG_LAT,AVG_LNG,GPS_ACCURACY,AVG_SPEED_BY_GPS,ACCLERATOR_STD,MAX_ACCLERATOR,MIN_ACCLERATOR,PERCENTILE_25_ACCLERATOR,PERCENTILE_75_ACCLERATOR,ACCLERATOR_ENTROPY,AVG_ROLL,AVG_YAW,AVG_PITCH,WEEK_DAY,LABEL1,LABEL2
1479602760,0.0,42.338834255891499,-71.0882392356189,65.0,0.0,6.3900200437525199e-06,2.8545136090630398e-05,9.2806400992125964e-06,1.4570632526002375e-05,1.8653295861295138e-05,1.6094379124341005,-0.030346107748899211,0.20579288900530446,0.0012224101589235945,6,4,2
1479602790,0.28308860830015137,42.338838050552695,-71.088236678456724,65.0,0.004718143471669189,3.9965455158209594e-06,2.5012366424161162e-05,1.214212145241258e-05,1.4648943690079493e-05,1.9185293690641576e-05,1.945910149055313,-0.037435266603306448,0.28153220711993188,0.00088600183343691234,6,4,2
1479602820,1.9767501442683844,42.338838540851697,-71.088239376551002,65.0,0.032945835737806406,5.0525331690694044e-05,0.000160404673070481,8.8287954011409198e-06,1.3434688153284597e-05,2.2471066404364763e-05,1.945910149055313,-0.037398652992014926,0.281887442709647,0.00089692423332547266,6,4,2
1479602850,3.273996832445287,42.33884647810909,-71.088243841193744,65.0,0.054566613874088114,5.3539392973176362e-05,0.000160404673070481,8.8287954011409198e-06,1.4283265180918242e-05,2.4375432058261028e-05,1.7917594692280547,-0.036646586785586716,0.27841332948646619,0.00078488373900974337,6,4,2
1479602880,1.7683634054030812,42.338859478929677,-71.088248632680575,65.0,0.029472723423384688,6.8006967727174036e-06,2.886144548218795e-05,9.4336631036117125e-06,1.3502147798709842e-05,2.4873300948623021e-05,1.945910149055313,-0.034290942735481847,0.26636119816717835,0.0004233102629042396,6,4,2
1479602910,3.00016958649307,42.338850389333068,-71.08824311401159,65.0,0.05000282644155117,7.708092726609397e-06,2.886144548218795e-05,5.3730754254417315e-06,1.0325631364638058e-05,2.0900117935805869e-05,1.945910149055313,-0.033100740735588156,0.26022550891825652,0.00040441309461854402,6,4,2
1479602940,3.071294617768033,42.338834637079962,-71.088230997208058,65.0,0.051188243629467216,0.00018443332830742044,0.00050866845303266703,5.3730754254417315e-06,1.1539734870125055e-05,2.189325773389136e-05,1.7917594692280547,-0.033062266919740867,0.26050082302285599,0.00046096007486350304,6,4,2
1479602970,1.3204154672511221,42.338826476223751,-71.08822706217552,65.0,0.02200692445418537,0.00017036262464993615,0.00050866845303266703,5.8935245108816552e-06,1.7913771303524335e-05,3.5520012829444333e-05,1.945910149055313,-0.033038592409265773,0.26018108834516068,0.00044494662691252801,6,4,2
1479603000,2.5245606168385293,42.338833342039877,-71.088237515136484,65.0,0.04207601028064215,1.4329912088055056e-05,4.4619469227001161e-05,1.5739380818724412e-06,9.5837889423117517e-06,3.0312727433066864e-05,1.945910149055313,-0.033188031904777197,0.25916727192211686,0.00062366040580743882,6,4,2
1479603030,1.9890013760066914,42.33883006085005,-71.088232649999256,65.0,0.03315002293344486,1.0227859811893333e-05,3.4204898434246222e-05,1.5739380818724412e-06,7.7201734128547773e-06,1.3254961777082281e-05,1.7917594692280547,-0.033794641744036298,0.25590281190967817,0.0012018895500448977,6,4,2
1479603060,3.3320549560193213,42.33883295718072,-71.088226433099038,65.0,0.05553424926698869,7.401360058420197e-05,0.00022517471606904821,7.1958611073188957e-06,1.1245398658283004e-05,1.9521093515338775e-05,1.945910149055313,-0.034240327278795557,0.25344494515255556,0.0017351913117382213,6,4,2
1479603090,2.744326639741032,42.338849704196136,-71.088234506154365,65.0,0.045738777329017204,7.2523213638371584e-05,0.00022517471606904821,8.748443803134074e-06,1.5279956874156869e-05,2.9021183267329002e-05,1.945910149055313,-0.034215856212383058,0.25344733460381313,0.0017649772422604613,6,4,2
1479603120,1.0780574405382806,42.338857634506674,-71.088244447986497,65.0,0.017967624008971343,9.7568314250467091e-06,3.7012413799572635e-05,8.748443803134074e-06,1.5751404026269684e-05,2.959929515350778e-05,1.7917594692280547,-0.034255410898275017,0.25335841768079448,0.0017403654896702367,6,4,2
1479603150,1.1816638770709753,42.338858279899526,-71.088248735278171,65.0,0.019694397951182923,7.6153396325670076e-06,3.3667187921493431e-05,1.2906870423076816e-05,1.5974942271818043e-05,2.9399167888834373e-05,1.945910149055313,-0.03425821397625424,0.25333584393804026,0.0018048181218485626,6,4,2
1479603180,0.1846437287490212,42.338842733019007,-71.088244695975504,65.0,0.0030773954791503536,1.6980636367568165e-05,6.2446162734654221e-05,1.1575681923413479e-05,1.348832944381447e-05,2.9076147825480851e-05,1.945910149055313,-0.034165262597608742,0.25366150000713283,0.0018070652796693229,6,4,2
1479603210,1.1109434102542908,42.338840911472474,-71.088243249494994,65.0,0.01851572350423818,1.754417963444371e-05,6.2446162734654221e-05,1.1575681923413479e-05,1.5704243706653908e-05,1.7305626065968305e-05,1.7917594692280547,-0.034108146196469145,0.25358219293918149,0.0018554690308063566,6,4,2
1479603240,1.0960349121347752,42.338842203984157,-71.088242950722204,65.0,0.018267248535579587,0.0015590799648234769,0.0044722232415794405,1.134297600013092e-05,1.649139326322544e-05,1.9635970404926853e-05,1.945910149055313,-0.026441983585011573,0.25232113576182169,0.0064817280458341411,6,4,2
1479603270,2.2696665625748844,42.33884073130362,-71.088242069380058,65.0,0.03782777604291474,0.0015587689666581731,0.0044722232415794405,1.134297600013092e-05,1.3720042138754707e-05,2.4219033204964812e-05,1.945910149055313,-0.014884203676741578,0.25053690658127187,0.013412359551737921,6,4,2
1479603300,0.6322964883121873,42.338845358693042,-71.08824167617945,65.0,0.010538274805203121,4.8116414378281273e-06,2.6528981355546824e-05,1.1502052528533084e-05,1.7876739700411955e-05,2.320365763348627e-05,1.7917594692280547,-0.0070455618797235142,0.2490027140980535,0.018067095037358465,6,4,2
1479603330,1.1903457827514263,42.338844411969234,-71.088243756440733,65.0,0.01983909637919044,6.3263880257553342e-06,2.3648384278525621e-05,5.7224075422618146e-06,9.6572608675832646e-06,1.969608136678399e-05,1.945910149055313,-0.006959028296950262,0.24874157710584996,0.018019838901986013,6,4,2
1479603360,1.6835269987620785,42.33883513226079,-71.088240997819398,65.0,0.028058783312701306,3.0720699085666213e-06,1.3756832594100824e-05,5.7224075422618146e-06,7.3670395077519512e-06,1.290484033494204e-05,1.945910149055313,-0.0069483419986956637,0.24852474102463298,0.018074928412451983,6,4,2
1479603390,0.31500712998799435,42.338832785870174,-71.088238940789097,65.0,0.005250118833133239,3.767951450846717e-06,1.7316992101628882e-05,6.6125495758444298e-06,8.1056803633730801e-06,1.3676127142680242e-05,1.7917594692280547,-0.0069323393109553648,0.24857949424243883,0.018141705524622201,6,4,2
1479603420,0.7829358201390069,42.338833865104363,-71.088238845818992,65.0,0.013048930335650114,6.1265343223395148e-06,2.6218644707146005e-05,7.5877132296164585e-06,8.7293005709292779e-06,1.5697133475692093e-05,1.945910149055313,-0.0068893836974178932,0.24835191212596483,0.018062687763521885,6,4,2
1479603450,0.6294332744667747,42.338839449431816,-71.088238855273786,65.0,0.010490554574446245,6.0836433783951173e-06,2.6218644707146005e-05,5.6825681916946339e-06,9.6642329852570443e-06,1.3916476617326051e-05,1.945910149055313,-0.0068177784145534359,0.24817333131115088,0.017946309956333267,6,4,2
1479603480,0.6265139490453322,42.338843417438937,-71.088239203803994,65.0,0.010441899150755536,1.4192417301086992e-05,5.0056036401795359e-05,5.6825681916946339e-06,1.3486859058402119e-05,1.849562927857271e-05,1.7917594692280547,-0.0068196041745712636,0.24825729865437571,0.017946332873184066,6,4,2
1479603510,1.2563195207433535,42.338841031108913,-71.088239611424768,65.0,0.02093865867905589,1.2657429210300042e-05,5.0056036401795359e-05,1.0596479573068386e-05,1.3140539867841156e-05,1.8207724596260912e-05,1.945910149055313,-0.0068448507321825832,0.24814118747515454,0.017963428910998426,6,4,2
1479603540,0.19399960822593465,42.338843045620933,-71.088242905567427,65.0,0.0032333268037655774,4.7543958265901969e-06,2.2566812122597372e-05,1.0596479573068386e-05,1.1068756924710935e-05,1.9525618460095521e-05,1.945910149055313,-0.0067884615041742518,0.24815672457544954,0.017883144951745155,6,4,2
1479603570,1.10027643350324,42.338838316536325,-71.088240527582258,65.0,0.018337940558387333,7.9991065893183847e-06,2.2566812122597372e-05,3.2995002774114606e-06,5.9440163026411864e-06,2.1348711320594962e-05,1.7917594692280547,-0.0067827193111909172,0.24805509622483432,0.017849844673207382,6,4,2
1479603600,2.99316208261305,42.338829653906132,-71.088236439795011,65.0,0.0498860347102175,5.3767885023614357e-06,1.927733439597112e-05,3.2995002774114606e-06,4.298678959194004e-06,1.1966821208112081e-05,1.945910149055313,-0.021634593080983509,0.21853993870234398,0.0095339067324893001,6,4,2
1479603630,0.2804079613481555,42.338820219631714,-71.088232064896545,65.0,0.0046734660224692585,4.6019449010926943e-06,1.9503119372768577e-05,4.3594468255013462e-06,7.6681796556078462e-06,1.1966821208112081e-05,1.945910149055313,-0.032768069604872677,0.19657372449694097,0.0032771692234201959,6,4,2
1479603660,1.0659223648463207,42.33881240287225,-71.088225375900421,65.0,0.01776537274743868,0.00066069493713466032,0.0017904742083283893,5.9326584863795084e-06,1.1895301751607717e-05,3.1554041918199763e-05,1.7917594692280547,-0.020939232148172459,0.056831131489096652,-0.0025941662135239634,6,4,2
1479603690,0.6469983150481367,42.33882110789596,-71.088227061827624,65.0,0.010783305250802278,0.00061818181141407101,0.0017904742083283893,1.6528520962403643e-05,1.86524757408052e-05,3.5119304123206884e-05,1.945910149055313,-0.0021489985053517384,-0.14786642564853772,-0.011789950682975794,6,4,2
1479603720,7.242286230591395,42.338833940295814,-71.088239045875426,65.0,0.12070477050985658,7.1144431003052318e-06,3.4667592146403605e-05,1.1935469480596369e-05,1.4235538786611522e-05,1.9428681618590388e-05,1.945910149055313,0.0031190172813018529,-0.19685894264515344,-0.014248572665272271,6,4,2
1479603750,0.733515469702743,42.338846015260373,-71.088247844368581,65.0,0.01222525782837905,5.9488675695604609e-06,2.911419935771e-05,1.1935469480596369e-05,1.3305561655549271e-05,2.1150052901353578e-05,1.7917594692280547,0.0032651640673429703,-0.19729961557832998,-0.014173928445455999,6,4,2
1479603780,2.0393228791691524,42.338841604557771,-71.088244249728305,65.0,0.033988714652819205,4.7828940924149613e-05,0.00015816140703735516,1.7834319123713375e-05,1.9321322878301749e-05,2.6727142677560623e-05,1.945910149055313,0.0034690898406363295,-0.19768302700116844,-0.0140977048537463,6,4,2
1479603810,0.9885837225274828,42.338831331369057,-71.08824001112626,65.0,0.016476395375458048,4.8104380390691709e-05,0.00015816140703735516,1.3504933788176568e-05,1.7888929060070465e-05,3.17040077974692e-05,1.945910149055313,0.0034567796340055886,-0.198037499953714,-0.013850914112957585,6,4,2
1479603840,0.6425088473760596,42.338829545525797,-71.088236129981766,65.0,0.010708480789600993,1.2929333046210786e-05,4.0295781468818394e-05,8.9608459895336948e-06,1.1150935720542354e-05,3.4739493576236368e-05,1.7917594692280547,0.0035043021544359097,-0.19815492151513903,-0.013684419061395449,6,4,2
1479603870,0.12145807468327664,42.338829380277751,-71.088234995566566,65.0,0.0020243012447212776,1.0960265394469845e-05,4.0295781468818394e-05,8.9608459895336948e-06,1.482908107738095e-05,3.0133249062792008e-05,1.945910149055313,0.0038143209333076872,-0.19826576279693303,-0.013784324479728728,6,4,2
1479603900,0.7597820385555387,42.338820477394279,-71.088229540697682,65.0,0.012663033975925645,9.7776745250422138e-06,3.6036701551047099e-05,1.1595314528807047e-06,1.6615550446882281e-05,2.3838143779720302e-05,1.945910149055313,0.003912208494576957,-0.19870223791207345,-0.01377670712230176,6,4,2
1479603930,0.818443699386194,42.338826386576194,-71.088231699214958,65.0,0.013640728323103233,9.9021519071105691e-06,3.4378123334018734e-05,1.1595314528807047e-06,1.5445295947007784e-05,2.1860162174559539e-05,1.7917594692280547,0.0041504290412867481,-0.19941336823391084,-0.013731557620492002,6,4,2
1479603960,3.0342440984507255,42.33884239290893,-71.088239110833129,65.0,0.05057073497417876,6.7420473814108692e-06,3.4378123334018734e-05,1.0581547120873994e-05,1.7414735092393328e-05,2.1855443227858373e-05,1.945910149055313,0.0043069542701025584,-0.19938589128047143,-0.0136891672934748,6,4,2
1479603990,0.5647599279672104,42.338849710777168,-71.088241942437932,65.0,0.009412665466120174,7.4879050777527357e-06,3.7039179612829115e-05,1.0581547120873994e-05,1.746643590523239e-05,2.0347945577158427e-05,1.945910149055313,0.0043072950365132812,-0.1993120821542014,-0.013660767709884902,6,4,2
1479604020,2.785300854342194,42.338841686095549,-71.088229527935724,65.0,0.046421680905703235,9.8228973610600628e-06,3.7039179612829115e-05,7.7865304696412931e-06,1.1175378088911938e-05,2.3162828648526173e-05,1.7917594692280547,0.0043995429750796266,-0.19957787300593785,-0.013551917818614216,6,4,2
1479604050,0.2784072980469666,42.338825186542458,-71.088217335347096,65.0,0.00464012163411611,7.7612627071203101e-06,2.436916481295844e-05,3.5559869486627004e-06,8.5569274644719209e-06,2.1858375283105237e-05,1.945910149055313,0.0044401880518594467,-0.19941853773500701,-0.013487002702245971,6,4,2
1479604080,1.0043531039204558,42.338819684636874,-71.088224190327708,65.0,0.016739218398674264,7.3272187625374949e-06,2.7798278302198375e-05,3.5559869486627004e-06,1.9754610698791735e-05,2.4227156983541804e-05,1.945910149055313,0.00444712223077251,-0.1989668273868033,-0.013505415341855617,6,4,2
1479604110,0.9254565697100644,42.338827266201271,-71.088233063598011,65.0,0.015424276161834406,7.9007185008299493e-06,2.7798278302198375e-05,4.7750810302791315e-06,1.3439158089479964e-05,2.4397336258102932e-05,1.7917594692280547,0.0045148918564985987,-0.19880494797266815,-0.013525927440613117,6,4,2
1479604140,7.3485904792498875,42.338818522121976,-71.088222914140516,65.0,0.12247650798749812,7.9565839320646446e-06,3.0988097879829454e-05,4.7750810302791315e-06,9.5342895299581924e-06,1.7327373027832983e-05,1.945910149055313,0.0045227642074373384,-0.19917632509599528,-0.0135591199167064,6,4,2
1479604170,2.0460823234429726,42.338807290435419,-71.088208824944019,65.0,0.034101372057382874,8.1925896939744664e-06,3.0988097879829454e-05,7.1197417003918864e-06,1.5955070999884963e-05,2.8078101583801983e-05,1.945910149055313,0.0045761951169360701,-0.19902564097599271,-0.013535015719366555,6,4,2
1479604200,1.9558853902600235,42.338814820300527,-71.088219729040048,65.0,0.03259808983766706,7.3966413596113124e-06,3.0271827714159435e-05,9.0665064055153685e-06,1.716510942583088e-05,2.7695996739377702e-05,1.7917594692280547,0.0045633010604037112,-0.19892322601753698,-0.013497108820942882,6,4,2
1479604230,2.353924534612804,42.338827254569331,-71.088234731702585,65.0,0.03923207557688006,5.9090183430178273e-06,2.8299870501355428e-05,9.0665064055153685e-06,1.1717429758581469e-05,1.7708996004065109e-05,1.945910149055313,0.0046160639762779631,-0.19931653044727302,-0.013541010104336813,6,4,2
1479604260,0.9998864646130624,42.338836097322996,-71.088239829400862,65.0,0.016664774410217707,2.7158151516692042e-06,1.8584775240970137e-05,1.1290784671022437e-05,1.1717429758581469e-05,1.6496350955301369e-05,1.945910149055313,0.0047460521515551675,-0.19959680631240756,-0.013521524974141216,6,4,2
1479604290,1.1992597785214472,42.338843102565662,-71.088240827453248,65.0,0.019987662975357454,2.5736390726133582e-06,1.8772781353043148e-05,1.1290784671022437e-05,1.4568210262330328e-05,1.8013968575750839e-05,1.7917594692280547,0.0047812873754349717,-0.199513845928699,-0.013502837790154166,6,4,2
1479604320,1.6055832143103266,42.33883108817755,-71.088232103642639,65.0,0.026759720238505442,3.5822622688112817e-06,2.6361729243349647e-05,1.4204774602804089e-05,1.6789676745875591e-05,1.943307551743193e-05,1.945910149055313,0.0048024319566811035,-0.19970575057109213,-0.013542255530007999,6,4,2
1479604350,0.21593040688514797,42.338819971929134,-71.088228676724597,65.0,0.003598840114752466,5.1548456959781778e-06,2.8351449997103619e-05,1.2950875849978506e-05,1.856907839874708e-05,2.6216304320896398e-05,1.945910149055313,0.0047431241333881725,-0.20013345146981901,-0.013518850524856341,6,4,2
1479604380,2.160258963150089,42.338829272413086,-71.088234187598673,65.0,0.03600431605250148,9.0412933167320567e-06,2.8351449997103619e-05,3.5058387686326586e-06,9.7481422311508738e-06,2.2790878511326989e-05,1.7917594692280547,0.0046833236529773377,-0.20001396710283334,-0.013439033038423582,6,4,2
1479604410,4.0342636266320016,42.338832736493885,-71.088231832079487,65.0,0.06723772711053336,8.2073204453317969e-06,3.085253337415403e-05,3.5058387686326586e-06,9.8367784905299801e-06,1.9011339969291588e-05,1.945910149055313,0.0046313437321849138,-0.19955812212938487,-0.013435763152609142,6,4,2
1479604440,4.3122233071122,42.338830193635737,-71.088228793551139,65.0,0.07187038845187001,7.843363989918768e-06,3.085253337415403e-05,4.4786839279672411e-06,1.6140194254484939e-05,2.3617707033402614e-05,1.945910149055313,0.0046261078821488739,-0.19952819991896015,-0.013410080037576102,6,4,2
1479604470,0.0,nan,nan,nan,0.0,8.0063623962584921e-06,2.5272064132639711e-05,4.4786839279672411e-06,6.3868086284676909e-06,1.896890723291857e-05,1.7917594692280547,0.0046944902087083717,-0.20009374817114081,-0.013400941408686534,6,4,2
1479604500,0.0,nan,nan,nan,0.0,4.1687349310301808e-06,1.8398100602545258e-05,5.5733819994197187e-06,7.3766643137543375e-06,1.2825315659366972e-05,1.945910149055313,0.0046722246321480492,-0.20038797031062311,-0.013404480422242486,6,4,2
1479604530,0.0,nan,nan,nan,0.0,5.4855175476984782e-06,2.3424876699329416e-05,5.9262401118970676e-06,1.2825315659366972e-05,1.9695994813304583e-05,1.945910149055313,0.0047661349610143089,-0.20078080399686885,-0.013413828025771169,6,4,2
1479604560,0.0,nan,nan,nan,0.0,6.9434353776128938e-06,2.3424876699329416e-05,4.6044480449458831e-06,8.5964880688155387e-06,1.9965600256174975e-05,1.7917594692280547,0.004841189376828362,-0.20082890843266218,-0.0133167390908901,6,4,2
1479604590,3.6623807994382314,42.338822370750201,-71.08821713330839,65.0,0.06103967999063719,3.7610718150821722e-05,0.0001206713500786202,4.6044480449458831e-06,9.3957275945080203e-06,2.6713850419055617e-05,1.945910149055313,0.0049216438663021922,-0.20083288422099158,-0.013221420949863174,6,4,2
1479604620,2.616277799093651,42.338817437640529,-71.088212474117228,65.0,0.043604629984894186,3.5742539564177793e-05,0.0001206713500786202,8.8153090340451118e-06,1.9324033616952998e-05,2.6713850419055617e-05,1.945910149055313,0.0050625319670191049,-0.20093174782594986,-0.013266817478141828,6,4,2
1479604650,0.4422255879263875,42.338820455249426,-71.088220965347119,65.0,0.007370426465439792,8.4708265595988673e-06,3.3095263381191498e-05,8.1017881646571332e-06,1.1232894149335912e-05,2.1591343538699177e-05,1.7917594692280547,0.0050267892906680897,-0.20046580651749615,-0.013186156549752666,6,4,2
1479604680,2.711166123053779,42.338827500684658,-71.088229371488907,65.0,0.04518610205089632,7.9989007534787552e-06,3.3095263381191498e-05,8.1017881646571332e-06,1.1469544908966915e-05,2.1753936784489925e-05,1.945910149055313,0.0049648918449636259,-0.20027422129136382,-0.013079410593783227,6,4,2
1479604710,0.45813259008752283,42.338826631456229,-71.088224305655132,65.0,0.007635543168125381,5.1989752365648711e-06,2.1473813691327485e-05,6.8863775602171841e-06,8.4252070502916997e-06,1.6186801400762182e-05,1.945910149055313,0.0049718505200277525,-0.20034468967240857,-0.01305720948094837,6,4,2
1479604740,1.450918897671107,42.338821785276131,-71.088219573876088,65.0,0.024181981627851783,8.934900305027113e-06,3.2362619377375803e-05,6.8863775602171841e-06,8.7496757854114496e-06,2.1017228058168842e-05,1.7917594692280547,0.0049662469754973978,-0.20060670123478733,-0.013040895359426666,6,4,2
1479604770,0.9039443616902119,42.338821067579524,-71.088222681207,65.0,0.015065739361503532,5.9930357686022525e-06,3.2362619377375803e-05,1.251238897034176e-05,1.6306904679740954e-05,2.0364951221112257e-05,1.945910149055313,0.0050929520865532693,-0.20075557841773331,-0.013049852547796229,6,4,2
1479604800,1.8060796050577967,42.338826996430541,-71.088232529184225,65.0,0.03010132675096328,8.226828262102491e-06,3.5925944656269196e-05,7.8472322627699177e-06,1.45847610961284e-05,2.0286320705734134e-05,1.945910149055313,0.0051264731304371128,-0.20124461622650644,-0.013075263934543857,6,4,2
1479604830,0.1495694956008597,42.338832936447893,-71.088237363222078,65.0,0.0024928249266809948,8.5410647811746653e-06,3.5925944656269196e-05,7.8472322627699177e-06,1.5717431067507765e-05,2.2062499160377098e-05,1.7917594692280547,0.0050256721442166917,-0.2016487056822045,-0.013103037708977033,6,4,2
1479604860,1.3860002706221264,42.338829942124526,-71.088223885302725,65.0,0.023100004510368772,9.2365723405152093e-06,3.8605995907323149e-05,8.3640939400129847e-06,1.2496992029007471e-05,1.9248860489582972e-05,1.945910149055313,0.0050958954086562629,-0.2017574257627924,-0.013140367270526945,6,4,2
1479604890,0.1071685990159999,42.338825284499329,-71.088219481864115,65.0,0.0017861433169333316,9.8701683353656565e-06,3.8605995907323149e-05,8.3640939400129847e-06,9.9129680666567485e-06,1.9193189756268032e-05,1.945910149055313,0.0050975380357912931,-0.20202042793596758,-0.013079564932258229,6,4,2
1479604920,0.7634763402365762,42.33882747196607,-71.08823099414721,65.0,0.012724605670609603,6.7243127843124983e-06,2.9152932241383019e-05,8.6249185412201435e-06,1.3351234704035691e-05,2.1777143425102722e-05,1.7917594692280547,0.0049747383015824554,-0.201914028249083,-0.012939978746463349,6,4,2
1479604950,0.5025060167544094,42.338827600153486,-71.088231810953928,65.0,0.008375100279240157,7.4703907409669927e-06,2.9152932241383019e-05,6.9564034767204747e-06,9.9733169136371489e-06,2.0926903367678459e-05,1.945910149055313,0.0050600895048532489,-0.20159998111359514,-0.012963978383505144,6,4,2
1479604980,0.489072330598209,42.338831027810407,-71.088234417498853,65.0,0.00815120550997015,8.8075346917398203e-06,3.5035428411719077e-05,6.9564034767204747e-06,9.9733169136371489e-06,1.9281963257245585e-05,1.945910149055313,0.0051977821506603078,-0.20165653487398313,-0.013015209051410129,6,4,2
1479605010,0.5976090512893389,42.338833497859966,-71.088237712832239,65.0,0.009960150854822316,7.3561193088505641e-06,3.5035428411719077e-05,1.2156693054631092e-05,1.6915649990995895e-05,2.4594322518619445e-05,1.7917594692280547,0.0052052933235477933,-0.20187783319850103,-0.01294788870656295,6,4,2
1479605040,1.5959456096463378,42.33883303522164,-71.088239719794444,65.0,0.02659909349410563,5.6972094987066192e-06,2.5067254968367599e-05,7.6599378718518839e-06,1.2975474722659581e-05,2.0864735559024106e-05,1.945910149055313,0.0051838102447388842,-0.201370995736283,-0.012889692530985415,6,4,2
1479605070,1.6713904072492065,42.338834038426093,-71.088240879265669,65.0,0.027856506787486777,5.0565130449024044e-06,2.3861283644055279e-05,7.6599378718518839e-06,1.4216953752323718e-05,2.0309798123076822e-05,1.945910149055313,0.0052150860566772079,-0.20084227215591643,-0.012903287495577257,6,4,2
1479605100,0.7868724731026676,42.338835416696725,-71.088240678693538,65.0,0.013114541218377794,5.7410694536373313e-06,2.3861283644055279e-05,7.4082821356907926e-06,1.2027595245242602e-05,2.0626590654393114e-05,1.7917594692280547,0.0051933413505783404,-0.2007771866953425,-0.012910093394505566,6,4,2
1479605130,0.04010834534010813,42.338838438683169,-71.088241622785816,65.0,0.0006684724223351355,6.0942444955641267e-06,2.826655636731942e-05,7.4082821356907926e-06,1.3261091995152358e-05,1.8404776334703814e-05,1.945910149055313,0.0051557065717711464,-0.20110734373428873,-0.012911777783474012,6,4,2
1479605160,0.8405183089430476,42.338844979051537,-71.088243515359181,65.0,0.014008638482384126,5.2066470521637275e-06,2.826655636731942e-05,1.0750138526967334e-05,1.4266861504144268e-05,1.8404776334703814e-05,1.945910149055313,0.0051743938016398806,-0.20110533874524314,-0.012905482804846385,6,4,2
1479605190,1.1504651194959548,42.338837511143623,-71.08823789419705,65.0,0.019174418658265913,8.4402726629717912e-06,3.1139322867295549e-05,6.2471867782691839e-06,7.4603178135551544e-06,1.5295577297352576e-05,1.7917594692280547,0.0052430896861719286,-0.20096325914171201,-0.012886064844489217,6,4,2
1479605220,1.0076903379997342,42.33882730195635,-71.088231373041168,65.0,0.016794838966662236,9.8707123683412587e-06,3.2121030624975164e-05,6.2471867782691839e-06,9.7707385071376889e-06,2.4466818969781777e-05,1.945910149055313,0.0053716618244269371,-0.20151487865274656,-0.012873167182431916,6,4,2
1479605250,0.9022378539607881,42.338833441633334,-71.088233140987398,65.0,0.015037297566013135,3.2448340284903247e-05,0.00010880405041256865,8.0360149039482104e-06,1.3518029684024724e-05,3.0304257437046059e-05,1.945910149055313,0.0053958552244459754,-0.20162412781953745,-0.012877962184687503,6,4,2
1479605280,1.543573183925803,42.338834848234825,-71.088235111483584,65.0,0.025726219732096715,3.3929803430743552e-05,0.00010880405041256865,8.0360149039482104e-06,1.7726534199547725e-05,2.7001114631243636e-05,1.7917594692280547,0.0053274163584577545,-0.20122362995709331,-0.012850890057324984,6,4,2
1479605310,2.4361797362251933,42.338826489063209,-71.088235834743671,65.0,0.040602995603753224,3.9530211572853032e-06,2.2542005777623689e-05,1.0951539858259546e-05,1.5107468273371706e-05,2.1254486218814404e-05,1.945910149055313,0.0053040436291078097,-0.20135335225272913,-0.012845415178474413,6,4,2
1479605340,1.6904167487285926,42.338829986525248,-71.088239989674051,65.0,0.028173612478809878,3.2610143057329837e-06,2.1890968524876648e-05,1.0951539858259546e-05,1.4142981761404382e-05,1.6857310786523129e-05,1.945910149055313,0.0052894896948769889,-0.20153366217455329,-0.012902495299264027,6,4,2
1479605370,1.9968588425342808,42.338836718383234,-71.088241501400432,65.0,0.03328098070890468,2.0170362349643215e-06,1.8786017424557968e-05,1.3422271950558879e-05,1.4397579977809158e-05,1.7641471808347754e-05,1.7917594692280547,0.005338575375824349,-0.20168479203021583,-0.012926933682404017,6,4,2
1479605400,5.913154547026218,42.338842981655652,-71.088236216069333,65.0,0.09855257578377029,2.0160239157385116e-05,6.9464048069303635e-05,6.5094241359777376e-06,1.0863232895615663e-05,1.7472946776357181e-05,1.945910149055313,0.00536895103218405,-0.20190706568496197,-0.012880931123898671,6,4,2
1479605430,0.24483974631422484,42.338839621113848,-71.088226700708077,65.0,0.004080662438570414,2.1084083255242706e-05,6.9464048069303635e-05,5.5392499234786678e-06,7.0230562741168026e-06,2.2606475011650612e-05,1.945910149055313,0.0053223199309043179,-0.20171039946829086,-0.012878934978697814,6,4,2
1479605460,3.3798673001759103,42.33882964867184,-71.088225887263704,65.0,0.056331121669598506,7.1105050753586835e-06,2.9053073895144836e-05,5.5392499234786678e-06,1.3393719986223214e-05,1.8154693853438683e-05,1.7917594692280547,0.0052671038065862019,-0.20154591624648813,-0.012925691240448983,6,4,2
1479605490,0.16785680702676886,42.33882730548082,-71.08823039462365,65.0,0.002797613450446148,3.325316441416528e-06,1.9276881435159775e-05,8.2332798227125414e-06,1.3641649362124319e-05,1.6540348668999923e-05,1.945910149055313,0.0052551875386022285,-0.20217435401269673,-0.012892133578072644,6,4,2
1479605520,0.7688672375916592,42.338816630655046,-71.088223137562551,65.0,0.012814453959860988,3.4837256565441607e-06,1.8123775619720007e-05,7.4289922627507715e-06,1.0180612489893992e-05,1.4575337488132528e-05,1.945910149055313,0.0053073561235980112,-0.20259120143197257,-0.012865338684907529,6,4,2
1479605550,3.099433948992341,42.338818479526182,-71.088226103673733,65.0,0.05165723248320568,6.8637974898740558e-06,2.6023683409397481e-05,7.4289922627507715e-06,1.2386691667625467e-05,2.265635202145834e-05,1.7917594692280547,0.0053670271736448684,-0.20267593619361901,-0.0128494598354359,6,4,2
1479605580,0.2575386115682045,42.338827144975262,-71.088232878441161,65.0,0.004292310192803408,7.7408186731106199e-06,2.8353525413404273e-05,9.0199190166435064e-06,1.0937894514767644e-05,2.5641186947163839e-05,1.945910149055313,0.0054488702884248567,-0.20267219975351586,-0.012869734499025929,6,4,2
1479605610,0.4473573645330994,42.338829043443589,-71.088232003067134,65.0,0.007455956075551657,6.646446186642948e-06,2.8353525413404273e-05,9.0199190166435064e-06,1.0937894514767644e-05,2.129635629584903e-05,1.945910149055313,0.0054891671968072125,-0.20257030125316641,-0.012833753419821741,6,4,2
1479605640,0.23588928928341563,42.338828577911336,-71.088231318772387,65.0,0.003931488154723594,7.0648243268878651e-06,2.6944274765697294e-05,4.8070143829745679e-06,1.396555957888087e-05,2.1578849323337739e-05,1.7917594692280547,0.0054722963242445702,-0.20227131798010467,-0.012782954349186649,6,4,2
1479605670,2.9868578192105755,42.338845290178021,-71.08824085215268,65.0,0.04978096365350959,6.7049567379425269e-06,2.6944274765697294e-05,4.8070143829745679e-06,8.3126700312815354e-06,1.2982715343040522e-05,1.945910149055313,0.0055309266687529309,-0.20190760463293986,-0.012822757705889684,6,4,2
1479605700,1.5739402770496158,42.338852723361882,-71.088245277680969,65.0,0.02623233795082693,6.1227913294123537e-06,2.4214519029239349e-05,6.2270105988578991e-06,1.0529818893612879e-05,1.7362383126586962e-05,1.945910149055313,0.0055547218794170863,-0.20203420439033332,-0.012833850227784271,6,4,2
1479605730,0.9825008686235813,42.338838665952139,-71.088240291071031,65.0,0.016375014477059687,5.1858383940743124e-06,2.4214519029239349e-05,1.1238370372742786e-05,1.2138297086301528e-05,1.9838352140335556e-05,1.7917594692280547,0.0055396230267970347,-0.20238495727577602,-0.012842673368994284,6,4,2
1479605760,1.7861631569207388,42.338833010959362,-71.088237134464748,65.0,0.02976938594867898,1.326912150470653e-06,1.5786314333835061e-05,1.1991262358884447e-05,1.2939487100977422e-05,1.4824212624747923e-05,1.945910149055313,0.0055611246748923553,-0.20211779912113217,-0.012906566215340528,6,4,2
1479605790,1.224190318400815,42.338833890455874,-71.088238396217292,65.0,0.020403171973346915,2.9922084527620375e-06,2.2056840295744035e-05,1.1884900250786573e-05,1.373495580362163e-05,1.5676190200272413e-05,1.945910149055313,0.0055631890817465996,-0.20218585717891768,-0.012905430160585958,6,4,2
1479605820,1.625785197812802,42.338833556352689,-71.088239067352049,65.0,0.0270964199635467,6.517044492528843e-06,2.2056840295744035e-05,1.4470621091996734e-06,1.2711131471671676e-05,1.806385973060404e-05,1.7917594692280547,0.0055304069925292063,-0.20269730057497401,-0.012805489374667132,6,4,2
1479605850,0.5624757092530611,42.338828010395915,-71.088233458073915,65.0,0.009374595154217685,6.2667165479719911e-06,1.8997592462730884e-05,1.4470621091996734e-06,6.788402342388459e-06,1.6134693924319609e-05,1.945910149055313,0.0055638286283875701,-0.20267657752096158,-0.012806331885636584,6,4,2
1479605880,0.21253952051783795,42.338826788494778,-71.088232304183109,65.0,0.0035423253419639656,4.1227536787832273e-06,1.697457082414116e-05,4.0628045481503656e-06,8.5319909225025037e-06,1.3865204469209481e-05,1.945910149055313,0.005538792050380827,-0.20248567040739401,-0.01279547352515357,6,4,2
1479605910,1.6694392704220489,42.338832096687767,-71.08823524668432,65.0,0.027823987840367482,7.160409851019394e-06,2.7359084291258164e-05,6.1594683113559097e-06,8.605194598841198e-06,1.6851922045197668e-05,1.7917594692280547,0.0054888798831143172,-0.20226233678509367,-0.012793915940884949,6,4,2
1479605940,0.23916657514199352,42.338835536450141,-71.088236488418119,65.0,0.003986109585699892,6.4922679309156646e-06,2.7359084291258164e-05,6.1594683113559097e-06,1.1160596774110111e-05,1.8698354094496156e-05,1.945910149055313,0.0055413720547986848,-0.20218495900734673,-0.012843533551700885,6,4,2
1479605970,3.358219203532229,42.338834174850611,-71.088233937621425,65.0,0.05597032005887048,4.326063580304917e-06,2.3249178316878313e-05,1.0135607514711728e-05,1.2467560056252959e-05,1.907019126793288e-05,1.945910149055313,0.0055553461729277677,-0.20261686251429425,-0.012809933674337371,6,4,2
1479606000,0.9261765228472764,42.338830936271442,-71.088229698902865,65.0,0.015436275380787939,4.6015965358024214e-06,2.3249178316878313e-05,8.8244970877522763e-06,1.5015665062132726e-05,1.9950810911600391e-05,1.7917594692280547,0.0055837935380057607,-0.20297676771045117,-0.012798851339111151,6,4,2
1479606030,1.8178642768859476,42.338826760649155,-71.088229166518843,65.0,0.03029773794809913,5.7244815527684622e-06,2.5767070983686643e-05,8.8244970877522763e-06,1.1344173175205081e-05,1.9984599105559007e-05,1.945910149055313,0.0055587529821681247,-0.20241877884258483,-0.012875164162716101,6,4,2
1479606060,0.2745884884413656,42.338824962854368,-71.088231720354386,65.0,0.004576474807356093,8.3230213135692378e-06,2.5767070983686643e-05,2.1507072654721476e-06,9.2743607839937207e-06,2.2637719560277994e-05,1.945910149055313,0.0055467021530763603,-0.20213408119550585,-0.012816706396414187,6,4,2
1479606090,0.06548173629045119,42.338826441269816,-71.088231763481332,65.0,0.0010913622715075198,8.2302573271555005e-06,2.5551419979628484e-05,2.1507072654721476e-06,6.5052407840215457e-06,1.9107497364183911e-05,1.7917594692280547,0.0055079032439050114,-0.20246379169038101,-0.012755922958965799,6,4,2
1479606120,1.2614683593325096,42.338832577838424,-71.088236529157854,65.0,0.021024472655541825,6.8981536263565877e-06,2.5382400520656976e-05,4.9927147520000396e-06,1.0062098631708184e-05,1.890773091929113e-05,1.945910149055313,0.0054899501607458866,-0.20327098833172,-0.012796000958430729,6,4,2
1479606150,0.9569021047881702,42.338832747569782,-71.088239534170356,65.0,0.01594836841313617,6.5530151693104944e-06,2.5382400520656976e-05,4.9927147520000396e-06,1.3088876302019928e-05,2.0815380183877462e-05,1.945910149055313,0.0055252925286967862,-0.20341445383409443,-0.012752865205122171,6,4,2
1479606180,0.48300207975695764,42.338829371433363,-71.088239466840975,65.0,0.008050034662615961,3.8969966246751519e-06,2.4496946440633897e-05,1.2152104265343343e-05,1.4290076829587082e-05,1.6758117332725463e-05,1.7917594692280547,0.0055202652059613512,-0.20328377200473555,-0.012691871850943018,6,4,2
1479606210,1.22426054517708,42.33883956644106,-71.088243241021246,65.0,0.020404342419618002,4.2164953027890827e-06,2.2553835642978553e-05,7.369698501474814e-06,1.4481706112521344e-05,1.7074192870786504e-05,1.945910149055313,0.0055481131656612958,-0.20348905782306473,-0.012706430591919888,6,4,2
1479606240,1.028281216268881,42.338840632833353,-71.088242000307616,65.0,0.017138020271148018,1.2984392704941892e-05,4.9859168789072059e-05,7.369698501474814e-06,1.2865115205096215e-05,1.9919342427896385e-05,1.945910149055313,0.0054910244419982867,-0.20340471093739756,-0.012707898383399198,6,4,2
1479606270,6.485483876747353,42.33883526688787,-71.088234673887641,65.0,0.10809139794578922,1.3181216413668202e-05,4.9859168789072059e-05,1.1850180487408525e-05,1.3191387077030394e-05,2.1712745317866863e-05,1.7917594692280547,0.0054156700630058384,-0.20346708362898547,-0.012680041281180733,6,4,2
1479606300,0.8549165597358731,42.33883113543876,-71.088220100279472,65.0,0.014248609328931218,4.2851533561110874e-06,2.3406441647356486e-05,1.0407798663845747e-05,1.1577629013835763e-05,1.7264124718170015e-05,1.945910149055313,0.0055344213352838904,-0.20343284993849159,-0.012745838208028685,6,4,2
1479606330,6.2235360728250715,42.338826806017437,-71.088224029043644,65.0,0.1037256012137512,3.919650408326159e-06,1.8553908721732506e-05,8.0842768029528114e-06,1.058638897157901e-05,1.7271430423060344e-05,1.945910149055313,0.0055695218484176356,-0.20319493657523885,-0.012732662485733485,6,4,2
1479606360,1.3292044436163502,42.33882313889459,-71.08822785489825,65.0,0.022153407393605835,5.512213671817577e-06,2.6472532254632976e-05,8.0842768029528114e-06,1.4349889000117354e-05,1.798173620678558e-05,1.7917594692280547,0.005511151665662537,-0.20271246132213216,-0.012645832074946101,6,4,2
1479606390,0.2913760528317084,42.338827720482669,-71.088224722509409,65.0,0.00485626754719514,1.1632144891105109e-05,3.9749301664527405e-05,3.4412921103237804e-06,1.1552900623262048e-05,2.757769868961987e-05,1.945910149055313,0.005479889532873471,-0.20265554045164727,-0.012699729664612342,6,4,2
1479606420,0.6037088407513259,42.33883496571837,-71.088233957620162,65.0,0.010061814012522098,1.1316462560019123e-05,3.9749301664527405e-05,3.4412921103237804e-06,1.1320625371847928e-05,2.3971405727243606e-05,1.945910149055313,0.0054995832490211038,-0.20291795232349188,-0.012739193528433373,6,4,2
1479606450,1.8986060629425392,42.338831161743634,-71.088232179075376,65.0,0.03164343438237565,5.5942480722995401e-06,2.9541530209366684e-05,1.3260802844189226e-05,1.7311072093852e-05,2.4775067855048138e-05,1.7917594692280547,0.0055649853453855107,-0.20285773248865135,-0.012738979807646683,6,4,2
1479606480,0.5805221562561876,42.33883368039097,-71.088233624484516,65.0,0.00967536927093646,6.2995862190013839e-06,2.9541530209366684e-05,9.7349770714184295e-06,1.5875537456233598e-05,2.2993143552694005e-05,1.945910149055313,0.0055346985049308335,-0.20276941371133383,-0.012680790384671283,6,4,2
1479606510,1.8387001321375407,42.338829287178918,-71.088226146277705,65.0,0.030645002202292344,3.7053102283760913e-06,1.7792037485278897e-05,7.6977870938428231e-06,1.1451395728485882e-05,1.7360301677201577e-05,1.945910149055313,0.0054731050755147349,-0.20306178383655984,-0.012644550725781356,6,4,2
1479606540,0.8131211324959037,42.338829367304129,-71.088227699643497,65.0,0.013552018874931729,5.1513501241916271e-06,2.3099137157523851e-05,7.6977870938428231e-06,1.4279984882083816e-05,2.0347781555697568e-05,1.7917594692280547,0.005462933985462143,-0.20360426320579283,-0.012704493411385685,6,4,2
1479606570,5.17555380793817,42.338834633470896,-71.088231114771801,65.0,0.08625923013230284,3.2154534073867604e-06,2.3099137157523851e-05,1.2392580355657148e-05,1.6579470939219271e-05,2.0177279964134354e-05,1.945910149055313,0.0055389605693603227,-0.20380933734466428,-0.012742985067898472,6,4,2
1479606600,0.40099985763282603,42.338837838655309,-71.088227502158759,65.0,0.0066833309605471005,5.8055649266447852e-06,3.1454157820303471e-05,1.2392580355657148e-05,1.5014971306571268e-05,1.8025196223733637e-05,1.945910149055313,0.0055462265061355766,-0.20387361713758342,-0.0127173805916005,6,4,2
1479606630,0.8956265034147948,42.338841429716197,-71.088234058636772,65.0,0.01492710839024658,6.4020796749764306e-06,3.1454157820303471e-05,1.4945496492529794e-05,1.5748432954024756e-05,2.5178308733695352e-05,1.7917594692280547,0.0055815212959501774,-0.20382282887755618,-0.012691540673427133,6,4,2
1479606660,1.6164781803966004,42.338839381168164,-71.088233418591344,65.0,0.026941303006610007,2.2484087653188141e-05,8.5165290378898365e-05,1.774039345426081e-05,1.9079871092886864e-05,2.6514220208419754e-05,1.945910149055313,0.0056881716636163534,-0.20366489348055916,-0.012708933246991256,6,4,2
1479606690,2.120654798725758,42.338843001979889,-71.088229334468792,65.0,0.0353442466454293,2.5181364423993523e-05,8.5165290378898365e-05,4.2495468040138749e-06,1.2342786162168315e-05,2.3212573000974787e-05,1.945910149055313,0.0057318611758928129,-0.2036619008706054,-0.012703578453586028,6,4,2
1479606720,2.4800310550079763,42.338853065651406,-71.088235112530541,65.0,0.04133385091679961,3.9280780899359555e-06,1.6576840793432943e-05,4.2495468040138749e-06,8.7096919460539865e-06,1.3165144239332535e-05,1.7917594692280547,0.0057628045547815573,-0.20340689286053834,-0.012671769817666415,6,4,2
1479606750,1.3051873956768598,42.33884358628351,-71.088239770146117,65.0,0.021753123261280996,6.7482612917228534e-06,2.9946134333607031e-05,1.0512573191504881e-05,1.2742733265853348e-05,2.3017154523409937e-05,1.945910149055313,0.0057219638948122287,-0.20309099508193182,-0.012657608465438588,6,4,2
1479606780,1.8066612074817998,42.338830115242075,-71.08823512074791,65.0,0.030111020124696665,7.3092550328210451e-06,2.9946134333607031e-05,4.8335608126839405e-06,1.6517488675422845e-05,2.3017154523409937e-05,1.945910149055313,0.005719349941108634,-0.20345336729010227,-0.012696094535639158,6,4,2
1479606810,1.7779385192053232,42.338837342421037,-71.088234454330916,65.0,0.029632308653422052,5.1367213255988773e-06,1.9440526308558723e-05,4.8335608126839405e-06,1.0880482364491316e-05,1.7988204260047967e-05,1.7917594692280547,0.0056881262487974383,-0.20363454596769814,-0.012667845549976032,6,4,2
1479606840,2.1878867857717825,42.338851310724053,-71.088236897926635,65.0,0.03646477976286304,4.3557323974833832e-06,1.7437289556776315e-05,4.4228553651024395e-06,1.0817545156862695e-05,1.6841694626820771e-05,1.945910149055313,0.0057458948199956648,-0.20317250485590257,-0.012627642617434558,6,4,2
1479606870,0.9175586314957836,42.338846303920235,-71.088239583984688,65.0,0.015292643858263061,3.9992958536809968e-06,1.6897599709678758e-05,4.4228553651024395e-06,1.240021887776536e-05,1.6008092049489047e-05,1.945910149055313,0.0058093213114544526,-0.20324642536198073,-0.012636072280662243,6,4,2
1479606900,0.41882505366301603,42.338843518797077,-71.088244704271034,65.0,0.006980417561050267,2.9569545434797406e-06,1.5230394555015307e-05,7.3057559420144513e-06,9.786240880466099e-06,1.36823265012234e-05,1.7917594692280547,0.0057728323615665314,-0.20370961330065737,-0.012602773618547084,6,4,2
1479606930,1.3593471014790808,42.338849406294734,-71.08824791118991,65.0,0.022655785024651345,5.260443197714753e-06,1.8325150077926278e-05,2.8675855687556843e-06,7.9148845217668396e-06,1.5941726947635712e-05,1.945910149055313,0.0057874211883239823,-0.20410770190949298,-0.012562855145124356,6,4,2
1479606960,4.763411329424922,42.338847492963943,-71.088237729582787,65.0,0.0793901888237487,7.9076931294266645e-06,3.0460624417839547e-05,2.8675855687556843e-06,1.0887512900761338e-05,1.7741811204801904e-05,1.945910149055313,0.0057668045642599915,-0.20410024441989114,-0.0125114696390527,6,4,2
1479606990,0.8605147562623895,42.338846085538648,-71.088230571365983,65.0,0.014341912604373157,1.2328271278947823e-05,4.6622289225136898e-05,9.9147801990298835e-06,1.4025817670541676e-05,2.8597650381847249e-05,1.7917594692280547,0.0057361204339839017,-0.20369306412159535,-0.012540743328830617,6,4,2
1479607020,4.461461848188549,42.338849766660815,-71.088235224802617,65.0,0.07435769746980915,1.0442848691270975e-05,4.6622289225136898e-05,1.2691972177463145e-05,1.8210832784325383e-05,2.6512116902275864e-05,1.945910149055313,0.0057859187819665958,-0.20372440626482896,-0.012584482523938,6,4,2
1479607050,0.5615579200840938,42.338853679878596,-71.088240475304133,65.0,0.00935929866806823,5.0195581568287443e-06,3.0015505530681386e-05,1.2691972177463145e-05,1.6798567167306465e-05,2.0727586607336372e-05,1.945910149055313,0.0058148568287762275,-0.20359009597390115,-0.012530118023844657,6,4,2
1479607080,1.5503436541499405,42.338856309248214,-71.088242692401394,65.0,0.025839060902499007,4.1374495168943796e-06,2.0499355944182791e-05,1.0138256601584333e-05,1.3257132276893983e-05,2.0125967411890662e-05,1.7917594692280547,0.0057959853481957847,-0.20296738003448581,-0.012561938349266716,6,4,2
1479607110,0.3303850302379291,42.338856135547267,-71.08823981704306,65.0,0.005506417170632151,4.2063222729851512e-06,2.0457913714917808e-05,9.1129262604001405e-06,1.0242500241515858e-05,1.7020738082107442e-05,1.945910149055313,0.0058669651659281194,-0.20339245985948412,-0.012582713201125086,6,4,2
1479607140,2.5239577209660413,42.338846184315898,-71.088230514106641,65.0,0.04206596201610069,5.4248354764888393e-06,2.5074230831600122e-05,9.1129262604001405e-06,1.1102117687033997e-05,1.9586907597277219e-05,1.945910149055313,0.0059741848169295548,-0.20431045516487772,-0.012460879809789716,6,4,2
1479607170,2.217348797417208,42.338842789361664,-71.088225785063486,65.0,0.036955813290286806,7.2300209676475192e-06,3.0980404082938996e-05,1.1857491492620611e-05,1.4155744008940603e-05,2.6446571553101516e-05,1.7917594692280547,0.0060058980308800121,-0.20483996599045584,-0.012406989872946682,6,4,2
1479607200,2.361605200407444,42.338848859717906,-71.088230490004193,65.0,0.039360086673457396,1.3483432266761459e-05,4.7774920690319462e-05,2.0462943726269248e-06,1.5334075701654651e-05,2.8942211271603824e-05,1.945910149055313,0.0060731582111735686,-0.2048967126139816,-0.012455210190941216,6,4,2
1479607230,1.4224685182301398,42.338840753625369,-71.088232670973326,65.0,0.023707808637168995,1.2994829939327359e-05,4.7774920690319462e-05,2.0462943726269248e-06,1.5661370807424104e-05,2.5062521348219734e-05,1.945910149055313,0.00618322731103489,-0.20489707817948985,-0.012523112164585943,6,4,2
1479607260,1.2132435321047426,42.338825411613854,-71.088227740617953,65.0,0.020220725535079042,3.1288862881869333e-05,0.00010186106248673949,1.3327935876030491e-05,1.619802584636608e-05,2.4027483699553466e-05,1.7917594692280547,0.0061164195999869704,-0.20481216475246619,-0.012498679307958532,6,4,2
1479607290,1.1426642735614312,42.338835285120929,-71.08823441318988,65.0,0.019044404559357186,2.9599350664780588e-05,0.00010186106248673949,1.2406362705211918e-05,1.6293585519331101e-05,2.9476413567097229e-05,1.945910149055313,0.0060286165742389599,-0.2046632800341836,-0.012388518537711684,6,4,2
1479607320,1.7684229110513507,42.338844311809069,-71.088242272064036,65.0,0.02947371518418918,1.2366854085305567e-05,3.8567446280990704e-05,4.4559574868606282e-06,1.0078351603647748e-05,2.7180665782707944e-05,1.945910149055313,0.0059508543168629493,-0.20442874096172442,-0.012307984422951859,6,4,2
1479607350,1.2616314369716257,42.338839813714934,-71.088241517585374,65.0,0.02102719061619376,1.4630664719224065e-05,4.007346046293946e-05,4.4559574868606282e-06,6.5027785564770637e-06,3.0410138280048438e-05,1.7917594692280547,0.0059474750120529184,-0.204575644357987,-0.012315337933493216,6,4,2
1479607380,1.8240174383030416,42.338834233995613,-71.08823825092577,65.0,0.030400290638384026,1.2322157828094671e-05,4.007346046293946e-05,6.0869245746082252e-06,1.1631973986288429e-05,2.9509539734073947e-05,1.945910149055313,0.006137658746753023,-0.20521983140285588,-0.012414206410784858,6,4,2
1479607410,0.8148602438587509,42.338826309674552,-71.088232953941926,65.0,0.013581004064312514,9.2511495400625161e-06,3.7333873925410774e-05,7.0084235563191197e-06,1.1520148304847508e-05,1.9613048594227841e-05,1.945910149055313,0.0061649248096560093,-0.20543562137014298,-0.01237084796826717,6,4,2
1479607440,0.66428683523378,42.33882514380668,-71.088227536125274,65.0,0.011071447253896333,6.0898968056480023e-06,2.5876039080819772e-05,7.0084235563191197e-06,1.1437127547712662e-05,1.8331258130989241e-05,1.7917594692280547,0.0060886027585366174,-0.2049668851350718,-0.012320674746277099,6,4,2
1479607470,2.7004277785422963,42.338833126524364,-71.088229001674705,65.0,0.04500712964237161,5.861481095739316e-06,2.6412751009706342e-05,1.0911813448200672e-05,1.4866611109533951e-05,2.3809491933466193e-05,1.945910149055313,0.0060411629281615521,-0.20419910325095741,-0.012378224670336887,6,4,2
1479607500,2.9036670493195262,42.338841964998153,-71.08823664771711,65.0,0.048394450821992105,6.4620785790665588e-06,2.6412751009706342e-05,8.8035087580956345e-06,1.0983970354684128e-05,2.1429019386459432e-05,1.945910149055313,0.0060498474332851748,-0.2040475264803947,-0.012375630749037872,6,4,2
1479607530,0.0,nan,nan,nan,0.0,6.5493561189434598e-06,2.2672494053110179e-05,2.2480184466939005e-06,9.3666633838636224e-06,1.6397551305636995e-05,1.7917594692280547,0.0060729736228294249,-0.2040461199514437,-0.012312580435369015,6,4,2
1479607560,0.18634718861296393,42.338858521284905,-71.088246294200928,65.0,0.0031057864768827322,9.292510668038145e-06,3.3282710822904468e-05,2.2480184466939005e-06,1.6036413087370524e-05,2.5607117292917282e-05,1.945910149055313,0.006124833012727181,-0.2044675730316047,-0.012350176808383314,6,4,2
1479607590,1.9952860118696547,42.338847054406969,-71.088241750433383,65.0,0.033254766864494245,8.9265416910025603e-06,3.3282710822904468e-05,3.3597841989827679e-06,1.6451377823314829e-05,2.5607117292917282e-05,1.945910149055313,0.0061321503822284601,-0.20512465247547929,-0.012369546639296115,6,4,2
1479607620,1.7369613796675691,42.338841516444369,-71.088238087677823,65.0,0.02894935632779282,1.2718071695765291e-05,4.0876830694001345e-05,3.3597841989827679e-06,6.5036169728738221e-06,2.0608529165307733e-05,1.7917594692280547,0.0060560659077491643,-0.20499062531601364,-0.012391126188194351,6,4,2
1479607650,0.8777239814720496,42.338844919786339,-71.088238693459289,65.0,0.014628733024534159,1.4036043988898079e-05,4.4043557206913942e-05,5.7690474493334851e-06,1.1013827280419912e-05,3.023374822877297e-05,1.945910149055313,0.0060521214627741529,-0.20446186901749155,-0.012383992571989999,6,4,2
1479607680,0.4323852402353391,42.338839144161184,-71.088237761984345,65.0,0.007206420670588984,1.0561979685416526e-05,4.4043557206913942e-05,1.3320329017344991e-05,1.6253674554890046e-05,2.6695327657427853e-05,1.945910149055313,0.0060859873075103099,-0.20447022977884585,-0.012344429833168415,6,4,2
1479607710,2.5576840521413486,42.338818211321588,-71.088225580999435,65.0,0.042628067535689144,8.3480592516436953e-06,3.3799989551311111e-05,1.4186016480439136e-05,1.5326959191253452e-05,2.9638172854839647e-05,1.7917594692280547,0.0061173912763827576,-0.20454631118184285,-0.012372992371699249,6,4,2
1479607740,0.22485699083852104,42.338819186981674,-71.08822610902331,65.0,0.0037476165139753506,9.3240969198825903e-06,3.3357264021690787e-05,4.2039671170732226e-06,1.3307185347630803e-05,2.6172288980775113e-05,1.945910149055313,0.006177427575306059,-0.21390066001172942,-0.011348262499829573,6,4,2
1479607770,2.1347321437433506,42.338828818191189,-71.08823584959984,65.0,0.035578869062389176,7.621852999103516e-06,2.851232925187588e-05,4.2039671170732226e-06,1.2154458685044927e-05,2.2159314947496355e-05,1.945910149055313,0.006186178331609604,-0.22084216106264615,-0.010621932554907116,6,4,2
1479607800,0.16689882531126496,42.338833918810785,-71.088241297406526,65.0,0.0027816470885210828,4.1863400689911862e-06,2.0486381185318356e-05,1.1052560965279359e-05,1.1368559625143188e-05,1.9358501596070899e-05,1.7917594692280547,0.006157814613037123,-0.22053827257291414,-0.010686622409046033,6,4,2
1479607830,2.1771221033523775,42.338835366816745,-71.088239878608448,65.0,0.03628536838920629,7.1387417241061037e-06,3.3721876312150554e-05,1.1052560965279359e-05,1.3235457031015502e-05,2.0039762383276039e-05,1.945910149055313,0.006190525973830084,-0.22053143221586571,-0.010628834683199171,6,4,2
1479607860,1.1795616261713946,42.338838034917671,-71.088238483206737,65.0,0.01965936043618991,8.297949237028858e-06,3.3721876312150554e-05,9.6996709253366735e-06,1.6604557568880483e-05,2.8686644063001624e-05,1.945910149055313,0.0062271304432349054,-0.22052544557693571,-0.010606374791505755,6,4,2
1479607890,0.5422991517960418,42.338836742340867,-71.088234548664602,65.0,0.009038319196600697,9.2863514099344382e-06,3.3179753774365356e-05,8.0582842611287769e-06,1.0315637512658178e-05,2.4852419980966544e-05,1.7917594692280547,0.0062317676127982601,-0.21984912884104821,-0.010547130338864117,6,4,2
1479607920,0.3073983353845807,42.338830178125313,-71.088231711848934,65.0,0.005123305589743012,5.4783970746560763e-06,2.5072048524076094e-05,7.1503471803117069e-06,9.64950499676902e-06,1.3801383288628377e-05,1.945910149055313,0.0062173824190802779,-0.21951389356856499,-0.010561892901569699,6,4,2
1479607950,0.398910894246094,42.338834195672511,-71.088237560053244,65.0,0.0066485149041015665,7.9829991273408464e-06,3.4228639660063448e-05,7.1503471803117069e-06,1.2236192154343052e-05,1.5537741850016503e-05,1.945910149055313,0.0062084890454876486,-0.21970904248204018,-0.010573877882999985,6,4,2
1479607980,0.5003730032575129,42.338840660713018,-71.088242629318529,65.0,0.008339550054291881,8.5874900430292852e-06,3.4228639660063448e-05,7.2740062830882381e-06,1.169273003606598e-05,1.6058992086932572e-05,1.7917594692280547,0.0061935421603626266,-0.21948362913276365,-0.010572871177948433,6,4,2
1479608010,5.168056457693296,42.338845612454342,-71.088267508069436,82.29647127787274,0.08613427429488826,3.8059565062757821e-06,1.8593701317882748e-05,7.2740062830882381e-06,1.1011425737129468e-05,1.5680780759787567e-05,1.945910149055313,0.00615402678265114,-0.21978928174601942,-0.010646995784583771,6,4,2
1479608040,6.017622872550458,42.338850847293685,-71.088288388728074,97.336678504943848,0.10029371454250763,4.4108468952495873e-06,2.3839849287794141e-05,1.0759025833391248e-05,1.4338362141498693e-05,2.03370716446342e-05,1.945910149055313,0.0061909223512096523,-0.22031078219956418,-0.010635640307150472,6,4,2
1479608070,11.732397423753154,42.338847476887452,-71.088281829490583,95.17516389392766,0.19553995706255256,2.7921537127055263e-06,2.3839849287794141e-05,1.628925136023622e-05,1.6936933439675305e-05,2.1597016860986667e-05,1.7917594692280547,0.006267904450641599,-0.22015689423784868,-0.010605876336804066,6,4,2
1479608100,5.378657351566214,42.338818225996775,-71.088223787867847,68.189068447627449,0.08964428919277023,3.2027617111258142e-06,2.0146741529789727e-05,1.123681965774083e-05,1.3964790243847526e-05,1.8466849922412366e-05,1.945910149055313,0.0062738681678660962,-0.2202630092133667,-0.010602489360069457,6,4,2
1479608130,6.40584206453538,42.338829352570507,-71.088227728693653,65.0,0.106764034408923,7.4583674514127687e-06,3.3194196977314147e-05,1.0515111790135857e-05,1.1414787309757593e-05,1.7268051242384777e-05,1.945910149055313,0.0062989322552380643,-0.22075579076236956,-0.010705836568360785,6,4,2
1479608160,1.3268541234063775,42.338843706505415,-71.088238207135788,65.0,0.022114235390106294,7.4757973922254924e-06,3.3194196977314147e-05,1.0515111790135857e-05,1.2627158553424482e-05,1.8790106238534999e-05,1.7917594692280547,0.0063801466322890568,-0.22090871136473447,-0.010774607289126751,6,4,2
1479608190,0.3307093104797317,42.338826931216367,-71.088232193993889,96.15384615384616,0.005511821841328862,6.6851585897617363e-06,2.953891446282147e-05,9.277766309490914e-06,1.3268190608512576e-05,2.2163220424285569e-05,1.945910149055313,0.0063741779782863859,-0.22077038265455509,-0.010733471789007585,6,4,2
1479608220,0.09522258619530244,42.33883032658612,-71.088237119342992,132.5,0.0015870431032550406,9.0371354318465744e-06,2.953891446282147e-05,3.049828965612589e-06,1.0513258507697506e-05,2.5160171405629588e-05,1.945910149055313,0.0063620249255341276,-0.22071003755066115,-0.010742909755075613,6,4,2
1479608250,1.3036017738078383,42.338843273393238,-71.088251367941297,146.0,0.021726696230130637,1.1515611323152241e-05,3.7772741806574531e-05,3.049828965612589e-06,9.9321288514261506e-06,2.4556916103970613e-05,1.7917594692280547,0.0063772526488076351,-0.22059428124223321,-0.010710260873985569,6,4,2
1479608280,3.385545930197363,42.338826260976347,-71.088241056524026,116.92307692307692,0.056425765503289385,1.0948639973322843e-05,3.7772741806574531e-05,7.5414889620387061e-06,1.3164478489612246e-05,2.9754963687053402e-05,1.945910149055313,0.0063518921122489675,-0.22043333112705657,-0.010743930750479242,6,4,2
1479608310,0.31609372725719315,42.338811931449051,-71.088223338939713,65.0,0.005268228787619886,7.803139192171003e-06,3.6264162712108283e-05,1.2198495115815032e-05,1.3164478489612246e-05,1.8577193511199718e-05,1.945910149055313,0.006316990547948465,-0.22062584493055673,-0.010764948064494042,6,4,2
1479608340,0.7980406885674409,42.338825866076562,-71.088232964501898,65.0,0.013300678142790682,6.9313060920506099e-06,3.1852796053457608e-05,1.2198495115815032e-05,1.6582297169839102e-05,2.716131746296892e-05,1.7917594692280547,0.0063295804472458155,-0.22083565029933569,-0.010741706657694784,6,4,2
1479608370,0.266624390986897,42.338825022627631,-71.088230928798453,65.0,0.004443739849781617,3.7188648798225938e-06,3.1852796053457608e-05,2.1047843557769057e-05,2.179659619591579e-05,2.6887285114654022e-05,1.945910149055313,0.006340968784677819,-0.22042164613050244,-0.010754246859493987,6,4,2
1479608400,0.2705576451112006,42.338825618416735,-71.088231680852942,65.0,0.004509294085186677,2.9172508765630665e-06,2.2644884659813374e-05,1.5366552603500941e-05,1.6505453162529933e-05,2.179659619591579e-05,1.945910149055313,0.0063364905084420092,-0.22009418521537624,-0.0107378246099373,6,4,2
1479608430,0.23686606171022126,42.338831754567572,-71.088235032659654,65.0,0.003947767695170354,8.7484573019983149e-06,4.0267373865636894e-05,1.5366552603500941e-05,1.6197063715265032e-05,2.3436073974235124e-05,1.7917594692280547,0.0063759703756141144,-0.21988826192791214,-0.010765498685118601,6,4,2
1479608460,0.4259035578773686,42.338832454251765,-71.088234700634004,65.0,0.007098392631289477,2.4853014965136847e-05,8.8348005359234935e-05,8.8605809269541648e-06,1.6839854342085059e-05,3.3382773601431774e-05,1.945910149055313,0.0062853512041159982,-0.219874540203679,-0.0107088302060844,6,4,2
1479608490,0.02749408522524862,42.338829878413804,-71.088234517273122,65.0,0.00045823475375414365,2.5876908707012345e-05,8.8348005359234935e-05,8.8605809269541648e-06,1.2008942903580382e-05,2.7481328413502634e-05,1.945910149055313,0.0061906824952799372,-0.22018081470453627,-0.010683910659696275,6,4,2
1479608520,2.347457403840489,42.338837398105028,-71.088234592415219,65.0,0.03912429006400815,6.1526901195344437e-06,2.8464483489778619e-05,1.0277748863387827e-05,1.1859397616509399e-05,1.4177148989382121e-05,1.7917594692280547,0.0061196035654760067,-0.22077813788138881,-0.010797384868725517,6,4,2
1479608550,0.23701025211152643,42.338835819319826,-71.088230955856702,65.0,0.00395017086852544,6.7477965424857636e-06,2.8904222784347058e-05,5.8393088477087376e-06,1.039929556506509e-05,1.5019013759080665e-05,1.945910149055313,0.0061192745596114232,-0.22075175614265957,-0.010858633124604286,6,4,2
1479608580,2.3658469149589005,42.338828272610456,-71.088228677856094,65.0,0.03943078191598168,8.702992003407911e-06,2.9996460406000432e-05,5.8393088477087376e-06,1.0274818396439672e-05,2.2133593507739858e-05,1.945910149055313,0.0061091743463371042,-0.22067418232311314,-0.010863191841840116,6,4,2
1479608610,0.5571677577147311,42.338835017844389,-71.088234150663496,65.0,0.00928612929524552,9.577130932255572e-06,3.8161229227318025e-05,1.0028794526136992e-05,1.5496813215831838e-05,2.7459994932084886e-05,1.7917594692280547,0.0060950461252165704,-0.22080446211246033,-0.01083413311108785,6,4,2
1479608640,2.057480626170696,42.338829861677212,-71.088227460210788,65.0,0.0342913437695116,8.5165439868348965e-06,3.8161229227318025e-05,1.0467512655319658e-05,1.7196866119741678e-05,2.2549642312106599e-05,1.7917594692280547,0.0061239340317749179,-0.22113007912364049,-0.010812151849887682,6,4,2
1479608670,0.5691399833167683,42.338799361838056,-71.088214751522585,65.0,0.009485666388612805,8.3494997009674069e-06,3.6360726042061078e-05,1.0467512655319658e-05,1.7116974265418853e-05,2.7323300103688308e-05,1.945910149055313,0.0061958482474054012,-0.22225664705303158,-0.010542798605745873,6,4,2
1479608700,1.669856691000331,42.338796855661656,-71.088218789778551,65.0,0.027830944850005517,8.0698882426679574e-06,3.6360726042061078e-05,1.4351512219189776e-05,1.8427244130485865e-05,3.2309100256435578e-05,1.945910149055313,0.0062216526646599124,-0.22263910082499341,-0.010286723630994856,6,4,2
1479608730,1.8521598465494458,42.338828188124651,-71.088235665626314,65.0,0.030869330775824096,7.959572780279647e-06,3.3410311284420692e-05,1.3381342326878627e-05,1.5972302287358352e-05,3.0523187399427043e-05,1.7917594692280547,0.0061634512100897836,-0.22239990648623931,-0.010184620377245416,6,4,2
1479608760,1.1474907285491482,42.338838658298329,-71.088239717746703,65.0,0.01912484547581914,6.7117555304441156e-06,3.2516639531345306e-05,1.1423142755841411e-05,1.4338581722394682e-05,2.1827553135189083e-05,1.945910149055313,0.0060856768263759719,-0.22249899418617686,-0.010137840518560301,6,4,2
