TIMESTAMP,DISTANCE,AVG_LAT,AVG_LNG,GPS_ACCURACY,AVG_SPEED_BY_GPS,ACCLERATOR_STD,MAX_ACCLERATOR,MIN_ACCLERATOR,PERCENTILE_25_ACCLERATOR,PERCENTILE_75_ACCLERATOR,ACCLERATOR_ENTROPY,AVG_ROLL,AVG_YAW,AVG_PITCH,WEEK_DAY,LABEL1,LABEL2
1479425280,1.166370426573007,42.338836892174427,-71.088399287165785,79.28534343121251,0.019439507109550117,0.0017397427815898363,0.0048663165438660953,1.9590555071329941e-05,0.00011182414972535587,0.00053537631410766561,1.7917594692280547,0.037058591059910016,2.7242510199936967,0.045971609220264581,4,12,22
1479425310,1.3490282378359593,42.338832992559688,-71.088391301607103,65.0,0.022483803963932656,0.00019548981684326379,0.00063852699933408081,3.08545091019103e-05,6.8585901057333152e-05,0.00014173007174659224,1.945910149055313,0.046062428949852678,2.7976759073496344,0.021292103796050271,4,12,22
1479425340,3.6225692371648908,42.338833216153503,-71.088387246740083,65.0,0.06037615395274818,2.6356422190131677e-05,0.0001211683628659533,3.08545091019103e-05,5.2266956622679106e-05,6.8673765747331034e-05,1.945910149055313,0.046534031761219799,2.7978907924324981,0.022335466578787874,4,12,22
1479425370,2.9126438385412863,42.338835973375865,-71.088386804673391,65.0,0.048544063975688105,1.4443336977954435e-05,8.8720039140692794e-05,4.2607336824298555e-05,5.3488244355602579e-05,6.691337756936896e-05,1.7917594692280547,0.0471809267127715,2.7985602100580866,0.022531671937575517,4,12,22
1479425400,4.3868213318174964,42.338835361930528,-71.088397488852948,65.0,0.07311368886362495,2.7540199410100263e-05,0.00013937081400874833,5.2292537931680184e-05,6.4829815002725815e-05,9.6032213606893815e-05,1.945910149055313,0.047455996432872703,2.7986954887963975,0.022855648458007697,4,12,22
1479425430,0.3996060140925528,42.338839291294022,-71.088411785852188,65.0,0.00666010023487588,3.3330089267864952e-05,0.00013937081400874833,2.828455251410212e-05,6.1152534917807545e-05,9.4965684279575395e-05,1.945910149055313,0.047314162815811578,2.7987789104363174,0.022981928187210232,4,12,22
1479425460,2.8909871549676653,42.338839844899127,-71.088407755981493,65.0,0.04818311924946109,1.3909841164830883e-05,7.556622708363571e-05,2.828455251410212e-05,4.5424382036104795e-05,5.0316402518587943e-05,1.7917594692280547,0.047169661905616445,2.7989015853408898,0.023217981853353536,4,12,22
1479425490,2.485254864967104,42.338830593265868,-71.088393742979278,65.0,0.0414209144161184,2.1827386908386964e-05,0.00010801471963766264,4.3992241562295315e-05,5.0252296348620955e-05,7.9908782553907344e-05,1.945910149055313,0.047434023036897192,2.7986980489923212,0.023613447368605999,4,12,22
1479425520,0.330153576919022,42.338831328656156,-71.088392914665263,65.0,0.005502559615317033,1.9712218418635575e-05,0.00010801471963766264,4.8176825906000472e-05,5.2737496818042198e-05,7.9908782553907344e-05,1.945910149055313,0.047419850117813564,2.7984456056365787,0.0236615662804785,4,12,22
1479425550,0.3671932100628054,42.338830593058297,-71.088392961486562,65.0,0.00611988683438009,9.0528638372213172e-06,7.2561867962860126e-05,4.7583543165388306e-05,4.9563856185234113e-05,6.3111838465961984e-05,1.7917594692280547,0.046256117727185374,2.8160969163506082,0.022954382692996433,4,12,22
1479425580,1.0231810256656666,42.338825159862381,-71.088390597918732,65.0,0.01705301709442778,1.1630491530569238e-05,7.2571615666263718e-05,3.7205306291929591e-05,4.5240358448979016e-05,6.0751763934028871e-05,1.945910149055313,0.044635129721506621,2.8415871048827417,0.022149325711917373,4,12,22
1479425610,2.2171116377592717,42.338828337568813,-71.088392914239449,65.0,0.036951860629321195,1.8686037132208106e-05,7.2571615666263718e-05,4.2661688584115092e-06,3.531225881487985e-05,4.5240358448979016e-05,1.945910149055313,0.043757775966008015,2.8701395708153643,0.021443278444707871,4,12,22
1479425640,1.2083183265436184,42.338834876164931,-71.088399513454462,65.0,0.020138638775726973,1.4716683043464546e-05,4.060899784587494e-05,2.3563844350906151e-06,5.0067147265745612e-06,2.9854859054211812e-05,1.7917594692280547,0.043342443942655601,2.9021827638346323,0.020551690913530301,4,12,22
1479425670,1.5863813531599653,42.338836189445026,-71.088397842063685,65.0,0.026439689219332756,6.5467274805320037e-06,2.2608096279817904e-05,2.3563844350906151e-06,9.7076813227636951e-06,1.8370233446285555e-05,1.945910149055313,0.043594960972328227,2.9041349278384629,0.020331786035131198,4,12,22
1479425700,3.7753785562983913,42.33883557182412,-71.088395088067529,65.0,0.06292297593830652,8.7085260258060946e-06,3.9254760521918811e-05,1.2187010314463673e-05,1.4183459116297866e-05,2.0093380484516038e-05,1.945910149055313,0.043612718023670442,2.9045145691117957,0.0203755473773168,4,12,22
1479425730,0.23087222843267946,42.33883826746888,-71.088398931677347,65.0,0.003847870473877991,1.3535323737422458e-05,3.9254760521918811e-05,2.5273071092510671e-06,1.0460646538460937e-05,3.0493676086150861e-05,1.7917594692280547,0.043582557464730103,2.9051243846120567,0.020740212611808733,4,12,22
1479425760,0.23298040354723393,42.338839287497514,-71.088401112866052,65.0,0.003883006725787232,2.589888812698366e-05,8.1839071057310332e-05,2.5273071092510671e-06,7.5894980155869685e-06,2.8504804797302643e-05,1.945910149055313,0.043545722801273209,2.9061480122122547,0.020824059808551558,4,12,22
1479425790,1.272895793053634,42.338841476728575,-71.088404956110566,65.0,0.021214929884227234,2.517756705948666e-05,8.1839071057310332e-05,5.7392827684362122e-06,8.187817418698333e-06,2.7699986347670607e-05,1.945910149055313,0.043432538546983902,2.9065883350127444,0.020958980837368628,4,12,22
1479425820,1.6186041091310528,42.338841058505878,-71.088400403713763,65.0,0.026976735152184215,9.5722218212766053e-06,3.4100773926615355e-05,6.4928952899142207e-06,1.2040955225272491e-05,2.5075794174286121e-05,1.7917594692280547,0.042941150961572645,2.9059061582290582,0.021606585528567337,4,12,22
1479425850,0.720684006482337,42.338838517113011,-71.088394143148946,65.0,0.01201140010803895,1.8692194932381079e-05,7.0113550464986389e-05,1.2289674200476338e-05,1.5513709618213324e-05,2.9108724350302056e-05,1.945910149055313,0.042603760507152769,2.9053882597195875,0.021925415729692584,4,12,22
1479425880,1.2916083773760008,42.338838276589691,-71.088396792114608,65.0,0.021526806289600013,2.3520831632801823e-05,7.0113550464986389e-05,9.7624796396247779e-06,1.5513709618213324e-05,6.0056475445064004e-05,1.945910149055313,0.042820528916843466,2.9053174393030798,0.021829309475679574,4,12,22
1479425910,0.5911597810183404,42.338836388420454,-71.088400945391371,65.0,0.009852663016972341,5.5426128013817362e-05,0.00017308516681474251,9.7624796396247779e-06,1.9816987348258231e-05,6.025135920427247e-05,1.7917594692280547,0.04286798949519232,2.9056403656456253,0.021683659012400849,4,12,22
1479425940,2.1988585344243052,42.338835115675451,-71.088400843050152,65.0,0.036647642240405086,5.4290629650602698e-05,0.00017308516681474251,4.5025382572722566e-06,1.9276885172056807e-05,2.5832119820586612e-05,1.945910149055313,0.042506863202879934,2.9067896762083785,0.021997195469062657,4,12,22
1479425970,2.827671502617161,42.338835575144614,-71.088391088688255,65.0,0.04712785837695268,2.2177486646686163e-05,8.0979135947371563e-05,4.5025382572722566e-06,2.0019354659085058e-05,3.1433760505090091e-05,1.945910149055313,0.042304757535341686,2.9071007855403748,0.022429546017680341,4,12,22
1479426000,0.3628760266088196,42.33883448061038,-71.088382842380582,65.0,0.00604793377681366,2.1961040375757681e-05,8.0979135947371563e-05,1.2817855251074401e-05,2.2371365340272215e-05,3.8117067286709625e-05,1.7917594692280547,0.042275883006045345,2.9063016519951028,0.022709852795819271,4,12,22
1479426030,0.19257617880315753,42.338832212394678,-71.088382783356693,65.0,0.0032096029800526256,8.083062992011242e-06,4.0229641576862841e-05,1.2817855251074401e-05,1.8181237572422046e-05,2.185719375204146e-05,1.945910149055313,0.04247478606846132,2.9058396529498154,0.02281877941358924,4,12,22
1479426060,2.773281131867391,42.338834730862139,-71.088394441063613,65.0,0.046221352197789854,4.6275161103782599e-06,2.7542112016751931e-05,1.248780899478882e-05,1.6647470655528038e-05,2.185719375204146e-05,1.945910149055313,0.042584828398269998,2.9063624251414129,0.022854761643372027,4,12,22
1479426090,1.259143203881724,42.33883283071647,-71.088394172220461,65.0,0.0209857200646954,4.9416957960787004e-06,2.7542112016751931e-05,1.248780899478882e-05,1.5067666386468657e-05,2.0079252966998144e-05,1.7917594692280547,0.042619836536679188,2.9072440604773502,0.022551281470858536,4,12,22
1479426120,2.2469763470349964,42.338835372952403,-71.088384394445285,65.0,0.03744960578391661,8.1015154968212371e-06,3.7803230052716152e-05,1.155683827426947e-05,1.4600094429329833e-05,1.9165797012595828e-05,1.945910149055313,0.042671253854070168,2.9073929378262116,0.021879915936550826,4,12,22
1479426150,0.6104708133228715,42.338840588398782,-71.088394633044246,65.0,0.01017451355538119,8.4753685819321814e-06,3.7803230052716152e-05,1.155683827426947e-05,1.3387288520599216e-05,2.1487159778324305e-05,1.945910149055313,0.042735097157521329,2.9072742445593325,0.021458224941903414,4,12,22
1479426180,3.0788331418633446,42.338834849353404,-71.088392667593538,65.0,0.05131388569772241,0.00030167102643727109,0.00083041883997890921,1.250649576452778e-05,2.019987803058208e-05,2.4988172156981073e-05,1.7917594692280547,0.043430513538100825,2.90603211275163,0.019994087271164914,4,12,22
1479426210,2.606155142577032,42.338829713042415,-71.088381562748765,65.0,0.043435919042950535,0.00028480559078668439,0.00083041883997890921,9.4682199218435364e-06,1.212954594154643e-05,2.4850274373682473e-05,1.945910149055313,0.043331910785047487,2.9018107882968116,0.020544951926162517,4,12,22
1479426240,3.770262707187777,42.338831324081134,-71.088384377920804,65.0,0.06283771178646295,1.6229290011065835e-05,5.4481687538451555e-05,1.6140907356143484e-06,9.8936708215186931e-06,2.247749366689215e-05,1.945910149055313,0.042767146418687153,2.9000012896511338,0.022084427944274398,4,12,22
1479426270,0.6034701532702087,42.338834915450654,-71.088389685264957,65.0,0.010057835887836812,1.7344259391332854e-05,5.4481687538451555e-05,1.6140907356143484e-06,1.7690422242469316e-05,3.9366224100021352e-05,1.7917594692280547,0.042786596818337935,2.9004576941836313,0.022113871145847185,4,12,22
1479426300,1.3629639790666792,42.338835915956295,-71.088393966666175,65.0,0.022716066317777988,8.5397253285499744e-06,4.0279548826842031e-05,1.4166025607722837e-05,2.3929557042182313e-05,3.5128816587278285e-05,1.945910149055313,0.042787570030859756,2.9002536386278157,0.022381978861526826,4,12,22
1479426330,3.784240955068429,42.338836451893727,-71.088399392023106,65.0,0.06307068258447382,8.3419818052680672e-06,3.3631383254997241e-05,1.0088680715060163e-05,1.5909089125455957e-05,2.9487002118718348e-05,1.945910149055313,0.042806321127115403,2.9001188817517169,0.022397907415249017,4,12,22
1479426360,2.5049886571147932,42.338833731999202,-71.088393108695186,65.0,0.04174981095191322,3.8059047036681765e-06,2.0203191373266358e-05,1.0088680715060163e-05,1.1094107477884329e-05,1.7353142115529558e-05,1.7917594692280547,0.042895086968678636,2.9002391815709534,0.021934287082935666,4,12,22
1479426390,1.2476461956328588,42.338840010477007,-71.088390771715609,65.0,0.020794103260547647,9.4042151352005376e-06,3.9702849379471061e-05,1.0354223873681842e-05,1.2130866085663098e-05,2.0197888981262515e-05,1.945910149055313,0.042924230764695162,2.9006029376003259,0.022199449358978225,4,12,22
1479426420,1.6560468783659748,42.33884483248886,-71.088398170346139,65.0,0.027600781306099578,1.1553412969000441e-05,4.106860249398143e-05,1.036242359046833e-05,1.4106231175252579e-05,3.187001883145648e-05,1.945910149055313,0.042808359091754129,2.9004736736010699,0.022486166755319843,4,12,22
1479426450,0.7839823280770035,42.33884101167645,-71.088402813808472,65.0,0.013066372134616725,1.1505504973655582e-05,4.106860249398143e-05,6.0842036914386606e-06,1.2308126152107476e-05,2.4976970914626955e-05,1.7917594692280547,0.042816597534063201,2.9003624240963837,0.022613027878871001,4,12,22
1479426480,1.4589601451288483,42.338836299128388,-71.088400437419523,65.0,0.02431600241881414,7.6543072245108257e-06,2.9245218565644521e-05,6.0842036914386606e-06,1.2594301033857887e-05,2.3968559352670906e-05,1.945910149055313,0.042917129158850743,2.9002997455589892,0.022536766421790557,4,12,22
1479426510,0.36109474599798336,42.338831915147594,-71.088400116957487,65.0,0.006018245766633056,7.6279436439888079e-06,3.3231080170055681e-05,1.3072002976960561e-05,1.7747666371449135e-05,3.1105223891015693e-05,1.945910149055313,0.043144082972745752,2.9003100192865445,0.022394689451657842,4,12,22
1479426540,3.081905676475138,42.338828673408528,-71.088392054229487,65.0,0.051365094607918965,7.4729811857752817e-06,3.3231080170055681e-05,1.1628143949413012e-05,2.1586588277629951e-05,3.1517216777492607e-05,1.7917594692280547,0.043768257379856929,2.9009451323854001,0.021669562774115716,4,12,22
1479426570,2.3712551154226755,42.338825976493766,-71.088380782852354,65.0,0.03952091859037792,4.8444398443901115e-05,0.00015522228500471484,1.0509798847858274e-05,1.3410777049541847e-05,2.6027482032421113e-05,1.945910149055313,0.043927947060569295,2.9007791770611102,0.0209464738987582,4,12,22
1479426600,1.1718618288952622,42.338824012600917,-71.088376125124469,65.0,0.019531030481587705,5.0265087232183005e-05,0.00015522228500471484,1.0509798847858274e-05,1.3748296361601803e-05,7.473958674827909e-05,1.945910149055313,0.043930826586958696,2.9004196783697105,0.020732874596377626,4,12,22
1479426630,1.4274903577906042,42.338827914455209,-71.088384786298661,65.0,0.023791505963176737,2.6515225108504865e-05,8.3190838144399853e-05,1.2303182573532924e-05,1.78192947299216e-05,5.7124617812556719e-05,1.7917594692280547,0.044070536913350444,2.9007573087196086,0.020324190906920701,4,12,22
1479426660,2.2215131056836506,42.338831380783603,-71.08838513974581,65.0,0.03702521842806084,7.0433213574909473e-06,2.9633465193751886e-05,9.5170202578977802e-06,1.444366399133796e-05,2.3923460983314747e-05,1.945910149055313,0.044158729419895272,2.9007613282863574,0.020310040987215217,4,12,22
1479426690,1.1232866181073786,42.33882966731241,-71.088379939731567,65.0,0.018721443635122976,6.4005315171591009e-05,0.0002009586681835881,9.5170202578977802e-06,1.6052093471169974e-05,2.6870376288809884e-05,1.945910149055313,0.044154286601694882,2.9005660488171698,0.020654562865099684,4,12,22
1479426720,0.6078475413361397,42.338831073631454,-71.088380419200035,65.0,0.010130792355602328,6.6039662247374732e-05,0.0002009586681835881,1.7752490917461127e-05,1.9305624218227894e-05,3.2812669313651313e-05,1.7917594692280547,0.04417390101926072,2.9006279234988015,0.02057257526498232,4,12,22
1479426750,2.385515859795354,42.338832920184224,-71.088385226376417,65.0,0.039758597663255894,8.0644988729712452e-05,0.00025116237870021971,1.6216194174272664e-05,1.7454577002646732e-05,2.8608833441661234e-05,1.945910149055313,0.04438377514413476,2.9006142381617197,0.020236222381852687,4,12,22
1479426780,2.3505244507412493,42.3388363060701,-71.088402599941816,65.0,0.039175407512354155,8.0998779649597946e-05,0.00025116237870021971,1.3237723505511433e-05,1.6686428631052502e-05,2.486591329652156e-05,1.945910149055313,0.04432698815777452,2.9003619764794841,0.020538247637797713,4,12,22
1479426810,5.6777322098738,42.338831717638492,-71.088389554816487,65.0,0.09462887016456333,1.1827418119605942e-05,5.030331738147607e-05,1.3237723505511433e-05,2.4009304987107333e-05,3.5635760811852788e-05,1.7917594692280547,0.044019161748512947,2.9002300449236902,0.021526111231816331,4,12,22
1479426840,1.1727047502801067,42.338825679238518,-71.088370688904703,65.0,0.019545079171335113,1.1228412943000308e-05,5.030331738147607e-05,1.7049702701655198e-05,1.9294698364528413e-05,3.2777766259939697e-05,1.945910149055313,0.044086049227940079,2.9009507556752787,0.021852022661524952,4,12,22
1479426870,4.952840110840265,42.338832376024975,-71.088382898405769,65.0,0.08254733518067109,1.3700966864748126e-05,5.9058769923642659e-05,1.7049702701655198e-05,1.8696414099538698e-05,2.6219761100535942e-05,1.945910149055313,0.044183413844717169,2.9012582447273698,0.021320595663335044,4,12,22
1479426900,0.4896807458292995,42.338835605111832,-71.088393008838636,65.0,0.008161345763821657,3.5197170395584404e-05,0.00011812709938473832,1.7490035622073119e-05,2.0571782897123954e-05,5.9747817727202746e-05,1.7917594692280547,0.044075680143817235,2.9006140881665132,0.020750503497474499,4,12,22
1479426930,2.057847836296418,42.338835606427246,-71.088390451683736,65.0,0.03429746393827363,3.4762112953953804e-05,0.00011812709938473832,1.4422360008373324e-05,2.0364548916484352e-05,4.2219295444389497e-05,1.945910149055313,0.044120481450120839,2.9000105757088686,0.020736606418545071,4,12,22
1479426960,0.22433732648118448,42.338834165822604,-71.088388039069244,65.0,0.0037389554413530747,4.4299307292660968e-06,2.4461090560389555e-05,1.2396124757153643e-05,1.7149283525384761e-05,2.3361317660964829e-05,1.945910149055313,0.044202249538799712,2.8999188645927374,0.020790360047922247,4,12,22
1479426990,0.3236864339851803,42.338830717052048,-71.088388473208212,65.0,0.005394773899753005,0.0012453279204795626,0.0033643495679217218,1.2396124757153643e-05,2.0514982473596426e-05,3.1617720521208736e-05,1.7917594692280547,0.04403117983306342,2.8999998259177446,0.02093731750486583,4,12,22
1479427020,0.3834498714947254,42.338830549340372,-71.088386931064917,65.0,0.006390831191578757,0.0011568074435589243,0.0033643495679217218,1.5325247355932029e-05,2.1674506026477766e-05,0.00045490130737933966,1.945910149055313,0.037393444693190635,2.9004256656799501,0.024349872433119285,4,12,22
1479427050,1.149417877345136,42.338829753260342,-71.088383487558772,65.0,0.019156964622418934,0.000298074162762334,0.00087628403382349648,1.5325247355932029e-05,1.7521099527412144e-05,3.7416442113882473e-05,1.945910149055313,0.036684472430493074,2.8997193418483258,0.024700460920594944,4,12,22
1479427080,0.14341864670608961,42.338827027576563,-71.088378832849529,65.0,0.002390310778434827,1.8750867543268603e-05,6.8415013133453202e-05,1.3306619170821833e-05,1.9177666705589224e-05,3.7528709586469536e-05,1.7917594692280547,0.042188511052542586,2.8983925020826802,0.021903637384664932,4,12,22
1479427110,1.612296123949059,42.338830662960405,-71.088377542353484,65.0,0.026871602065817648,1.8164831133064188e-05,6.8415013133453202e-05,1.3202720400869164e-05,1.4370204806793598e-05,2.2327476660335875e-05,1.945910149055313,0.04216728344293804,2.8980189515228463,0.021893688977141026,4,12,22
1479427140,3.357363140870013,42.338835874516541,-71.08838758876783,65.0,0.055956052347833546,6.4798101459447425e-06,3.2622852215225073e-05,1.3202720400869164e-05,1.7176742450460171e-05,2.5585358276390407e-05,1.945910149055313,0.042222590266213507,2.8982383211155072,0.021871167174994828,4,12,22
1479427170,1.959407510753605,42.338834600440471,-71.088389528515933,65.0,0.032656791845893415,6.5338823534416049e-06,3.2622852215225073e-05,1.3425666979868594e-05,2.282068751507047e-05,3.0848393036063216e-05,1.7917594692280547,0.042252852567572767,2.8991303035172629,0.021854147109733518,4,12,22
1479427200,3.254795161447787,42.338830937760207,-71.088385570734189,65.0,0.05424658602412978,7.2519164251107019e-06,3.266525910634841e-05,1.3425666979868594e-05,2.0187990306277989e-05,3.1511575727452979e-05,1.945910149055313,0.042165196918026913,2.8991897593392153,0.022143835603142186,4,12,22
1479427230,2.1191466772064538,42.33883563450118,-71.088390027592396,65.0,0.03531911128677423,1.8820388258551878e-05,7.5884018726356126e-05,1.5482268461030558e-05,2.1619448079087168e-05,3.211878279822871e-05,1.945910149055313,0.042152846570292897,2.898565910417449,0.022207422230526557,4,12,22
1479427260,2.4801518688781328,42.338841011421025,-71.08839287479185,65.0,0.04133586448130221,2.3972189667926442e-05,7.5884018726356126e-05,1.5551095346423909e-05,1.999040932588735e-05,5.8157230874474431e-05,1.7917594692280547,0.042415138832226591,2.8981984275479697,0.021488147421249649,4,12,22
1479427290,2.5773809985993132,42.338842038026556,-71.088399679129822,65.0,0.04295634997665522,1.9203440629002007e-05,6.7791046994519281e-05,9.5767842798051088e-06,1.2905095701601157e-05,3.2802885351918665e-05,1.945910149055313,0.042749590853401943,2.89890656963173,0.020981808580903958,4,12,22
1479427320,4.550736321594741,42.338845444122548,-71.088410636576398,65.0,0.07584560535991235,5.1252906860506966e-05,0.00016234563966435289,9.5767842798051088e-06,1.1112503967668769e-05,3.00139499600061e-05,1.945910149055313,0.042971376761535625,2.8977259240802047,0.020896250919389025,4,12,22
1479427350,3.174507501462572,42.338844865697133,-71.088405540882604,65.0,0.052908458357709534,5.3936297693959334e-05,0.00016234563966435289,1.0072278712592096e-05,1.3882815172805944e-05,2.6402040063574131e-05,1.7917594692280547,0.043190866175057491,2.8956364144651268,0.020707478646121918,4,12,22
1479427380,6.975436316898486,42.338837837428699,-71.088384447141749,65.0,0.11625727194830811,8.4646245358251337e-06,3.9092032390016245e-05,1.0072278712592096e-05,1.7974853500398132e-05,2.512915432499094e-05,1.945910149055313,0.04324167496440956,2.8954948199533201,0.020600427302366019,4,12,22
1479427410,1.5490326849693634,42.338833317819912,-71.088371284210297,65.0,0.025817211416156057,8.3066013181369628e-06,3.9092032390016245e-05,1.668744442719678e-05,1.7974853500398132e-05,3.0401139803296539e-05,1.945910149055313,0.043279920142436944,2.8951894348115985,0.020460479713438885,4,12,22
1479427440,1.2693897934685179,42.338834051398443,-71.088376543384314,65.0,0.021156496557808633,8.488911566859159e-06,3.5592524177061796e-05,8.7981554271408922e-06,1.5414499808942682e-05,2.4227459745214694e-05,1.7917594692280547,0.043194891353381636,2.894969332934465,0.020456307648276533,4,12,22
1479427470,0.9700622367132148,42.338834058005155,-71.088380883493812,65.0,0.016167703945220248,6.1295987307593083e-06,2.7471519199904632e-05,8.7981554271408922e-06,1.192488263408184e-05,1.8875014895950296e-05,1.945910149055313,0.043256121325902633,2.8957801063663386,0.020441740071863258,4,12,22
1479427500,0.1317867342727399,42.33883324809122,-71.088380921495272,65.0,0.0021964455712123318,5.3308000429593317e-05,0.00016869005906675912,8.8595803319723639e-06,1.5285654729973769e-05,2.3262488188736681e-05,1.945910149055313,0.04345286590425057,2.8965206691922458,0.020348256123943569,4,12,22
1479427530,0.3208839096167318,42.338834828599317,-71.088379699043131,65.0,0.005348065160278863,5.4584044107176954e-05,0.00016869005906675912,1.4386960927531611e-05,1.9200788926919275e-05,3.6411798252513942e-05,1.7917594692280547,0.043484934405447762,2.8964155603203703,0.020402909754452751,4,12,22
1479427560,1.1831185293236917,42.338842921387119,-71.088390471624422,65.0,0.01971864215539486,7.9257678239785715e-06,4.3333389167353535e-05,1.9642784174970922e-05,2.5422864264315342e-05,3.3909475634775587e-05,1.945910149055313,0.043440160638701313,2.8959791558279302,0.020370387664287871,4,12,22
1479427590,1.832375438312023,42.338846326303333,-71.088395336912257,65.0,0.030539590638533717,9.1110526407936369e-06,4.3333389167353535e-05,1.1232709343050715e-05,2.2737512607619884e-05,2.9559755271785728e-05,1.945910149055313,0.043443730180194658,2.895964049284526,0.020371491316886557,4,12,22
1479427620,0.47525112684197557,42.338839272921142,-71.088390628221617,65.0,0.007920852114032926,9.9725074256108344e-06,4.3256811564535146e-05,1.1232709343050715e-05,2.1449725597050486e-05,3.118394997298171e-05,1.7917594692280547,0.043491443248973159,2.8697268348626017,0.020804205236288217,4,12,22
1479427650,1.6694145155819156,42.338827955125886,-71.088385892751802,65.0,0.027823575259698592,1.3131910988930286e-05,5.8974496902328483e-05,1.5166072515546441e-05,2.5891710934216689e-05,3.9459551486570823e-05,1.945910149055313,0.043571812629240488,2.7797110969389052,0.021820634944067132,4,12,22
1479427680,2.0677695705061394,42.338823525835238,-71.088375213331432,65.0,0.034462826175102323,1.3086713955849e-05,5.8974496902328483e-05,1.5166072515546441e-05,2.3280369897823716e-05,3.3407441871488767e-05,1.945910149055313,0.043808893053787143,2.7235262204104713,0.0223127803709928,4,12,22
1479427710,1.5628529181071429,42.338824425696615,-71.088380651739612,65.0,0.026047548635119048,6.5237750627841887e-06,3.161761004549784e-05,1.4801087689379503e-05,2.0168902660808669e-05,3.0961513025665926e-05,1.7917594692280547,0.043955170858056732,2.7114875455290401,0.022828820665993701,4,12,22
1479427740,1.8770357899618808,42.338826527774522,-71.088393959157571,65.0,0.03128392983269802,1.0945342903839927e-05,4.8413542672196966e-05,1.4801087689379503e-05,1.8341213112223601e-05,3.2514305186168608e-05,1.945910149055313,0.043835962685052778,2.7105545720903388,0.023459417615091054,4,12,22
1479427770,0.7767019539530565,42.338826286442554,-71.088390111494874,65.0,0.012945032565884276,3.12686246517911e-05,0.00010194125226610901,1.5381004402549537e-05,2.5983971976472587e-05,6.8763937962340222e-05,1.945910149055313,0.043945614429550341,2.7107698741437329,0.023502672062485928,4,12,22
1479427800,1.4700001040309563,42.338836110798283,-71.088380917426889,65.0,0.02450000173384927,3.4796175297431305e-05,0.00010194125226610901,1.7356062915801842e-05,2.2758264450570025e-05,7.3405978378417026e-05,1.7917594692280547,0.043959634999191068,2.711575105860375,0.023379856918018416,4,12,22
1479427830,0.5246005835065045,42.338841523813066,-71.088380041526662,65.0,0.008743343058441742,7.0727534763750286e-06,3.8159102557089169e-05,1.7356062915801842e-05,2.1174666459521838e-05,3.1881652653475482e-05,1.945910149055313,0.044228847224421552,2.7079617111803373,0.0238548258587408,4,12,22
1479427860,2.091527893128328,42.338834467432768,-71.088381029490478,65.0,0.03485879821880546,1.1286668148522422e-05,4.5808513924472334e-05,9.6635529165628635e-06,2.0794961819633125e-05,3.5108708421748858e-05,1.945910149055313,0.044462426075508633,2.7046199466792715,0.0241827014350951,4,12,22
1479427890,0.19168875304409208,42.338829165789988,-71.088378269911644,65.0,0.003194812550734868,1.1256315201294898e-05,4.5808513924472334e-05,9.6635529165628635e-06,1.6828024325581502e-05,2.2810068718951231e-05,1.7917594692280547,0.044347058894128905,2.70421352855185,0.024130398998384286,4,12,22
1479427920,0.800846170871364,42.338825033634969,-71.088375836726442,65.0,0.0133474361811894,2.0531004776755364e-05,8.0106316885610791e-05,1.5820128014010963e-05,2.1484294536784278e-05,4.3725129157430077e-05,1.945910149055313,0.044239320001369709,2.6965876641307438,0.024539589201600289,4,12,22
1479427950,0.3209998514800898,42.338825353203447,-71.088373930292761,65.0,0.0053499975246681635,1.7016675044590743e-05,8.0106316885610791e-05,2.69958097172833e-05,3.0380922989867835e-05,4.3725129157430077e-05,1.945910149055313,0.044189467279812655,2.6859669739863929,0.024851477714694242,4,12,22
1479427980,0.08765327484259,42.338827110742962,-71.088376987956366,65.0,0.0014608879140431666,5.9570531646777573e-05,0.00019252004827514813,2.69958097172833e-05,3.1863036787930161e-05,3.9082651657768636e-05,1.7917594692280547,0.044200256107230614,2.6757850350203967,0.025114783730610348,4,12,22
1479428010,0.4992487449615576,42.33882637599428,-71.088378480556656,65.0,0.008320812416025959,6.981276134862568e-05,0.00020367854823130231,2.8897647863106625e-05,3.6373232132307793e-05,0.00014633477673276768,1.945910149055313,0.04388986661350739,2.6718214617320273,0.025056431108186512,4,12,22
1479428040,2.380488671359609,42.338826196090736,-71.088381964124736,65.0,0.039674811189326815,5.574726338519654e-05,0.00020367854823130231,2.8897647863106625e-05,4.4457672429012236e-05,9.8356551267556145e-05,1.945910149055313,0.043712715603307535,2.6710638713093013,0.024375618948808225,4,12,22
1479428070,2.3926246327293006,42.338830566353892,-71.088392294149827,65.0,0.03987707721215501,2.7256323863293735e-05,9.6563597344725066e-05,1.2924127776475178e-05,2.4567716695580477e-05,4.81000594494744e-05,1.7917594692280547,0.043817426429908886,2.6704077280722416,0.023594128094569049,4,12,22
1479428100,0.920784106907936,42.33883753311229,-71.088394361601814,65.0,0.015346401781798934,1.0417972115274636e-05,4.3567002418151059e-05,1.2924127776475178e-05,1.939603240332397e-05,3.405557656343683e-05,1.945910149055313,0.043814710433175044,2.6710886525180939,0.023441731130791454,4,12,22
1479428130,2.5502926926722616,42.338834724709294,-71.088390879921434,65.0,0.04250487821120436,1.1349013859472049e-05,4.3567002418151059e-05,8.8690275250613937e-06,1.774796117633826e-05,3.2858848365894553e-05,1.945910149055313,0.04379701106005314,2.6718899627522661,0.023194642291596974,4,12,22
1479428160,2.380291034983124,42.338834847124311,-71.088383820668724,65.0,0.039671517249718735,1.0956093904126498e-05,3.9815187137102808e-05,8.8690275250613937e-06,2.149724575633077e-05,3.7320950724095182e-05,1.7917594692280547,0.043571779078327287,2.6721750994805085,0.024047529138608848,4,12,22
1479428190,1.5962478587880056,42.338835345028627,-71.088381058215333,65.0,0.026604130979800092,9.6588287707563713e-06,3.9815187137102808e-05,1.295907527180886e-05,1.9900447303985493e-05,3.6054911446928101e-05,1.945910149055313,0.043380190752999384,2.6718060494748701,0.024886996758866187,4,12,22
1479428220,1.2440873698178658,42.338834542599102,-71.088387204252157,65.0,0.02073478949696443,1.0524111790013515e-05,4.7728102265659992e-05,1.295907527180886e-05,1.9058842643759232e-05,2.9078205491147751e-05,1.945910149055313,0.043583940575845782,2.6717263325885989,0.024217989843048428,4,12,22
1479428250,1.0101730342710278,42.338831887827759,-71.088385000062772,65.0,0.016836217237850462,2.6114705629905805e-05,9.1561521568280494e-05,1.0758357362871357e-05,2.2640671519325172e-05,4.4703873283182227e-05,1.7917594692280547,0.043930517182491635,2.671960725679392,0.023691773312703363,4,12,22
1479428280,2.5013096475772167,42.338828210237516,-71.088383986941395,65.0,0.041688494126286946,2.6547261799934618e-05,9.1561521568280494e-05,8.434786517103434e-06,1.325773207487194e-05,3.6148385008835252e-05,1.945910149055313,0.043864541274144637,2.6720838946793868,0.023864050042446166,4,12,22
1479428310,2.2432514077837444,42.338833849075066,-71.088398114686527,65.0,0.03738752346306241,0.00015852154626741033,0.00048649913404607078,8.434786517103434e-06,1.9375689327968895e-05,7.7383166287579966e-05,1.945910149055313,0.043778750652124776,2.6719569306441633,0.023962808503294099,4,12,22
1479428340,2.640526968405207,42.338836380434174,-71.08840637951586,65.0,0.04400878280675345,0.0001609716299956962,0.00048649913404607078,4.2168751075799582e-06,5.2338903565056278e-05,0.00011052136974568895,1.7917594692280547,0.043850208147808468,2.6713046960181983,0.023980697713209487,4,12,22
1479428370,0.36691987597035564,42.338834903618633,-71.088403940545902,65.0,0.006115331266172594,3.4734194531881607e-05,0.00011852256425610675,4.2168751075799582e-06,2.0687145434804641e-05,4.3312601567802701e-05,1.945910149055313,0.043774415200605057,2.6700070535463718,0.023904794674710645,4,12,22
1479428400,2.7416134009205697,42.338826739192001,-71.088395419289725,65.0,0.045693556682009494,7.6121176314490685e-06,3.9589513835771814e-05,1.6918101214120021e-05,1.9568517708416148e-05,2.9861094461862273e-05,1.945910149055313,0.043741777756912029,2.6692155359071856,0.023832974733329571,4,12,22
1479428430,1.5955776535648638,42.338824742719098,-71.088394325463767,65.0,0.02659296089274773,4.993417322610154e-05,0.00016164059830999536,1.8036072691818773e-05,2.3838014187706553e-05,4.0848323666595227e-05,1.7917594692280547,0.04373801218214448,2.6695936933544036,0.023848668842178188,4,12,22
1479428460,0.40569847814098875,42.338829471855263,-71.088393862104283,65.0,0.006761641302349812,4.1649916523443904e-05,0.00016164059830999536,3.2049168575785632e-05,4.1000689086701458e-05,5.1545130538809371e-05,1.945910149055313,0.043818573586454156,2.6705691026176281,0.023684976240130183,4,12,22
1479428490,1.820126121306877,42.338829043845898,-71.088386723723403,65.0,0.030335435355114616,1.4100097086117675e-05,5.3909652559434306e-05,1.1869954686924886e-05,2.6800055278496286e-05,4.8490204842541216e-05,1.945910149055313,0.042969666356155185,2.7220045556614823,0.02360497483071694,4,12,22
1479428520,3.607153964939244,42.33882789722955,-71.088391839504752,65.0,0.0601192327489874,1.1809902006251934e-05,5.1194932132699462e-05,1.1869954686924886e-05,2.408937827441903e-05,3.0966539296568192e-05,1.7917594692280547,0.041914301207873962,2.7899818011270701,0.023349866465443282,4,12,22
1479428550,2.7711536112929265,42.338827601857396,-71.088401945644591,65.0,0.046185893521548775,1.4660660412219813e-05,6.6383416952271745e-05,2.263958889836704e-05,2.7770593287826053e-05,4.6271108935120261e-05,1.945910149055313,0.042011320879409057,2.7896605339293643,0.023235350887967018,4,12,22
1479428580,0.8577995866080314,42.338828594778846,-71.088407478950685,65.0,0.014296659776800523,4.1810058214030745e-05,0.00014728383345465404,2.263958889836704e-05,2.3784996785282022e-05,5.3865351344906402e-05,1.945910149055313,0.041943141323679115,2.7897830104630197,0.023445128083564071,4,12,22
1479428610,3.895383153093125,42.338833618815293,-71.088400618508999,65.0,0.06492305255155209,4.6873942295526075e-05,0.00014728383345465404,1.257229570479593e-05,2.355572742445855e-05,7.871363791961686e-05,1.7917594692280547,0.042439217744650683,2.7903493694267936,0.022982451868329201,4,12,22
1479428640,1.6537109896232978,42.338833621779287,-71.088381293036747,65.0,0.027561849827054962,9.5989517709650207e-05,0.00027545130242461412,1.257229570479593e-05,3.7910992951927598e-05,0.0001561258972333137,1.945910149055313,0.043256609824473859,2.7908850064169899,0.022096202000288917,4,12,22
1479428670,1.5009103663439038,42.338831656138382,-71.088384180664221,65.0,0.025015172772398397,0.00010083653185467052,0.00027545130242461412,2.1963978522033349e-05,3.2037877656241057e-05,0.00013844456518830045,1.945910149055313,0.043521828626662699,2.790762427270657,0.021879140974030088,4,12,22
1479428700,0.7879718695582195,42.33883155578124,-71.088388664848196,65.0,0.013132864492636991,6.5230939397602972e-06,3.5609600012435418e-05,1.6004889703586413e-05,2.2183352976913161e-05,3.079199748139466e-05,1.7917594692280547,0.044056786385830098,2.766726055862772,0.022114155836994148,4,12,22
1479428730,0.7295821013779193,42.338827085177194,-71.088380571118194,65.0,0.012159701689631989,1.2819613575038698e-05,5.1140805942920218e-05,1.6004889703586413e-05,1.8312320135190421e-05,3.5952969119279425e-05,1.945910149055313,0.044697784999824033,2.7438034218313914,0.022036767704675341,4,12,22
1479428760,0.3139340519033555,42.338824486516451,-71.088377620159704,65.0,0.005232234198389258,1.4495755114267939e-05,5.1140805942920218e-05,1.4456818335487918e-05,1.8312320135190421e-05,4.6075706774364872e-05,1.945910149055313,0.044878751672607783,2.7445253101350242,0.021881177573497213,4,12,22
1479428790,0.31777201604023403,42.338827375446201,-71.088379125318269,65.0,0.005296200267337234,1.1864371924926012e-05,4.8396216528969859e-05,1.4456818335487918e-05,1.7617461305343707e-05,3.4271358793937219e-05,1.7917594692280547,0.04500689892068175,2.7444773115170569,0.021924467196864864,4,12,22
1479428820,1.7027390962851392,42.338828369205139,-71.088379854683851,65.0,0.028378984938085654,6.96579049049008e-06,3.9228189569756124e-05,1.4541833683286885e-05,2.5872221571514502e-05,3.1252231027808346e-05,1.945910149055313,0.04494997886489719,2.74410011066841,0.021623296984467289,4,12,22
1479428850,0.21408933694659468,42.338825644366196,-71.088372801347845,65.0,0.003568155615776578,9.5990026629484351e-06,5.5151901990961381e-05,2.490009897151483e-05,2.8378233810273041e-05,3.508131733127783e-05,1.945910149055313,0.044912632855732611,2.7442519338037172,0.021610249790451175,4,12,22
1479428880,3.0186536797625494,42.338825008720576,-71.088373145676186,65.0,0.05031089466270915,1.2046691762583215e-05,5.5151901990961381e-05,1.834388488171059e-05,2.2803489790599637e-05,2.9681051841943047e-05,1.7917594692280547,0.044968695051955353,2.7447141836363556,0.021783020597578247,4,12,22
1479428910,2.3105426872513255,42.338825107449352,-71.0883824185252,65.0,0.03850904478752209,1.3592608573162582e-05,6.0473409155035036e-05,1.834388488171059e-05,2.2925308767949605e-05,3.9581020157687273e-05,1.945910149055313,0.044659814073735545,2.7450884549358916,0.022106894717447843,4,12,22
1479428940,2.864838973159156,42.338828120675927,-71.088385154279564,65.0,0.04774731621931927,1.7404448778344447e-05,7.5486388913528107e-05,2.2159166314628453e-05,3.1493303445192955e-05,5.0196035904763387e-05,1.945910149055313,0.044335108795363287,2.7449151826093341,0.022642557313859814,4,12,22
1479428970,1.3809578185529499,42.338830548139192,-71.088376614513578,65.0,0.023015963642549164,1.7669330576285265e-05,7.5486388913528107e-05,2.2159166314628453e-05,2.918622983039134e-05,3.4305080495136182e-05,1.7917594692280547,0.044289151116975817,2.7436536392211788,0.022941718486801765,4,12,22
1479429000,2.1962096616135782,42.338830553226522,-71.088382009115577,65.0,0.0366034943602263,5.3100433068807908e-06,4.0852365611995527e-05,2.2282736971962681e-05,2.6649942597128221e-05,2.9666265249653737e-05,1.945910149055313,0.044218782534066373,2.7426334820702789,0.023386918637432547,4,12,22
1479429030,0.24079986219742058,42.338827532140371,-71.088389320317361,65.0,0.0040133310366236765,1.0976090499993605e-05,4.0852365611995527e-05,5.4767789232562348e-06,1.4408828995533042e-05,2.6649942597128221e-05,1.945910149055313,0.044199947061202005,2.7428044762125512,0.024003916176156326,4,12,22
1479429060,0.7521999411387044,42.338825663491377,-71.088387863626707,65.0,0.012536665685645073,8.4371097136878052e-06,3.0289174938930828e-05,5.4767789232562348e-06,9.9853065535087334e-06,2.1796688149659688e-05,1.7917594692280547,0.044208217014464445,2.743774753216385,0.024367038326668481,4,12,22
1479429090,2.2759483981537274,42.338829403387727,-71.08839042298284,65.0,0.03793247330256212,0.00018711718601748984,0.00056003243947342165,1.2811022146109926e-05,2.4810256471630667e-05,3.0594342566073299e-05,1.945910149055313,0.044156475951033829,2.7445738543144498,0.024114632662733445,4,12,22
1479429120,1.0547459176583616,42.338837695583166,-71.088391150004526,65.0,0.01757909862763936,0.00018583609391134356,0.00056003243947342165,2.1129670728147828e-05,2.8099367441413284e-05,3.3752427332436802e-05,1.945910149055313,0.044255141825992175,2.7445245321843013,0.023767292605447844,4,12,22
1479429150,2.3009262318035044,42.338845224673591,-71.08838891027321,65.0,0.038348770530058404,5.751144504343435e-06,3.6605344471657829e-05,2.1129670728147828e-05,2.3525077495746564e-05,3.3176756812927332e-05,1.7917594692280547,0.043718369878652602,2.7438494223907051,0.023241579325909981,4,12,22
1479429180,0.25838048505932426,42.338842332193465,-71.088387351527743,65.0,0.004306341417655404,5.0678621844134785e-06,3.4552657774764958e-05,1.84322612596794e-05,2.3069474394140194e-05,2.9781817760627296e-05,1.945910149055313,0.042667939910264331,2.7430825880453695,0.022560677306074139,4,12,22
1479429210,1.0350598681483312,42.338833376939014,-71.088385023948561,65.0,0.017250997802472186,6.5615840576175328e-06,3.870385119151854e-05,1.84322612596794e-05,2.1449092505112542e-05,2.9781817760627296e-05,1.945910149055313,0.042181332674806185,2.7427733726333043,0.022450009772250954,4,12,22
1479429240,0.9271163565018956,42.338823699243292,-71.088380422191491,65.0,0.015451939275031594,2.2069886514377713e-05,8.4418963218011811e-05,1.8852268430263028e-05,2.5191623004623869e-05,4.6984399501791216e-05,1.7917594692280547,0.04173236210222217,2.7427592161785816,0.022995945392966132,4,12,22
1479429270,1.753617303922087,42.338824593718826,-71.088378962505203,65.0,0.029226955065368116,2.1769084291300994e-05,8.4418963218011811e-05,1.4876511170922518e-05,2.2906620690117668e-05,4.3020019944781339e-05,1.945910149055313,0.041620026150181136,2.7429662906581358,0.023187039123089188,4,12,22
1479429300,0.3597481542513387,42.338827590511968,-71.088375793091487,65.0,0.0059958025708556455,7.5218064395168704e-06,3.6406915693630937e-05,1.4876511170922518e-05,2.3433182528891877e-05,3.4591153600470296e-05,1.945910149055313,0.041723845422447746,2.7431209002794632,0.023051939132096372,4,12,22
1479429330,2.744031867476351,42.338828553864332,-71.088380131980998,65.0,0.04573386445793918,7.3246958452658222e-06,3.6406915693630937e-05,1.2754065712099458e-05,2.3133082757098944e-05,2.9746961637685605e-05,1.7917594692280547,0.041785769268248459,2.7431398049506601,0.023049844145236486,4,12,22
1479429360,1.3768266206056474,42.338828816531191,-71.088379539756048,65.0,0.022947110343427456,5.7965873651006643e-06,3.1293850647183708e-05,1.2754065712099458e-05,2.3548158875858913e-05,2.9287468608835728e-05,1.945910149055313,0.041875892561803116,2.7438538565196557,0.023079125806949274,4,12,22
1479429390,0.5515123004623989,42.338827757341456,-71.088369647086722,65.0,0.009191871674373315,4.4433802818368987e-06,3.9922998524898943e-05,2.613753666955367e-05,2.7918455871856878e-05,3.3111008752374925e-05,1.945910149055313,0.041975367893767275,2.7446217093189871,0.022586705863710529,4,12,22
1479429420,0.8145041396670313,42.338830442298757,-71.088374962716657,65.0,0.013575068994450521,7.3163358199145408e-06,3.9922998524898943e-05,2.144107694108912e-05,2.4852177898647882e-05,3.8413966940508375e-05,1.7917594692280547,0.041992231837800202,2.7446790234499185,0.02202201723566027,4,12,22
1479429450,0.3934250904772012,42.338832363130429,-71.088378136416537,65.0,0.0065570848412866865,1.0636789079347263e-05,4.297331221188787e-05,1.4610847000628245e-05,2.0672578841647094e-05,3.9592509597623664e-05,1.945910149055313,0.041964934268615584,2.7437355566508885,0.0220373930820674,4,12,22
1479429480,0.212803480251693,42.338829798347135,-71.088374663408501,65.0,0.0035467246708615497,9.899433671985197e-06,4.297331221188787e-05,1.4610847000628245e-05,2.0529861374207936e-05,3.4455527379986932e-05,1.945910149055313,0.041920205547440983,2.7429676146736228,0.022139777227097816,4,12,22
1479429510,0.6701579776837718,42.338828437051923,-71.088377942978155,65.0,0.011169299628062864,4.2165396996108576e-06,2.9301935866215652e-05,1.52846195476242e-05,1.9284773903044056e-05,2.1530607953081106e-05,1.7917594692280547,0.041934684255559955,2.7429975301888088,0.0222083907383063,4,12,22
1479429540,0.3855332173252246,42.338829130019818,-71.088376921104853,65.0,0.006425553622087077,1.0905126454200762e-05,4.4754678784082841e-05,1.52846195476242e-05,1.963465126217544e-05,3.8628330281355146e-05,1.945910149055313,0.042044627713606689,2.7437143007911557,0.022366674778793071,4,12,22
1479429570,1.0986639268850236,42.338828933811001,-71.088378749199933,65.0,0.018311065448083728,5.1960093256509454e-06,4.722978820381176e-05,3.0787867835793511e-05,3.5789031270999468e-05,4.1790164887466261e-05,1.945910149055313,0.042003296283369469,2.7440019040565438,0.022393686335861744,4,12,22
1479429600,0.6971026592257609,42.338828400955407,-71.088385485226098,65.0,0.01161837765376268,9.3550612772015401e-06,4.722978820381176e-05,1.668500815868125e-05,2.76332968151279e-05,3.5735295958579546e-05,1.7917594692280547,0.041938337172710637,2.743662329479875,0.022111802632643202,4,12,22
1479429630,1.6526825362603443,42.338829424256623,-71.088381209348938,65.0,0.027544708937672406,9.4523762613636174e-06,3.5737286475785883e-05,4.9598331445850951e-06,1.7414553940017377e-05,2.8525061547494927e-05,1.945910149055313,0.041805464769445654,2.7432703746703457,0.022787075558485199,4,12,22
1479429660,2.2845460713196917,42.338829746006887,-71.088380317674719,65.0,0.038075767855328194,7.9278270855019632e-06,2.9192098830689449e-05,4.9598331445850951e-06,1.5041232218960836e-05,2.5659997517929554e-05,1.945910149055313,0.040980688011618152,2.7437410400914657,0.023681016727071347,4,12,22
1479429690,0.31523148116298755,42.338827843638434,-71.088384218079682,65.0,0.0052538580193831255,7.1967882627798093e-06,3.1058303868961745e-05,1.297149748575837e-05,1.5069627513179019e-05,2.839803730737885e-05,1.7917594692280547,0.039952845092578314,2.7450284020038516,0.023741416220788,4,12,22
1479429720,1.2797045169570485,42.338827363617504,-71.088385317153353,65.0,0.021328408615950808,4.2719699337333542e-05,0.00014761859947513121,1.4389181033517591e-05,2.4257473916216473e-05,4.0126963329772528e-05,1.945910149055313,0.039754833729060267,2.7459096814809212,0.023536585042650854,4,12,22
1479429750,0.3576903071744926,42.338831718607835,-71.088380525401561,65.0,0.0059615051195748775,4.1533683848853457e-05,0.00014761859947513121,2.1440581884942985e-05,2.5064905280988562e-05,5.7694067914239601e-05,1.945910149055313,0.039698387823749251,2.7459376858764988,0.023989936561099299,4,12,22
1479429780,1.8878780878539878,42.338832873952832,-71.08837747142303,65.0,0.03146463479756646,1.5175299697668556e-05,6.6192513037895891e-05,2.305544461448716e-05,2.7915202372429659e-05,4.7253633902658558e-05,1.7917594692280547,0.039765995868457915,2.7453697035180387,0.024092184904292904,4,12,22
1479429810,1.4354511831699603,42.338829650714267,-71.08837725890335,65.0,0.023924186386166005,0.002248901337572419,0.0064590358989340046,1.436649822597199e-05,2.5237680925177706e-05,4.7899564758776423e-05,1.8675843750169276,0.039897495916421055,2.7452306870051197,0.023689288694317197,4,12,22
1479429840,1.0545466402831114,42.338829015062778,-71.088369999337871,65.0,0.017575777338051858,0.0022503430190904997,0.0064590358989340046,1.436649822597199e-05,2.2118169325327384e-05,4.1458636806809021e-05,1.8675843750169276,0.039971722609921476,2.7460934529585344,0.023485244237871468,4,12,22
1479429870,2.654496729103674,42.338831037444024,-71.08837402611492,65.0,0.0442416121517279,1.0156454124832966e-05,3.8871041687543196e-05,6.4877928731325249e-06,2.1795413521528391e-05,3.0332035010749318e-05,1.7917594692280547,0.039856557857863517,2.747071373450618,0.023281371371416434,4,12,22
1479429900,2.632841875093661,42.338830644572745,-71.088385805009651,65.0,0.043880697918227685,4.5187851565826216e-05,0.00015435447200654723,6.4877928731325249e-06,2.8852594488666984e-05,3.7023111106970244e-05,1.945910149055313,0.039942889397442373,2.7466475830149117,0.023333983066317739,4,12,22
1479429930,2.335097584783198,42.338828763983017,-71.088385209869713,65.0,0.038918293079719966,4.4620748563044588e-05,0.00015435447200654723,1.2566412997686285e-05,2.6056697961197507e-05,3.710929307122459e-05,1.945910149055313,0.040100502411291747,2.7457959975097559,0.02350369733711417,4,12,22
1479429960,2.397908828185689,42.338826566937641,-71.088380291786706,65.0,0.03996514713642815,1.620985532157293e-05,5.6931404010868055e-05,9.4537053468759002e-06,1.5376986397270599e-05,3.7171258278721273e-05,1.7917594692280547,0.040065230091486652,2.7446010513290737,0.023912561280314767,4,12,22
1479429990,0.3835645119095796,42.338827858329225,-71.088375738014761,65.0,0.00639274186515966,1.416888099526056e-05,5.6931404010868055e-05,9.4537053468759002e-06,2.4258010334412536e-05,4.0387067657757697e-05,1.945910149055313,0.039978950346277894,2.744748515974444,0.024000472659758243,4,12,22
1479430020,2.2498682674894956,42.338828623814791,-71.088375902907174,65.0,0.037497804458158264,8.2881828170774293e-06,4.3023211623275718e-05,1.8270475994970215e-05,2.1323461615361095e-05,3.2519258324713757e-05,1.945910149055313,0.039920587077572199,2.7452287286719086,0.023913388291852699,4,12,22
1479430050,0.16362338399735799,42.338826184787742,-71.088380865545332,65.0,0.0027270563999559666,6.3951597775055333e-06,3.5776634126223981e-05,1.8270475994970215e-05,2.0687484550205509e-05,3.0565124928798937e-05,1.7917594692280547,0.03991778913160305,2.7449081051234034,0.024213557654048933,4,12,22
1479430080,0.2906820247401019,42.338828994675353,-71.088383431724566,65.0,0.004844700412335032,7.6379568477209583e-06,3.9395826801378337e-05,1.4919248833163863e-05,2.4956892064159483e-05,3.4471640713419585e-05,1.945910149055313,0.040021711216682916,2.7444538713721789,0.024455432083253043,4,12,22
1479430110,0.20254283137803955,42.338831066065453,-71.088383881101251,65.0,0.003375713856300659,1.0316454520964317e-05,3.9395826801378337e-05,1.4579672355683606e-05,1.5554808040900488e-05,3.5889917592678755e-05,1.945910149055313,0.040003078314086025,2.7446188638291211,0.024316496841795956,4,12,22
1479430140,1.4538110468361998,42.338830516735221,-71.088384092644844,65.0,0.024230184113936664,9.0622325647356991e-06,3.8613187884742328e-05,1.4579672355683606e-05,1.8503233633438854e-05,3.4215284213061238e-05,1.7917594692280547,0.039957620814876783,2.7450775532890384,0.023879658855461252,4,12,22
1479430170,0.44453252813638877,42.338829693351428,-71.088385159462717,65.0,0.007408875468939813,2.8841133420772545e-05,0.0001055447604133781,1.6093715263781106e-05,2.0967201094904981e-05,3.3116999333275513e-05,1.945910149055313,0.03996914795692847,2.7456797529951329,0.024050348417770654,4,12,22
1479430200,1.5880464098653362,42.338827464549937,-71.088384728799696,65.0,0.02646744016442227,2.9353688482013725e-05,0.0001055447604133781,1.6093715263781106e-05,1.9939398138238249e-05,3.2977057259392058e-05,1.945910149055313,0.039788965600573767,2.7456540791137329,0.024545524737451745,4,12,22
1479430230,0.7060876155014713,42.338827070180699,-71.088380090057129,65.0,0.01176812692502452,1.0711046126229927e-05,5.2220294490432926e-05,1.9842318691602446e-05,2.4911050650581042e-05,3.6749930849288204e-05,1.7917594692280547,0.039706781345857069,2.7445429229268297,0.024360408449434216,4,12,22
1479430260,1.005099620021579,42.338830859822892,-71.08838347086008,65.0,0.01675166033369298,9.8573412641732828e-06,5.2220294490432926e-05,2.1648407152698943e-05,2.4036211133937439e-05,3.3645987677519856e-05,1.945910149055313,0.039884355883154719,2.7442267253456198,0.023913114517791472,4,12,22
1479430290,1.6933056789189427,42.33883191054003,-71.0883898080085,65.0,0.028221761315315712,5.5301985836566365e-06,3.6545450314607804e-05,1.8466820395127726e-05,2.1031001065168938e-05,2.5549927840328239e-05,1.945910149055313,0.039893010791108199,2.7444727001368685,0.023859607771468869,4,12,22
1479430320,0.5654382313164235,42.33882580099241,-71.088387084112753,65.0,0.00942397052194039,2.7765468408439613e-06,2.7340236626626807e-05,1.8466820395127726e-05,2.0830221566434391e-05,2.3523784338108776e-05,1.7917594692280547,0.039811994490513779,2.744977940593845,0.023730508883424983,4,12,22
1479430350,1.8262950475755573,42.33882295962681,-71.088382671952203,65.0,0.030438250792925954,8.7241815756836217e-06,4.7387748908218296e-05,1.9777489790827786e-05,2.2198947545411322e-05,3.168145301456073e-05,1.945910149055313,0.039836721415615235,2.7453924459627501,0.023803573610284002,4,12,22
1479430380,1.9501722457727326,42.338822567612581,-71.088382385052668,65.0,0.032502870762878874,9.8274800249244076e-06,4.7387748908218296e-05,1.5879101828095877e-05,2.335038250896594e-05,3.4590936973925618e-05,1.945910149055313,0.039871080427121355,2.7448556101099473,0.023440669154170833,4,12,22
1479430410,0.7737467152869404,42.338824659311655,-71.088390404558353,65.0,0.012895778588115673,8.5060593918780423e-06,3.7399825086255908e-05,1.3604239870461683e-05,1.6285461933768076e-05,2.893302470451273e-05,1.7917594692280547,0.039877502363750768,2.743992260275963,0.02256750377230372,4,12,22
1479430440,0.8886149659227266,42.338825377886778,-71.088393260306347,65.0,0.014810249432045444,7.3605707236870412e-06,3.6781146160096178e-05,1.3604239870461683e-05,1.7803797862992406e-05,2.7358509919326142e-05,1.945910149055313,0.039956269541856923,2.7438614503142253,0.022289812005278544,4,12,22
1479430470,1.6790595006446347,42.338823695478069,-71.088387407240404,65.0,0.027984325010743914,5.491722153069586e-06,3.6781146160096178e-05,1.8103053475200131e-05,2.1748785417078976e-05,2.5384047802031992e-05,1.945910149055313,0.040057515268888788,2.744108038110864,0.022282386083364775,4,12,22
1479430500,0.727566006970164,42.338821646813784,-71.088383374291155,65.0,0.012126100116169401,4.6866121640205937e-06,3.3939727592437107e-05,2.0977409772642785e-05,2.3303625036734867e-05,3.0900746747011509e-05,1.7917594692280547,0.040095906368103701,2.7448031131428365,0.022187935233769353,4,12,22
1479430530,0.6708252550772243,42.338820067534378,-71.088380764046434,65.0,0.011180420917953739,7.6390730049054581e-06,4.427013386593023e-05,1.8059124189954118e-05,2.8633516047075862e-05,3.5874040117473331e-05,1.945910149055313,0.039989153136109248,2.7449484307131189,0.02218955264082597,4,12,22
1479430560,2.6911306942353055,42.33882116386561,-71.088384852247444,65.0,0.04485217823725509,8.7567472440911588e-06,4.427013386593023e-05,1.8059124189954118e-05,2.6641577501991979e-05,3.9375925222324883e-05,1.945910149055313,0.040025477735637617,2.7444916915503828,0.022368747001347916,4,12,22
1479430590,0.48239784429461174,42.338822753505688,-71.088389899040806,65.0,0.008039964071576863,8.3689670704036764e-06,4.0943497802140218e-05,1.5957987768525678e-05,1.907947408672471e-05,2.8662613902420108e-05,1.7917594692280547,0.040064763565852382,2.7440154116187436,0.022314553035757353,4,12,22
1479430620,2.0893707535139794,42.338827463170013,-71.088391789944296,65.0,0.034822845891899656,4.6223317673685952e-06,2.9050672776510993e-05,1.4698118443986014e-05,1.6126438874975903e-05,2.0461424802387358e-05,1.945910149055313,0.039998978482313499,2.7442276129336642,0.022141813882303824,4,12,22
1479430650,1.5767172256971866,42.338829927544069,-71.088388532078824,65.0,0.026278620428286444,6.1431463374664589e-06,3.1575105163732216e-05,1.4698118443986014e-05,1.7631576995879841e-05,2.7389938058260106e-05,1.945910149055313,0.040016614621895451,2.7447664729250159,0.022138844013160405,4,12,22
1479430680,0.46359132818636584,42.338830483718418,-71.088384475847647,65.0,0.0077265221364394305,2.7025278879569088e-06,3.1575105163732216e-05,2.4078691395565646e-05,2.6418346642791894e-05,3.0451960955020076e-05,1.7917594692280547,0.039992795268124132,2.7451566280723916,0.022207131183566181,4,12,22
1479430710,2.0838464622970627,42.338831595257474,-71.08838542800315,65.0,0.034730774371617715,1.4067335688104639e-05,6.5236913675062634e-05,2.1238498439336523e-05,2.364445139182622e-05,3.1726494335869047e-05,1.945910149055313,0.039952368312599004,2.7448249208045974,0.022222975353886957,4,12,22
1479430740,0.12267129595628308,42.338833393142856,-71.088393029592382,65.0,0.002044521599271385,1.4841204298969032e-05,6.5236913675062634e-05,1.8603388564245579e-05,2.146424811637333e-05,3.0698510911488385e-05,1.945910149055313,0.039949109989809217,2.7443413394064082,0.022168380572565545,4,12,22
1479430770,1.7905411730622285,42.338829202265828,-71.088389640892473,65.0,0.029842352884370475,4.8952400393119701e-06,2.7648322808455273e-05,1.5994246363790675e-05,1.6668890495014994e-05,2.4929499693472108e-05,1.7917594692280547,0.039916847323616382,2.7438364672999036,0.022260357313675382,4,12,22
1479430800,0.3784091655974127,42.338825443992363,-71.088378488281705,65.0,0.0063068194266235455,1.1369596332795336e-05,4.9446120749174833e-05,1.5994246363790675e-05,1.6929714232465604e-05,2.9560396437394205e-05,1.945910149055313,0.039948283157167856,2.7445237633771895,0.022355608948842358,4,12,22
1479430830,0.1903290922456318,42.338829138518001,-71.088380425924171,65.0,0.0031721515374271967,1.0512594418791362e-05,4.9446120749174833e-05,1.7231321094837769e-05,1.8696038270577529e-05,2.9560396437394205e-05,1.945910149055313,0.039968132845983377,2.7456195438124729,0.022128935483415053,4,12,22
1479430860,1.752829622937088,42.338827035922684,-71.088384630941917,65.0,0.02921382704895147,4.2795408512634242e-06,3.040182238684358e-05,1.7231321094837769e-05,1.9181968897474789e-05,2.3133240048991837e-05,1.7917594692280547,0.039859098851547051,2.7457413866794966,0.021343801924289151,4,12,22
1479430890,0.8428556969471751,42.338821460156581,-71.088384110709242,65.0,0.014047594949119585,0.00051697649624792377,0.0015017590033854051,1.7902498111180265e-05,2.1213919024756424e-05,3.0167819881380504e-05,1.945910149055313,0.039872239493652054,2.7449662702842237,0.021302705433810288,4,12,22
1479430920,0.41075920553238626,42.338822880616576,-71.088383832144217,65.0,0.006845986758873104,0.0005164877583206639,0.0015017590033854051,1.2563587312929492e-05,1.6875367113886271e-05,4.2654114125372579e-05,1.945910149055313,0.040154235925714037,2.7442768175748058,0.022143782705665943,4,12,22
1479430950,1.1615385832847558,42.338825598853127,-71.088383528120374,65.0,0.019358976388079263,1.4552035976180399e-05,5.5374410874827727e-05,1.2563587312929492e-05,1.7102664402415012e-05,3.4553589095525269e-05,1.7917594692280547,0.040424318691360685,2.7437621275195081,0.022817337347482952,4,12,22
1479430980,2.1338330403284735,42.338827032861474,-71.088384114004285,65.0,0.03556388400547456,2.1766601279883615e-05,8.4371356517983601e-05,1.6809317175241022e-05,2.1160239289698449e-05,3.1989225051739487e-05,1.945910149055313,0.040354881326664691,2.7437736805213673,0.023496541685195858,4,12,22
1479431010,3.3965526010282603,42.33882022874635,-71.088395140027856,65.0,0.05660921001713767,2.1039208556848247e-05,8.4371356517983601e-05,1.6809317175241022e-05,2.2749675725589187e-05,3.5696362351132333e-05,1.945910149055313,0.040254432921995785,2.7433979798891457,0.024191416926975802,4,12,22
1479431040,1.4613059920002909,42.338814642606017,-71.088396432555101,65.0,0.024355099866671514,7.61172739934334e-06,3.874252989695281e-05,1.643079119446958e-05,2.1693374143334861e-05,3.2430149409889415e-05,1.7917594692280547,0.040224032125021618,2.7429598811137499,0.024450711009565251,4,12,22
1479431070,1.3850082887464037,42.338816761398171,-71.088392528146315,65.0,0.023083471479106728,7.2555142397564232e-06,4.0803853362230871e-05,1.643079119446958e-05,2.1007822211084431e-05,2.78294832467356e-05,1.945910149055313,0.040252262136473052,2.7431024793832868,0.024362790263159472,4,12,22
1479431100,0.2709605586267042,42.338817781688817,-71.088391776795518,65.0,0.00451600931044507,6.9687900685959699e-06,4.0803853362230871e-05,1.913269330588904e-05,2.1373564399864491e-05,3.0063927744437294e-05,1.945910149055313,0.040293240844152624,2.7433068754310832,0.024299492071338101,4,12,22
1479431130,0.20414026364260945,42.338813850255448,-71.088393293889908,65.0,0.003402337727376824,4.8534495230439815e-06,3.1716401973573154e-05,1.9061173173807518e-05,1.9651032781148414e-05,2.7653356927825475e-05,1.7917594692280547,0.040328847587796403,2.7436215742988797,0.024320928824160135,4,12,22
1479431160,2.9943514793314208,42.338817838136109,-71.088389780370292,65.0,0.049905857988857015,6.5387399437027844e-06,3.8621662554751909e-05,1.9061173173807518e-05,2.5781582920905094e-05,3.4570627338579958e-05,1.945910149055313,0.040483889788882892,2.7344779234458145,0.024262952259107729,4,12,22
1479431190,1.3568882150820432,42.338822015602403,-71.088381190328306,65.0,0.022614803584700718,1.090028568554274e-05,5.6363713393794466e-05,2.2326653524553653e-05,2.5543877598571934e-05,3.8051012932193259e-05,1.945910149055313,0.040854559733883924,2.7206416813962595,0.024116280202208497,4,12,22
1479431220,1.7249849223377687,42.338817963754373,-71.088385653246121,65.0,0.028749748705629477,1.6057627001196103e-05,5.6363713393794466e-05,2.7281421104879743e-06,2.2484216289616622e-05,3.3373913181257859e-05,1.7917594692280547,0.040828057376236321,2.7460093383150319,0.023141200637752404,4,12,22
1479431250,0.7356628169845849,42.33881826882952,-71.088391203120864,65.0,0.012261046949743082,1.0137430018451174e-05,3.4581013613010106e-05,2.7281421104879743e-06,2.1374728684631914e-05,3.1889183457648377e-05,1.945910149055313,0.040048118122623051,2.7752042913699375,0.021760394353427671,4,12,22
1479431280,0.06060918099807033,42.338819918785681,-71.088389632838272,65.0,0.0010101530166345056,6.2424179685557973e-06,3.4025755029295643e-05,1.4197816009662901e-05,1.7242923545006819e-05,2.4300577226163346e-05,1.945910149055313,0.039628847801772997,2.7669659962507889,0.021084248075388896,4,12,22
