TIMESTAMP,DISTANCE,AVG_LAT,AVG_LNG,GPS_ACCURACY,AVG_SPEED_BY_GPS,ACCLERATOR_STD,MAX_ACCLERATOR,MIN_ACCLERATOR,PERCENTILE_25_ACCLERATOR,PERCENTILE_75_ACCLERATOR,ACCLERATOR_ENTROPY,AVG_ROLL,AVG_YAW,AVG_PITCH,WEEK_DAY,LABEL1,LABEL2
1480257360,0.0,42.331717559175921,-71.110042277789788,10.0,0.0,0.00031863029831658175,0.00076775327901334631,2.719539142736554e-05,3.1747202313802341e-05,0.00021846004406556117,1.3862943611198906,-0.092231948191301941,-2.8239052644136597,0.1320012729953586,0,0,6
1480257390,0.0,42.331717559175907,-71.110042277789816,10.0,0.0,0.00025913647949464059,0.00076775327901334631,2.15686123008275e-05,2.3331753204034005e-05,3.4313385846123689e-05,1.945910149055313,-0.062314920452251385,-2.8296266982939073,0.067033998839209283,0,0,6
1480257420,0.0,42.331717559175907,-71.110042277789816,10.0,0.0,5.2944802270948493e-06,3.5281675085708651e-05,1.8521559110965646e-05,2.1644583951512794e-05,2.5172809580017342e-05,1.7917594692280547,-0.022273312942489746,-2.8369406877067789,-0.0196782001403762,0,0,6
1480257450,0.0,42.331717559175907,-71.110042277789816,10.0,0.0,6.2306660111302025e-06,3.5281675085708651e-05,1.4200200148741405e-05,2.0612494546409814e-05,2.6588234115396865e-05,1.945910149055313,-0.022029699577424542,-2.8366349004855018,-0.019768564704789875,0,0,6
1480257480,0.0,42.331717559175907,-71.110042277789816,10.0,0.0,4.6858354194790005e-06,2.787639129227039e-05,1.4200200148741405e-05,1.6488601758033121e-05,2.3431345417452839e-05,1.945910149055313,-0.021930383464226315,-2.8365928338454816,-0.019790955198892658,0,0,6
1480257510,0.0,42.331717559175907,-71.110042277789816,10.0,0.0,3.8544993265486321e-06,2.6577427819167702e-05,1.4411524434025874e-05,1.7227880609564235e-05,2.0577843662832144e-05,1.7917594692280547,-0.021854380530549364,-2.8362842545476048,-0.019860161612297783,0,0,6
1480257540,2.778740790172447,42.331716852302073,-71.110041929940834,10.0,0.046312346502874115,4.1851352000887493e-06,2.6577427819167702e-05,1.2517338710422112e-05,1.501461437545462e-05,1.7875040060525654e-05,1.945910149055313,-0.021751727308456127,-2.8362511759008142,-0.019878397423441132,0,0,6
1480257570,2.778740790172447,42.33169564608702,-71.110031494471386,10.0,0.046312346502874115,6.7908756226703101e-06,3.3987707724308165e-05,1.2517338710422112e-05,1.4208756882730234e-05,1.7184792126217223e-05,1.945910149055313,-0.021628999375454382,-2.8362410067529344,-0.019846497479485699,0,0,6
1480257600,0.0,42.331675146745816,-71.110021406850919,10.0,0.0,6.8827733279519286e-06,3.3987707724308165e-05,1.4482862115490404e-05,1.6311299726966777e-05,2.5928196544399801e-05,1.7917594692280547,-0.021542128427716415,-2.8361799207967002,-0.019806769697477519,0,0,6
1480257630,0.0,42.331675146745816,-71.110021406850919,10.0,0.0,3.0022284081722267e-06,2.7277028879641971e-05,1.7713389398574862e-05,1.9120820263695176e-05,2.253574875932176e-05,1.945910149055313,-0.021511630329373928,-2.8366559149519097,-0.019774182523515742,0,0,6
1480257660,0.0,42.331675146745816,-71.110021406850919,10.0,0.0,4.5314365886243316e-06,2.7127081122044655e-05,1.21519962230696e-05,1.7040839402200064e-05,2.1903137506752421e-05,1.945910149055313,-0.021470703350888933,-2.83682385487143,-0.019766642798141925,0,0,6
1480257690,0.0,42.331675146745816,-71.110021406850919,10.0,0.0,4.9564555836331946e-06,2.7127081122044655e-05,1.21519962230696e-05,1.5699635153877006e-05,2.194778436639268e-05,1.7917594692280547,-0.021478786367507802,-2.8364761384628849,-0.019749589649517185,0,0,6
1480257720,0.0,42.331675146745816,-71.110021406850919,10.0,0.0,3.4729794577708228e-06,2.6639710193430106e-05,1.6225495106463123e-05,1.9704723891347242e-05,2.4540528349631924e-05,1.945910149055313,-0.021478493671344672,-2.8357950998589914,-0.019743099058971415,0,0,6
1480257750,0.0,42.331675146745816,-71.110021406850919,10.0,0.0,3.1203457702950595e-06,2.6639710193430106e-05,1.7602804601308206e-05,2.0938252242663634e-05,2.5742235130574264e-05,1.945910149055313,-0.02147613197319323,-2.8347606443829783,-0.019762537744332058,0,0,6
1480257780,0.0,42.331675146745816,-71.110021406850919,10.0,0.0,2.778612280280235e-06,2.5239780063629153e-05,1.7602804601308206e-05,1.853913922458279e-05,2.2955492856644497e-05,1.7917594692280547,-0.021444570844910787,-2.8340064013421369,-0.019782112745385518,0,0,6
1480257810,0.0,42.331675146745816,-71.110021406850919,10.0,0.0,3.4727109524961429e-06,2.477268406101215e-05,1.344344097314132e-05,1.6290999044543587e-05,2.0238719165833522e-05,1.945910149055313,-0.021450521939898017,-2.8338221505512711,-0.019815273385859426,0,0,6
1480257840,0.0,42.331675146745816,-71.110021406850919,10.0,0.0,3.6057238203594275e-06,2.477268406101215e-05,1.344344097314132e-05,1.4903853206091144e-05,1.8850346304289662e-05,1.945910149055313,-0.021469361125686072,-2.8334579029211695,-0.019831606530551344,0,0,6
1480257870,0.0,42.331675146745816,-71.110021406850919,10.0,0.0,2.0739283887663795e-06,2.0222501909257188e-05,1.4478368920166617e-05,1.5195212287160469e-05,1.8526648316507221e-05,1.7917594692280547,-0.021403522709327636,-2.8336827463201684,-0.019816059928210148,0,0,6
1480257900,0.0,42.331675146745816,-71.110021406850919,10.0,0.0,4.1411954828888795e-06,2.6080549944115303e-05,1.4478368920166617e-05,1.5853972998495487e-05,2.1543113927459802e-05,1.945910149055313,-0.021375895150162912,-2.8343593371977316,-0.019823765270481786,0,0,6
1480257930,5.08097940841412,42.33167310435541,-71.110018434069261,10.0,0.08468299014023534,4.2691532480525452e-06,2.6080549944115303e-05,1.5740694129493391e-05,1.6404315753623186e-05,2.455430623253447e-05,1.945910149055313,-0.021351515303647216,-2.8347673416929742,-0.0198002133389946,0,0,6
1480257960,5.08097940841412,42.331657786427364,-71.109996138206796,10.0,0.08468299014023534,3.4713359631213356e-06,2.5041764063943642e-05,1.6841379639748793e-05,1.7488263125191577e-05,2.4154205930050084e-05,1.7917594692280547,-0.021282186728638866,-2.8351052453669632,-0.019755576081792917,0,0,6
1480257990,0.0,42.331644510889717,-71.109976815126004,10.0,0.0,3.3690429988518752e-06,2.5041764063943642e-05,1.5346094077398675e-05,1.7225867020638463e-05,2.2584456934566616e-05,1.945910149055313,-0.021338740739039026,-2.8352334103052059,-0.019793472251971256,0,0,6
1480258020,0.0,42.331644510889717,-71.109976815126004,10.0,0.0,2.6432729317784626e-06,2.3028894970684714e-05,1.5346094077398675e-05,1.6741748225345784e-05,2.0524086204894624e-05,1.945910149055313,-0.021387826744490586,-2.8356084542721187,-0.019789095100317157,0,0,6
1480258050,0.0,42.331644510889717,-71.109976815126004,10.0,0.0,1.5667949249345422e-06,1.9877397328807743e-05,1.5293142501577051e-05,1.6570183633858271e-05,1.884678732395707e-05,1.7917594692280547,-0.021338380444622749,-2.8359992623840351,-0.019762925746903765,0,0,6
1480258080,0.0,42.331644510889717,-71.109976815126004,10.0,0.0,1.555930665282369e-06,1.9877397328807743e-05,1.5293142501577051e-05,1.6336064027753901e-05,1.8663371987634628e-05,1.945910149055313,-0.02133903152919633,-2.8359382871830503,-0.019769962959340415,0,0,6
1480258110,0.0,42.331644510889717,-71.109976815126004,10.0,0.0,2.7358605603294632e-06,2.0272370685868013e-05,1.1279043147625579e-05,1.6433764186645607e-05,1.8663371987634628e-05,1.945910149055313,-0.021346900739027331,-2.8362101575927072,-0.019738355740153927,0,0,6
1480258140,0.0,42.331644510889717,-71.109976815126004,10.0,0.0,4.0447831293788752e-06,2.4406649311493241e-05,1.1279043147625579e-05,1.5948746367617779e-05,1.9783511725054309e-05,1.7917594692280547,-0.021324534870208082,-2.8367216622893765,-0.019689933669349732,0,0,6
1480258170,0.0,42.331644510889717,-71.109976815126004,10.0,0.0,3.8260601970533987e-06,2.4406649311493241e-05,1.2390972854887186e-05,1.4656792734064922e-05,1.8749100503986772e-05,1.945910149055313,-0.021302949961665256,-2.8368076103819297,-0.019704289489215071,0,0,6
1480258200,0.0,42.331644510889717,-71.109976815126004,10.0,0.0,6.6809678369346109e-06,3.1542990020305194e-05,9.6226417917449829e-06,1.300605131520426e-05,1.9744570505326672e-05,1.945910149055313,-0.021308138748332341,-2.8369390256101004,-0.019764131062608058,0,0,6
1480258230,0.0,42.331644510889717,-71.109976815126004,10.0,0.0,7.3534657894001505e-06,3.1542990020305194e-05,9.6226417917449829e-06,1.2585380549464571e-05,2.1064342688619083e-05,1.7917594692280547,-0.021304185091739421,-2.8374120682225499,-0.01976481663750165,0,0,6
1480258260,0.0,42.331644510889717,-71.109976815126004,10.0,0.0,4.9513905315612874e-06,2.6969318800783029e-05,1.2442222330534687e-05,1.6982589912155655e-05,2.2620252246930365e-05,1.945910149055313,-0.021336768895110103,-2.8376233559977058,-0.019713946764729113,0,0,6
1480258290,0.0,42.331644510889717,-71.109976815126004,10.0,0.0,6.078815894910034e-06,2.6969318800783029e-05,7.2058835260564095e-06,1.763619284504861e-05,2.2574542757829861e-05,1.945910149055313,-0.02133745179507,-2.8376288849210241,-0.019771081061261669,0,0,6
1480258320,0.0,42.331644510889717,-71.109976815126004,10.0,0.0,4.6078863485932513e-06,2.1717693812972958e-05,7.2058835260564095e-06,1.2264162687780843e-05,1.7259683643668777e-05,1.7917594692280547,-0.021316803375557497,-2.8374484007054135,-0.019821560689023937,0,0,6
1480258350,0.0,42.331644510889717,-71.109976815126004,10.0,0.0,2.8057695926454888e-06,1.833854264194013e-05,1.0691141807567076e-05,1.2805490585846703e-05,1.7417387204697856e-05,1.945910149055313,-0.021319718651057341,-2.8376501197315669,-0.019793797715348886,0,0,6
1480258380,0.0,42.331644510889717,-71.109976815126004,10.0,0.0,2.2355126931383995e-06,1.833854264194013e-05,1.0691141807567076e-05,1.5869872136928804e-05,1.6757689310533053e-05,1.945910149055313,-0.021310006150165515,-2.8382266875997439,-0.019752403713977074,0,0,6
1480258410,0.0,42.331644510889717,-71.109976815126004,10.0,0.0,1.2758711872762068e-06,1.6919495379215379e-05,1.3549828780987969e-05,1.4391784944481533e-05,1.6364890350416103e-05,1.7917594692280547,-0.021294252981524316,-2.838796344473828,-0.019694475951072783,0,0,6
1480258440,0.0,42.331644510889717,-71.109976815126004,10.0,0.0,1.5712510650801885e-06,1.7424547757254164e-05,1.2812670069949763e-05,1.3726792079948271e-05,1.6231108232599004e-05,1.945910149055313,-0.02125244172338631,-2.8389825598808298,-0.019712119084301299,0,0,6
1480258470,0.0,42.331644510889717,-71.109976815126004,10.0,0.0,2.2329872756116096e-06,2.0622329704282617e-05,1.2812670069949763e-05,1.5210210851186954e-05,1.7015445290625877e-05,1.945910149055313,-0.021251548355208483,-2.8388113205659775,-0.019735788549638315,0,0,6
1480258500,0.0,42.331644510889717,-71.109976815126004,10.0,0.0,2.225135314547659e-06,2.0622329704282617e-05,1.3380117933084684e-05,1.512269593062504e-05,1.6119800698701209e-05,1.7917594692280547,-0.0212874399930717,-2.8384740568414917,-0.019764423186582114,0,0,6
1480258530,0.0,42.331644510889717,-71.109976815126004,10.0,0.0,2.1585616282957154e-06,2.0608646472239856e-05,1.3380117933084684e-05,1.5655844589552852e-05,1.7922523767465091e-05,1.945910149055313,-0.021296074705465167,-2.8385108805581143,-0.019732161202323257,0,0,6
1480258560,0.0,42.331644510889717,-71.109976815126004,10.0,0.0,2.8142445161370857e-06,2.0608646472239856e-05,1.1749001561735432e-05,1.5855986481929746e-05,1.8579014288282586e-05,1.945910149055313,-0.021235202813134731,-2.8387351794397899,-0.019680516074609557,0,0,6
1480258590,6.095386059072312,42.331635288700774,-71.109952335777791,10.0,0.1015897676512052,2.5146624975548096e-06,1.9043761110162102e-05,1.1749001561735432e-05,1.415333940131775e-05,1.7746968793868871e-05,1.7917594692280547,-0.021222198251774068,-2.8388724898559503,-0.019639002789077448,0,0,6
1480258620,6.095386059072312,42.331625041824168,-71.109925136502,10.0,0.1015897676512052,5.0961925043468002e-06,2.7812668460414081e-05,1.1613923375534243e-05,1.3032594362587994e-05,1.7562557931624826e-05,1.945910149055313,-0.021207137305296161,-2.8388184738621187,-0.019627844827231729,0,0,6
1480258650,0.0,42.331624017136505,-71.10992241657442,10.0,0.0,6.1980159478017261e-06,2.7812668460414081e-05,1.1613923375534243e-05,1.3175624414735453e-05,2.4053203870843484e-05,1.945910149055313,-0.021146209977000396,-2.8389220475595569,-0.019616205253314672,0,0,6
1480258680,0.0,42.331624017136505,-71.10992241657442,10.0,0.0,3.5519586258151618e-06,2.6312625921794258e-05,1.4645191467110492e-05,1.8426815809091125e-05,2.1380523613622311e-05,1.7917594692280547,-0.021193041684506735,-2.8390393033317864,-0.019653642465930796,0,0,6
1480258710,0.0,42.331624017136505,-71.10992241657442,10.0,0.0,2.5309315497088317e-06,2.0140748994811106e-05,1.243147621771685e-05,1.5151197742249366e-05,1.8736722603178348e-05,1.945910149055313,-0.02118447539463893,-2.8388275658024895,-0.019669302033535719,0,0,6
1480258740,0.0,42.331624017136505,-71.10992241657442,10.0,0.0,1.8071774429729888e-06,1.8364985530305783e-05,1.243147621771685e-05,1.397419233016007e-05,1.5913351473688107e-05,1.945910149055313,-0.021134061924385585,-2.8386094565352269,-0.019628745420691918,0,0,6
1480258770,0.0,42.331624017136505,-71.10992241657442,10.0,0.0,3.3270833923316496e-06,2.4057404167331754e-05,1.3283007049909931e-05,1.5913328609797547e-05,1.8000124181698541e-05,1.7917594692280547,-0.021153825022150182,-2.8387068332645247,-0.019626977924646499,0,0,6
1480258800,0.0,42.331624017136505,-71.10992241657442,10.0,0.0,5.1166246643211677e-06,2.4057404167331754e-05,7.1637316658660053e-06,1.1203141679568645e-05,1.6540174380301703e-05,1.945910149055313,-0.021152015865345857,-2.8386362169531658,-0.019679207665468684,0,0,6
1480258830,6.42631282628428,42.331618669482289,-71.109901302560317,10.0,0.10710521377140467,2.9514751108616703e-06,1.5857383010361631e-05,7.1637316658660053e-06,1.0435748367603436e-05,1.4616534378042869e-05,1.945910149055313,-0.021113543971607716,-2.8385904144111129,-0.0196799064712232,0,0,6
1480258860,6.42631282628428,42.331611377226537,-71.109872510722909,10.0,0.10710521377140467,3.7291724953984689e-06,2.0556894590256763e-05,9.8361811890401496e-06,1.2114912931740868e-05,1.779546981362312e-05,1.7917594692280547,-0.021089909394637136,-2.8388371649695099,-0.019597076483089084,0,0,6
1480258890,0.0,42.331609432625001,-71.109864832899603,10.0,0.0,3.4550052991389484e-06,2.0556894590256763e-05,9.8361811890401496e-06,1.6588662768028784e-05,1.9547780715927942e-05,1.945910149055313,-0.021111932714459675,-2.8389984204868202,-0.019586406871481044,0,0,6
1480258920,6.576605065382702,42.331605949944233,-71.109847130320119,10.0,0.10961008442304503,2.4152613276299308e-06,2.2370375842563717e-05,1.5073098547191677e-05,1.6693984194483768e-05,1.973752371158081e-05,1.945910149055313,-0.02114825591549576,-2.8391409982741869,-0.01963628886324386,0,0,6
1480258950,6.576605065382702,42.331600145476287,-71.10981762602097,10.0,0.10961008442304503,4.7903097284631706e-06,2.3874118694346478e-05,9.7156639922407859e-06,1.5351509466431864e-05,2.1674900779399113e-05,1.7917594692280547,-0.02117838152916825,-2.8392507810049232,-0.019616798914759599,0,0,6
1480258980,0.0,42.331597823689108,-71.109805824301304,10.0,0.0,4.7423431584519966e-06,2.3874118694346478e-05,9.7156639922407859e-06,1.3045057076919886e-05,1.9655578814817843e-05,1.945910149055313,-0.021159054112583588,-2.8393542259784113,-0.019577105641639843,0,0,6
1480259010,0.0,42.331597823689108,-71.109805824301304,10.0,0.0,3.7165205108039346e-06,2.1682112854315692e-05,1.0535300488417262e-05,1.3878766517521109e-05,1.9655578814817843e-05,1.945910149055313,-0.021119843748081315,-2.8394466722051415,-0.019599402127605657,0,0,6
1480259040,6.742913220511766,42.331595372680887,-71.1097765337407,10.0,0.11238188700852943,3.3051384556426653e-06,2.1682112854315692e-05,1.0752240695149363e-05,1.3806297551589507e-05,1.509996688511812e-05,1.7917594692280547,-0.021039342410645753,-2.8392318129401848,-0.019622494372381668,0,0,6
1480259070,6.742913220511766,42.331592837155128,-71.109746233160749,10.0,0.11238188700852943,3.2535977981921764e-06,2.1539567000346507e-05,1.0752240695149363e-05,1.3348333798812435e-05,1.6447534704868798e-05,1.945910149055313,-0.021025887055114299,-2.8389911851130973,-0.019582393581583514,0,0,6
1480259100,6.627792745201656,42.331592441110203,-71.109743239424333,10.0,0.1104632124200276,6.1372120218859818e-06,3.1366902614463692e-05,1.2156229411249463e-05,1.3981451823279862e-05,2.0517592667319644e-05,1.945910149055313,-0.021011305893952746,-2.8389381729973517,-0.019585368227831374,0,0,6
1480259130,6.627792745201656,42.331587768199206,-71.109713483668074,10.0,0.1104632124200276,6.2073662666116809e-06,3.1366902614463692e-05,1.2350113649895988e-05,1.4812720619688988e-05,2.0115195295013071e-05,1.7917594692280547,-0.020976180550517049,-2.838938234135385,-0.019633403914920033,0,0,6
1480259160,0.0,42.331583406815604,-71.109685711628899,10.0,0.0,3.4088568985317637e-06,2.0321720948586502e-05,9.9379577137872322e-06,1.3308219905913949e-05,1.736513363112404e-05,1.945910149055313,-0.0210759012249431,-2.8390787699793187,-0.019625347112250068,0,0,6
1480259190,0.0,42.331583406815604,-71.109685711628899,10.0,0.0,5.2346765415755991e-06,2.6423802562037109e-05,9.9379577137872322e-06,1.3608359041375826e-05,2.0330470067125985e-05,1.945910149055313,-0.021117301109405441,-2.8390824833648485,-0.019619121034623602,0,0,6
1480259220,0.0,42.331583406815604,-71.109685711628899,10.0,0.0,3.8387875901598449e-06,2.6423802562037109e-05,1.6027404175529502e-05,1.7929234695179039e-05,2.4256661743502913e-05,1.7917594692280547,-0.021050560496724116,-2.8393991237910732,-0.019586797069747152,0,0,6
1480259250,0.0,42.331583406815604,-71.109685711628899,10.0,0.0,5.0278448055556292e-06,2.4878044841650698e-05,1.0850098612412159e-05,1.2150814337184335e-05,1.9967058779554636e-05,1.945910149055313,-0.021014996186847996,-2.8395463879209144,-0.019627563824712028,0,0,6
1480259280,0.0,42.331583406815604,-71.109685711628899,10.0,0.0,3.0534360034558076e-06,1.9282344438273601e-05,1.0850098612412159e-05,1.138040624852092e-05,1.5941772167721238e-05,1.945910149055313,-0.021045109979436,-2.8397677618854789,-0.019662647354189128,0,0,6
1480259310,0.0,42.331583406815604,-71.109685711628899,10.0,0.0,3.969950346065763e-06,2.2584696082121145e-05,1.1430118775944023e-05,1.2891035241927522e-05,1.9004340785490548e-05,1.7917594692280547,-0.021069544537420912,-2.8406123236939771,-0.019695897107141185,0,0,6
1480259340,0.0,42.331583406815604,-71.109685711628899,10.0,0.0,4.2000404155079574e-06,2.2642205892652406e-05,1.2003612118054152e-05,1.3330719541518358e-05,2.037751295463127e-05,1.945910149055313,-0.021012161989421112,-2.8404982368043297,-0.019701777116454398,0,0,6
1480259370,0.0,42.331583406815604,-71.109685711628899,10.0,0.0,3.1655695966130592e-06,2.2642205892652406e-05,1.2003612118054152e-05,1.4366358783727443e-05,1.7668750849506188e-05,1.945910149055313,-0.020697655224753312,-2.8424135738635772,-0.019855607689594157,0,0,6
1480259400,0.0,42.331583406815604,-71.109685711628899,10.0,0.0,2.9164263139243643e-06,1.8688474535394589e-05,1.0070366307162783e-05,1.4522066393088389e-05,1.7729815756281565e-05,1.7917594692280547,-0.019912068597093387,-2.8456605129601851,-0.020160959606636265,0,0,6
1480259430,0.0,42.331583406815604,-71.109685711628899,10.0,0.0,5.7181435178422901e-06,2.7346094540623196e-05,9.3641718194255007e-06,1.1628188074889455e-05,1.81395280580598e-05,1.945910149055313,-0.019521432038422815,-2.8460848118960098,-0.020220327226577971,0,0,6
1480259460,0.0,42.331583406815604,-71.109685711628899,10.0,0.0,6.0699783219188037e-06,2.7346094540623196e-05,9.3641718194255007e-06,1.5388295711670566e-05,2.4268565540804432e-05,1.945910149055313,-0.0028581576780502137,-2.5533085030285072,-0.01333936960862535,0,0,6
1480259490,0.0,42.331583406815604,-71.109685711628899,10.0,0.0,5.2255969958203021e-06,2.5788848939182086e-05,9.5653611064390511e-06,1.5676497470225435e-05,2.1786958697390786e-05,1.7917594692280547,0.018185160787732819,-2.1625888328451714,-0.0040684762987599548,0,0,6
1480259520,0.0,42.331583406815604,-71.109685711628899,10.0,0.0,5.8355838943711248e-06,2.8875503216061638e-05,9.5653611064390511e-06,1.5999548703735694e-05,2.2675939604675392e-05,1.945910149055313,0.016626477494187629,-2.16176844945173,-0.0039134317541962447,0,0,6
1480259550,0.0,42.331583406815604,-71.109685711628899,10.0,0.0,5.9447736300227332e-06,2.8875503216061638e-05,1.0137295564237178e-05,1.9237926627397337e-05,2.5210572757179803e-05,1.945910149055313,0.016294391572779728,-2.1615003883284558,-0.0038492558882197553,0,0,6
1480259580,0.0,42.331583406815604,-71.109685711628899,10.0,0.0,2.0284429160414065e-05,7.09601637325728e-05,1.0137295564237178e-05,1.575995642959046e-05,3.1130770136376514e-05,1.7917594692280547,0.013784051549591952,-2.1574328332821664,-0.0047855998641499796,0,0,6
1480259610,0.0,42.331583406815604,-71.109685711628899,10.0,0.0,1.9115313436919681e-05,7.09601637325728e-05,1.3443794489938168e-05,1.5407912842315751e-05,2.7626482079314188e-05,1.945910149055313,0.011625813310721029,-2.1573621455290857,-0.0062504998084930196,0,0,6
1480259640,0.0,42.331583406815604,-71.109685711628899,10.0,0.0,6.4936025530782898e-06,2.6870191929357805e-05,5.0455464989860202e-06,1.4366713995348668e-05,2.0806147533893814e-05,1.945910149055313,0.011993379378365473,-2.1636225389124841,-0.0061022294737227449,0,0,6
1480259670,0.0,42.331583406815604,-71.109685711628899,10.0,0.0,6.8107427761235965e-06,2.6870191929357805e-05,5.0455464989860202e-06,1.3201801280884928e-05,1.9762558963799859e-05,1.7917594692280547,0.011297128718395921,-2.1690100779755648,-0.0038329285442179483,0,0,6
1480259700,0.0,42.331583406815604,-71.109685711628899,10.0,0.0,2.5015005865398865e-05,7.8425861009983019e-05,7.814819362526812e-06,1.4517669995313066e-05,3.9203797871206404e-05,1.945910149055313,0.010156176392544795,-2.1702705937798998,-0.0026338883689881287,0,0,6
1480259730,0.0,42.331583406815604,-71.109685711628899,10.0,0.0,2.4809902231601779e-05,7.8425861009983019e-05,7.814819362526812e-06,1.4006843788750029e-05,4.2968575712060848e-05,1.945910149055313,0.010267352397404761,-2.1673364720651187,-0.0037623573009576872,0,0,6
1480259760,0.0,42.331583406815604,-71.109685711628899,10.0,0.0,8.80655226895043e-06,2.7639418848264754e-05,4.7057301995941534e-06,7.5803591656296473e-06,2.3267371007480372e-05,1.7917594692280547,0.0104414399069788,-2.1626151654699717,-0.0048541575692634502,0,0,6
1480259790,0.0,42.331583406815604,-71.109685711628899,10.0,0.0,6.7186378364441027e-06,2.4920595306860856e-05,4.7057301995941534e-06,1.1964090602720528e-05,1.8837665659690058e-05,1.945910149055313,0.010088293684935334,-2.1621532045801644,-0.0047864449587076193,0,0,6
1480259820,0.0,42.331583406815604,-71.109685711628899,10.0,0.0,6.0987668272478435e-06,3.0200579708585486e-05,7.5631459153807873e-06,1.7574024600407152e-05,1.8956061536324463e-05,1.945910149055313,0.010051733282360793,-2.1625436253097088,-0.0048052700879651798,0,0,6
1480259850,0.0,42.331583406815604,-71.109685711628899,10.0,0.0,3.2405333163805686e-05,0.00010139534539005903,7.5631459153807873e-06,1.1439501425401041e-05,2.7285797799129325e-05,1.7917594692280547,0.010120487311429357,-2.1620893663874501,-0.0048655191562493637,0,0,6
1480259880,0.0,42.331583406815604,-71.109685711628899,10.0,0.0,2.992694896863927e-05,0.00010139534539005903,9.1993705952091643e-06,1.4427890893568579e-05,2.2587991276043704e-05,1.945910149055313,0.0086791775635848851,-2.1567327947035455,-0.0060439016625295104,0,0,6
1480259910,0.0,42.331583406815604,-71.109685711628899,10.0,0.0,1.3033428313395402e-05,5.2840549368167598e-05,1.3452508479309549e-05,1.4427890893568579e-05,2.2587991276043704e-05,1.945910149055313,0.0094901255433151709,-2.1566845682803359,-0.0070397608003412463,0,0,6
1480259940,0.0,42.331583406815604,-71.109685711628899,10.0,0.0,1.502095979730193e-05,5.2840549368167598e-05,7.869991222166894e-06,1.2894612229124265e-05,1.6231461353721706e-05,1.7917594692280547,0.010219834432762415,-2.1593536391396886,-0.0073969649932182783,0,0,6
1480259970,0.0,42.331583406815604,-71.109685711628899,10.0,0.0,5.4050654455119705e-06,2.379251295636123e-05,7.869991222166894e-06,1.3585337128923264e-05,2.1884711238298307e-05,1.945910149055313,0.0084649909226516863,-2.1570801009077618,-0.0076713019427069344,0,0,6
1480260000,0.0,42.331583406815604,-71.109685711628899,10.0,0.0,4.5591341489384091e-06,2.4447434770454595e-05,1.1910413778388265e-05,1.5557683326004166e-05,2.307407229105118e-05,1.945910149055313,0.008446086783382982,-2.1571242368473516,-0.0076844930440969142,0,0,6
1480260030,0.0,42.331583406815604,-71.109685711628899,10.0,0.0,4.8479658137349243e-06,2.4447434770454595e-05,9.4983055266672249e-06,1.2131340087168597e-05,1.7175853395003783e-05,1.7917594692280547,0.008377189074939324,-2.157713104201195,-0.0076968002120343009,0,0,6
1480260060,0.0,42.331583406815604,-71.109685711628899,10.0,0.0,4.6813169411735891e-06,2.3600149981118966e-05,9.4983055266672249e-06,1.1228461176608879e-05,1.7478249931512096e-05,1.945910149055313,0.0084207994783837281,-2.1575176817155457,-0.0077490174042431177,0,0,6
1480260090,0.0,42.331583406815604,-71.109685711628899,10.0,0.0,5.0146309881620683e-06,2.3600149981118966e-05,8.6530664462303403e-06,1.1346400200032597e-05,1.8472376411988095e-05,1.945910149055313,0.0084430480213197011,-2.1569342246706569,-0.0077849396851062975,0,0,6
1480260120,0.0,42.331583406815604,-71.109685711628899,10.0,0.0,5.3113806198070417e-06,2.4416566448354955e-05,8.6530664462303403e-06,1.3212194858948347e-05,2.0350413050787509e-05,1.7917594692280547,0.0084088611890881324,-2.1566079073864501,-0.0078141655952057541,0,0,6
1480260150,0.0,42.331583406815604,-71.109685711628899,10.0,0.0,6.1077364739539264e-06,2.9741931062935218e-05,1.3329722436417188e-05,1.3637078771453832e-05,2.4485947527719511e-05,1.945910149055313,0.0084382812580316106,-2.1568585433747387,-0.0077941204177015668,0,0,6
1480260180,0.0,42.331583406815604,-71.109685711628899,10.0,0.0,5.7800061169109749e-06,2.9741931062935218e-05,1.3329722436417188e-05,1.3771444867630072e-05,2.1460290702765582e-05,1.945910149055313,0.0084533204743103049,-2.1571327833030329,-0.0078261179947927018,0,0,6
1480260210,0.0,42.331583406815604,-71.109685711628899,10.0,0.0,2.0933363892033524e-06,1.8365252798447097e-05,1.3142238425652462e-05,1.401771077055976e-05,1.7584083931825506e-05,1.7917594692280547,0.0084546244121049517,-2.1570357827515987,-0.0078299459625838022,0,0,6
1480260240,0.0,42.331583406815604,-71.109685711628899,10.0,0.0,3.8512920987818061e-06,2.2915471610329538e-05,1.3142238425652462e-05,1.4426695010566277e-05,2.1451628079595462e-05,1.945910149055313,0.0084982293350321057,-2.156924069800866,-0.0078118137046151292,0,0,6
1480260270,0.0,42.331583406815604,-71.109685711628899,10.0,0.0,3.8472687533285243e-06,2.3878977792387816e-05,1.4480753027916014e-05,1.5003115347075731e-05,2.2351948760949277e-05,1.945910149055313,0.0085341865469943049,-2.1571462148298113,-0.0078422499091694905,0,0,6
1480260300,0.0,42.331583406815604,-71.109685711628899,10.0,0.0,3.7498046615862467e-06,2.3878977792387816e-05,1.3187866716228536e-05,1.3945459240921198e-05,1.7948822097607628e-05,1.7917594692280547,0.0085128313958229822,-2.1579606357885832,-0.0078609711920027518,0,0,6
1480260330,0.0,42.331583406815604,-71.109685711628899,10.0,0.0,3.9286466036839695e-06,1.8876002279674503e-05,7.1038283220828395e-06,1.1347288311037453e-05,1.6741479424644845e-05,1.945910149055313,0.0085043899187529724,-2.1584027774011854,-0.0077829662879998407,0,0,6
1480260360,0.0,42.331583406815604,-71.109685711628899,10.0,0.0,3.6941906534455618e-06,1.7574487323050801e-05,7.1038283220828395e-06,1.1043410339543412e-05,1.6283982196164163e-05,1.945910149055313,0.0085301775219693392,-2.1582258953896298,-0.0078238324205894289,0,0,6
1480260390,0.0,42.331583406815604,-71.109685711628899,10.0,0.0,1.9936905791106783e-06,1.6306382588522914e-05,1.0797770022761967e-05,1.2909149003869499e-05,1.5980506055970233e-05,1.7917594692280547,0.0084818277629864786,-2.1580804000816332,-0.0078750253630510622,0,0,6
1480260420,0.0,42.331583406815604,-71.109685711628899,10.0,0.0,1.9974499552055281e-06,1.7200617988939354e-05,1.0797770022761967e-05,1.2122998186269488e-05,1.4516771254110664e-05,1.945910149055313,0.008512878952253047,-2.1580174778925927,-0.0078570622966547248,0,0,6
1480260450,0.0,42.331583406815604,-71.109685711628899,10.0,0.0,1.8964752752622187e-06,1.7200617988939354e-05,1.1736762305707086e-05,1.3039148425609756e-05,1.6003446049652454e-05,1.945910149055313,0.0085551367298258973,-2.1579148071209131,-0.0078931436212807769,0,0,6
1480260480,0.0,42.331583406815604,-71.109685711628899,10.0,0.0,0.00019103240439879014,0.00052942245389749965,1.3569062784387625e-05,1.4647047774292728e-05,2.2634429436135381e-05,1.7917594692280547,0.0085170126095097092,-2.1575557272606551,-0.0078766794215089416,0,0,6
1480260510,0.0,42.331583406815604,-71.109685711628899,10.0,0.0,0.00017791458707190055,0.00052942245389749965,1.4328868296150074e-05,1.8113909094599283e-05,2.7236678288118775e-05,1.945910149055313,0.0084296694013440473,-2.1575005472981519,-0.0077792252271310499,0,0,6
1480260540,0.0,42.331583406815604,-71.109685711628899,10.0,0.0,3.8643527140988115e-06,2.9762552624918446e-05,1.8051096471276697e-05,1.8129549917236241e-05,2.2267083791066318e-05,1.945910149055313,0.008333410743897875,-2.15792828917135,-0.0077152758883393012,0,0,6
1480260570,0.0,42.331583406815604,-71.109685711628899,10.0,0.0,2.529617169510601e-06,2.2579389845212906e-05,1.5985417379988166e-05,1.6245468739053002e-05,2.0154701414931095e-05,1.7917594692280547,0.0083060764262237411,-2.1586347346245582,-0.0077325014687828417,0,0,6
1480260600,0.0,42.331583406815604,-71.109685711628899,10.0,0.0,1.2191622794222209e-06,1.9364489189989359e-05,1.5480663407741055e-05,1.5839856934751429e-05,1.6275245444153618e-05,1.945910149055313,0.0082926757200199458,-2.1588978923634055,-0.007746875065435351,0,0,6
1480260630,0.0,42.331583406815604,-71.109685711628899,10.0,0.0,2.7126810017431171e-06,2.0877124004884002e-05,1.2576013811449169e-05,1.4642106927008839e-05,1.7737158947910663e-05,1.945910149055313,0.008346411581676148,-2.1586744519299912,-0.0077577821214952448,0,0,6
1480260660,0.0,42.331583406815604,-71.109685711628899,10.0,0.0,4.1362954134977266e-06,2.2066746440183974e-05,1.2342865131297062e-05,1.2466700321604868e-05,1.9108730615232153e-05,1.7917594692280547,0.0084191026626528435,-2.1583043797725563,-0.0077411941261086919,0,0,6
1480260690,0.0,42.331583406815604,-71.109685711628899,10.0,0.0,4.4102823538878097e-06,2.2066746440183974e-05,7.9158384707135614e-06,1.1167539348166829e-05,1.6498726526273188e-05,1.945910149055313,0.0083940946211071635,-2.1580835650026655,-0.0076627482872344433,0,0,6
1480260720,0.0,42.331583406815604,-71.109685711628899,10.0,0.0,4.9250781046580436e-06,2.4278088861037723e-05,7.9158384707135614e-06,1.3047296292303127e-05,1.6906370554181828e-05,1.945910149055313,0.0084470058276232222,-2.1581518732855085,-0.0076123481803721717,0,0,6
1480260750,0.0,42.331583406815604,-71.109685711628899,10.0,0.0,1.2685525024105659e-05,4.9921428827151034e-05,1.3262766029247231e-05,1.5375115416155079e-05,2.2437983414625028e-05,1.7917594692280547,0.0084565091742441773,-2.1585906534705264,-0.0076197685115310552,0,0,6
1480260780,0.0,42.331583406815604,-71.109685711628899,10.0,0.0,0.00020097844572243193,0.00060401075475893871,1.2079679823373475e-05,1.417242730553024e-05,5.2087198783972713e-05,1.945910149055313,0.0084900525676926721,-2.1590072547497683,-0.0076581057423036379,0,0,6
1480260810,0.0,42.331583406815604,-71.109685711628899,10.0,0.0,0.00020170664859931551,0.00060401075475893871,1.2079679823373475e-05,1.8239821320140807e-05,5.0062900220161012e-05,1.945910149055313,0.0085244205760760406,-2.15888180602771,-0.0076866874408123348,0,0,6
1480260840,0.0,42.331583406815604,-71.109685711628899,10.0,0.0,7.6394889114494767e-06,2.5776870241194067e-05,4.8923982456994191e-06,1.1129203183679511e-05,2.3494784612272183e-05,1.7917594692280547,0.0085814199894260635,-2.1586000938933703,-0.0077995750797984114,0,0,6
1480260870,0.0,42.331583406815604,-71.109685711628899,10.0,0.0,1.1567964876000156e-05,4.3426739184650013e-05,4.8923982456994191e-06,1.180599300785334e-05,2.2025383239123873e-05,1.945910149055313,0.0086332441851414126,-2.159075555158624,-0.0079595193767927983,0,0,6
1480260900,0.0,42.331583406815604,-71.109685711628899,10.0,0.0,1.0087771756321039e-05,4.3426739184650013e-05,1.3570162780880909e-05,1.5634686350695316e-05,2.9305154485574037e-05,1.945910149055313,0.0086002177250568655,-2.1595122544196754,-0.0079424495639957397,0,0,6
1480260930,0.0,42.331583406815604,-71.109685711628899,10.0,0.0,8.2156331786089214e-06,3.1074727541121675e-05,8.7300322968168266e-06,1.2309084292904422e-05,2.5655754348225412e-05,1.7917594692280547,0.0086521274467903295,-2.1597247987590231,-0.0078452203543891239,0,0,6
1480260960,0.0,42.331583406815604,-71.109685711628899,10.0,0.0,0.0033262514318780564,0.0095268242116238466,8.4246030204867493e-06,1.0309378546864542e-05,4.1259175972235413e-05,1.8675843750169279,-0.0042202774033248359,-1.8929958565141498,-0.011451199759355676,0,0,6
1480260990,0.0,42.331583406815604,-71.109685711628899,10.0,0.0,0.0033266782452207257,0.0095268242116238466,8.0124896836326225e-06,1.0160799777933959e-05,3.9669555577389713e-05,1.8675843750169276,-0.017741172872425458,-1.6959125985132057,-0.01440879217302618,0,0,6
1480261020,0.0,42.331583406815604,-71.109685711628899,10.0,0.0,9.047910528376714e-06,2.9140899707962739e-05,5.7150455025109189e-06,8.9836163965697589e-06,2.376238767683657e-05,1.7917594692280547,-0.022987282532810335,-1.7016249898511351,-0.014448436277498632,0,0,6
1480261050,0.0,42.331583406815604,-71.109685711628899,10.0,0.0,9.0132145348226917e-06,2.9140899707962739e-05,5.7150455025109189e-06,7.466278817247806e-06,2.0220365439809425e-05,1.945910149055313,-0.052279440697566078,-1.7017286973223429,-0.0026410277830883474,0,0,6
1480261080,0.0,42.331583406815604,-71.109685711628899,10.0,0.0,3.9112042757198877e-06,1.5131471193502891e-05,2.3104936712885381e-06,7.466278817247806e-06,1.1919500217350013e-05,1.945910149055313,-0.075174178858149962,-1.7082402494475244,0.012132457829677368,0,0,6
1480261110,0.0,42.331583406815604,-71.109685711628899,10.0,0.0,3.8893321095540481e-06,1.5131471193502891e-05,2.3104936712885381e-06,6.7868828472882406e-06,9.8821083670768625e-06,1.7917594692280547,-0.072326410723952045,-1.718159448051755,0.018073511307337711,0,0,6
1480261140,0.0,42.331583406815604,-71.109685711628899,10.0,0.0,6.4564250715726663e-05,0.00019620528652555713,6.6224031322528675e-06,8.4688110289102706e-06,2.0599200894303746e-05,1.945910149055313,-0.056786856875095236,-1.7177172485995229,0.010166032834813319,0,0,6
1480261170,0.0,42.331583406815604,-71.109685711628899,10.0,0.0,0.00014679362815797907,0.00042484329799550224,2.472619203470543e-06,1.2420969404634571e-05,0.00011180703027338717,1.945910149055313,-0.047140154767553302,-1.698900620236977,0.0055655179078695693,0,0,6
1480261200,0.0,42.331583406815604,-71.109685711628899,10.0,0.0,0.0001544541781513091,0.00042484329799550224,2.4502863125512744e-06,3.2710991024231932e-06,2.2607868228626915e-05,1.7917594692280547,-0.045061024650873062,-1.6631037180740034,0.0048551213004638131,0,0,6
1480261230,0.0,42.331583406815604,-71.109685711628899,10.0,0.0,4.1067617124683791e-05,0.00012544573136342665,1.4364847679195373e-06,4.0584125559162083e-06,4.9356867842043135e-05,1.945910149055313,-0.044453955223102283,-1.6522797620355227,0.0046340418197993701,0,0,6
1480261260,0.0,42.331583406815604,-71.109685711628899,10.0,0.0,3.8186864288534347e-05,0.00012544573136342665,1.4364847679195373e-06,1.7178504859206416e-05,4.9356867842043135e-05,1.945910149055313,-0.040984985288496256,-1.6513437377123859,0.0030741500986904034,0,0,6
1480261290,14.969578983758202,42.33158775702335,-71.109700641195431,11.599323696382543,0.2494929830626367,0.0010754098039772873,0.0029400432398604846,1.0755582220043942e-05,2.485263297930028e-05,0.00013289396635894548,1.7917594692280547,0.051260487462262007,-1.3300390363192651,-0.38137936593564986,0,0,6
1480261320,22.70163587769297,42.331613190511554,-71.109816534976588,14.770160219486351,0.37836059796154947,0.12936012175359304,0.37294306085334816,6.9172962343017985e-05,0.00016648884196980958,0.0085276258348343011,1.8562701281920879,0.89724215904127125,-0.6097783557459735,-0.30837421098103146,0,0,6
1480261350,17.552042821223285,42.331634507786809,-71.109899709998729,15.205193524924571,0.2925340470203881,0.12864545858966814,0.37294306085334816,0.00017884338290869784,0.0014879654480280436,0.063364584395386808,1.8640435797520256,1.6190282005151235,-0.080560551706284775,0.064918999938933977,0,0,6
1480261380,25.077703012859654,42.331673935560836,-71.109958673893573,16.416780104603234,0.41796171688099426,0.042807833199375922,0.11813334526459046,5.0124888674515909e-05,0.0012417855246539696,0.0090151825835852357,1.6581101035673731,1.8682034145998117,1.1589763676636951,0.030558211515085965,0,0,6
1480261410,3.266661225532446,42.33170804781124,-71.110055306061284,15.107405586231671,0.0544443537588741,0.0094789751589630933,0.028455314282294003,5.0124888674515909e-05,9.0285613789330295e-05,0.0075748164252853059,1.8056165767134955,1.9021032262452573,0.44810456828521017,0.0067580552139716111,0,0,6
1480261440,16.665841226939058,42.331661298444793,-71.110037064246015,12.036278875993714,0.2777640204489843,0.044468937818043015,0.1310463565611103,2.9036211689119709e-05,9.0285613789330295e-05,0.018215482450555775,1.7770332013812693,1.8874541557798372,-0.13097104472851998,0.047939007142280381,0,3,8
1480261470,6.5376018198617665,42.331633152013957,-71.110016630563052,14.015658605502711,0.10896003033102944,0.079011381650283763,0.20947656935505671,2.9036211689119709e-05,0.0028949495556173377,0.10802414305715634,1.7328679513998633,1.9504413036759267,0.35410342882523754,0.016262121226770513,0,3,8
1480261500,6.96189784777631,42.331583714152075,-71.109997662316175,12.704362212958193,0.11603163079627184,0.18856329648085385,0.55121591733480646,0.00029382190806730255,0.00077477580120725495,0.21579906975492594,1.8043716191528454,2.2842984016517969,-1.6437498155920363,-0.028054409922585097,0,3,8
1480261530,34.99202955834602,42.33149859592536,-71.109894455942424,10.0,0.5832004926391003,0.19530442743141083,0.55121591733480646,0.00010441665423360963,0.00032099548796560534,0.11179095651336916,1.8056165767134953,2.5238596289005959,-2.0496441478590173,-0.054489006834508628,0,3,8
1480261560,67.30435842725807,42.331729968382007,-71.109717050603933,10.0,1.1217393071209678,0.011483784563793108,0.032244859504152325,0.00010441665423360963,0.00089240612077592972,0.004286988273798269,1.6581101035673729,2.5506235256388035,0.5688540017221182,-0.052457262857984195,0,3,8
1480261590,56.704580589251236,42.332493801344008,-71.10959359346667,10.0,0.9450763431541873,0.011012412867700152,0.032244859504152325,4.8096177856824491e-05,8.0199813989728752e-05,0.0030218311774382473,1.8056165767134953,2.535631354580997,2.0947450957469442,-0.022017895540411964,0,3,8
1480261620,4.52099964615762,42.333014108716156,-71.109585740849099,10.0,0.075349994102627,0.00022560840720640773,0.00068418593184433382,4.8096177856824491e-05,7.0203899129723331e-05,0.00023763350584102679,1.945910149055313,2.5528183335796499,2.1377352484466283,-0.041046284930713904,0,3,8
1480261650,270.48502723138415,42.333097210991959,-71.109213554099341,10.0,4.508083787189736,0.023839782878419258,0.064657725367212177,6.3894811147958191e-05,9.6166526639904334e-05,0.0024082135296867296,1.710560083757924,2.6164568685110616,1.7514087435437455,-0.012056919223900994,0,3,8
1480261680,320.82303285704086,42.333172241930015,-71.107862589276692,10.0,5.347050547617347,0.021712225043219669,0.064657725367212177,9.2030498442630945e-05,0.000179699765183116,0.011427299190893109,1.7770332013812695,2.6665447285661017,1.0320800170748712,0.034097582093814589,0,3,8
1480261710,208.83269034054612,42.333410121772765,-71.106319244551571,10.0,3.480544839009102,0.0061281433210957637,0.015473523876291403,9.2030498442630945e-05,0.00037946842286400726,0.010471882409334849,1.8562701281920884,2.6517700570081328,1.0657034592113608,0.0064380194850767137,0,3,8
1480261740,160.14538198723318,42.333750830071374,-71.105485555316434,10.0,2.6690896997872198,0.0048677601242889225,0.013562690313174884,3.6127765891652523e-05,0.00016271803880879793,0.0015405249685081428,1.7105600837579242,2.6216907013537516,1.3266687558961732,-0.0065946555983443338,0,3,8
1480261770,0.0,42.333881054113007,-71.105217067591013,10.0,0.0,0.00017970223468229745,0.00052460283013659455,2.9393695777900211e-06,3.9108770462259115e-05,0.00021853983051815104,1.945910149055313,2.6208101113584168,1.2992519890599414,0.01389773575837697,0,3,8
1480261800,29.538201707151757,42.333888838805585,-71.105206365297647,10.0,0.4923033617858626,0.00026897894751422773,0.00085664511190399178,2.9393695777900211e-06,8.4826717173273626e-05,0.00025793135013653379,1.945910149055313,2.6621272116581745,1.31286003224851,0.025966982140924941,0,3,8
1480261830,364.56146274172687,42.334278419187619,-71.104231900601746,10.0,6.076024379028781,0.0022575037191361622,0.0060089593387220039,0.00013405300884150806,0.00032172104242361602,0.0033535357367288077,1.710560083757924,2.7013512816834897,1.3222633071281333,0.036037507123987934,0,3,8
1480261860,499.9487454108094,42.33511736806701,-71.101955078142808,10.0,8.332479090180156,0.0019540368061715203,0.0060089593387220039,0.0007037989179945139,0.0014107929981071322,0.0047094484791137701,1.8842428460867393,2.6690292252021317,1.3306532937121072,0.014392384868433429,0,3,8
1480261890,159.41961445255072,42.335621760266228,-71.100515184524554,10.0,2.656993574209179,0.0014497267605746817,0.0052330643465571276,0.00064359117224347317,0.0010435793014403252,0.001934728722694301,1.8675843750169276,2.6773606327444215,1.3354418040740643,-0.0013317073559686993,0,3,8
1480261920,397.8350846639118,42.335966012712909,-71.09970234247956,10.0,6.63058474439853,0.006349755624721406,0.016488759604557708,0.00064359117224347317,0.0010519114492832306,0.01120914849529956,1.6581101035673729,2.7696223964188644,1.3148456300684366,0.048270093475170417,0,3,8
1480261950,626.2590882038561,42.336902075719408,-71.097389937444675,10.0,10.437651470064269,0.0055560422533230281,0.018992372235769977,0.003728866951088235,0.0090636563323706378,0.016669089603588889,1.9254081650860668,2.795308213927691,1.2420471284159487,0.085644515328332088,0,3,8
1480261980,647.6036272246243,42.33817781465347,-71.094190717275353,10.0,10.793393787077072,0.012780946723082425,0.041868745397459634,0.0013409546081270388,0.0046656521654044004,0.017920895919195025,1.9251211907908181,2.7512880708513592,1.2068087841485571,0.052522616039233076,0,3,8
1480262010,490.0818755987831,42.339164139043866,-71.091717579468238,10.0,8.168031259979719,0.018438888784679329,0.041868745397459634,0.00026422592253528328,0.0017588187969312314,0.032266374298619428,1.7347645210257749,2.7375565226990086,1.2671404977553185,0.042963010999509769,0,3,8
1480262040,216.85099951258704,42.339853655353515,-71.089991326510074,10.0,3.614183325209784,0.013745351112849536,0.041154353271585717,0.00012204378978831082,0.0013833417916256641,0.0032670738406266257,1.8675843750169276,2.7345793532116103,1.3490782036445028,0.075791641963577419,0,3,8
1480262070,390.60227599091985,42.34059322838889,-71.088266580897482,10.0,6.510037933181997,0.0022603959235455357,0.0070590271153123775,0.00012204378978831082,0.0013936250494038566,0.0041363536332681356,1.8675843750169276,2.6915401813328645,1.4809608168002828,0.057356327019376201,0,3,8
1480262100,256.33927951300177,42.341182606799855,-71.0870139557599,10.0,4.272321325216696,0.0027567581583837568,0.0070590271153123775,7.9115661427864401e-05,0.00039487307887374956,0.0051115239833817924,1.7480673485460896,2.6648144213164748,1.6925235130174097,0.048820223689330318,0,3,8
1480262130,172.55979249896447,42.341555796969722,-71.086989148040459,10.0,2.8759965416494078,0.0062748610755629895,0.019185444890970248,7.9115661427864401e-05,0.00091811962867711472,0.0077762991829629646,1.9036483899019156,2.6919469046843045,0.27684953945034702,0.062995063292804507,0,3,8
1480262160,280.4413603270342,42.341483310783445,-71.088130134730079,10.0,4.674022672117236,0.0062563857219399581,0.019185444890970248,0.0011111242561342358,0.001164785979166541,0.0077762991829629646,1.8562701281920884,2.6880920506638986,-1.2620204316800443,0.028100129488689635,0,3,8
1480262190,87.43866820376914,42.341198291889029,-71.089017844794114,10.0,1.4573111367294858,0.2576280749333833,0.70575024123478602,0.00078918801994756077,0.0011563598566913112,0.078386465950314496,1.6581101035673729,2.3652574544859264,-0.70623739146203646,-0.014534176340153715,0,3,8
1480262220,30.01539913940383,42.341163784577269,-71.089152892259207,12.75,0.5002566523233971,0.2333435382370215,0.70575024123478602,0.00078918801994756077,0.018464560094475918,0.21619402734909021,1.9459101490553139,1.9670481644195157,-1.3209115839348442,0.11403685254028526,0,3,8
1480262250,75.37733637849747,42.341093938936105,-71.089389307249206,20.25,1.2562889396416246,0.10248598936075876,0.29340850428540333,0.010206219303950955,0.023139649177218516,0.18461979126766309,1.9459101490553139,2.0301303842813101,-2.6300526877358799,0.19758680814517729,0,3,8
1480262280,85.191830441015,42.340965907361685,-71.089761870513755,25.0,1.4198638406835833,0.076192041526734616,0.23026003212254914,0.0097921491370814955,0.047214972470402135,0.13973835898815673,1.7328679513998633,2.2420179736834336,-2.7187649083079664,0.21657050763480265,0,3,8
1480262310,103.87835575188907,42.340799457433029,-71.090198471277105,26.264506414975461,1.7313059291981512,0.15037937703472712,0.47627384885343715,0.0097921491370814955,0.13960534877632996,0.29397041414547159,1.8891591637540217,2.26707926872318,-2.8413292104229924,0.24067031521474042,0,3,8
1480262340,67.95803499651485,42.340594538759767,-71.09059413482538,26.417875401499529,1.1326339166085808,0.16579875369141109,0.61216686460218805,0.15003366902480247,0.18552196719646996,0.43494898775410484,1.9459101490553139,2.133147536971097,-2.5011711015063973,0.22424812870731384,0,3,8
1480262370,14.535682955557407,42.340392221968948,-71.090751092947173,26.96603001047756,0.24226138259262345,0.18987363161897006,0.61216686460218805,0.042324218556194101,0.096672072313468152,0.20163872992289306,1.7328679513998633,1.9449722218469165,-1.519012721928432,0.25163146173732093,0,3,8
1480262400,5.473174383511031,42.340262155786498,-71.090756073194626,40.657257408771606,0.09121957305851719,1.6386118889272927,4.7652453001351507,0.0071774458353951439,0.069235560710478719,0.13031728155691485,1.8891591637540217,1.8627281552900901,0.06815084599951432,0.22949277289223194,0,3,8
1480262430,0.0,42.340232273603206,-71.090758619896221,57.00407910194712,0.0,1.6375225718760502,4.7652453001351507,0.0071774458353951439,0.044388053818981546,0.15848131529953965,1.9459101490553139,1.7949479101425914,0.38588022466953625,0.16744894733533985,0,3,8
1480262460,71.81463313108631,42.340254961074869,-71.090692947527472,66.913353629971255,1.1969105521847718,0.058943976852132846,0.17450621549149448,3.1438717371623421e-05,0.01619320811129667,0.075212199945029964,1.7328679513998633,1.7939394396372352,-0.76791594886887005,0.060560044797265095,0,3,8
1480262490,69.92556080873266,42.340333130153013,-71.090092906441114,97.428131153873863,1.1654260134788776,0.033980963412677243,0.078253639931024854,6.0598516247969047e-06,1.8926166314079761e-05,0.046140920764557239,1.8562701281920884,2.0768995279710674,0.074591566261519845,-0.18663237536996397,0,3,8
1480262520,42.71540061153998,42.34023424704494,-71.090077769398576,81.125836926278708,0.7119233435256663,0.027379661162491097,0.078253639931024854,1.8184070551886644e-06,4.1028519655261754e-06,2.1199485985444729e-05,1.8675843750169276,2.4388036829618125,1.1103170918952212,-0.3986144140531947,0,3,8
1480262550,0.05271457241098816,42.340204577897815,-71.090134385733151,65.0,0.0008785762068498026,1.1654146537277093e-05,3.4139254029929023e-05,2.3208644338490487e-07,2.2345997100609476e-06,5.8575479910029845e-06,1.7917594692280547,2.6354746561335101,1.1480726524703084,-0.49838527126703408,0,3,8
1480262580,1.1516496441891946,42.340202020562266,-71.090139864344394,68.345379859257875,0.019194160736486575,1.1146934524818475e-05,3.4139254029929023e-05,2.3208644338490487e-07,6.792802185972148e-07,1.1194229465405798e-05,1.945910149055313,2.5537273808538417,1.1314010526163887,-0.42314342725347454,0,3,8
1480262610,0.7882639066025058,42.340203866916397,-71.090138586979663,67.927207376850646,0.01313773177670843,4.6996208564018063e-06,1.2790879588534374e-05,2.6352446558662253e-07,7.635680588623121e-07,6.0128972479163672e-06,1.945910149055313,2.4878106756234044,1.1312385321953629,-0.36181042985563755,0,3,8
1480262640,0.2765254681259516,42.340207256956226,-71.090133560300842,65.0,0.004608757802099193,6.9835677465755026e-07,2.4282151535555106e-06,4.1183774263557575e-07,5.6309194591141778e-07,1.466513223012213e-06,1.7917594692280547,2.4605746691137154,1.1284480216368751,-0.34103468876272114,0,3,8
1480262670,0.13103646764023255,42.340207753611303,-71.09013182568016,65.0,0.0021839411273372094,8.1223184206888614e-07,2.6600153967957556e-06,6.1210693512680154e-08,5.079186164831419e-07,1.5221678737525346e-06,1.945910149055313,2.4606809927205147,1.1282979895270486,-0.34070394304284995,0,3,8
1480262700,2.8830282616941205,42.340212746094821,-71.090124633407697,65.0,0.04805047102823534,8.8636789502489547e-07,2.6600153967957556e-06,6.1210693512680154e-08,5.0594919566739276e-07,1.8278337383460082e-06,1.945910149055313,2.460718662657194,1.1279693956359387,-0.34040467766484356,0,3,8
1480262730,0.38511340675330646,42.340216711366452,-71.090118871140291,65.0,0.0064185567792217745,6.0634618312713747e-07,2.1996864376260413e-06,4.0789890100407749e-07,5.6659347427838219e-07,9.4796969874864208e-07,1.7917594692280547,2.4607898797024355,1.1276649228291584,-0.34013448860691953,0,3,8
1480262760,1.1840702610919864,42.340210893030154,-71.090126602811836,65.0,0.019734504351533108,7.4661548639536749e-07,2.5422176516868706e-06,1.0668371869292815e-07,5.931333270805205e-07,1.1310866877197372e-06,1.945910149055313,2.460900081879386,1.1276480737856587,-0.34001281140152212,0,3,8
1480262790,0.6094387506875728,42.340207900212611,-71.090130594171129,65.0,0.010157312511459547,7.8389763762920935e-07,2.5422176516868706e-06,1.0668371869292815e-07,4.0279408618925169e-07,1.1310866877197372e-06,1.945910149055313,2.4608810801534915,1.1277553054303173,-0.33984142800341444,0,3,8
1480262820,0.22276570125262185,42.34020659492144,-71.090132231758474,65.0,0.0037127616875436975,2.8087454622506674e-07,1.1102122128002348e-06,2.918733828938128e-07,3.2642128923027808e-07,5.172905898113527e-07,1.7917594692280547,2.4608096719960035,1.1273390395014651,-0.33969294369854169,0,3,8
1480262850,0.03625678195347033,42.340206385951113,-71.090132351815754,65.0,0.0006042796992245055,4.271100079772245e-07,1.4335713394667063e-06,2.918733828938128e-07,5.0320864591201692e-07,1.2080992116362424e-06,1.945910149055313,2.4608164045755743,1.12717523700186,-0.33964638579110479,0,3,8
1480262880,0.07937053326189017,42.340206207173082,-71.090132498488046,65.0,0.0013228422210315029,4.7772929662961755e-07,1.4335713394667063e-06,2.1952148382212342e-08,4.8510994697724626e-07,1.2080992116362424e-06,1.945910149055313,2.460840348911443,1.1267577788456915,-0.33958076064849274,0,3,8
1480262910,0.16054192031448672,42.340206317808054,-71.090133162802559,65.0,0.002675698671908112,1.0578207988586397e-06,3.188535469108573e-06,2.1952148382212342e-08,3.9776701883223071e-07,1.2736562030634538e-06,1.7917594692280547,2.4609334177323534,1.1262773477015118,-0.33947770224540036,0,3,8
1480262940,0.17741625449725898,42.340206840580322,-71.09013327152276,65.0,0.002956937574954316,8.8891576846766383e-07,3.188535469108573e-06,3.9324697233838758e-07,6.7068186443500653e-07,1.5585203896890009e-06,1.945910149055313,2.4610010357508156,1.1268645999647242,-0.33940422503813339,0,3,8
1480262970,0.03956127153909106,42.340206869218669,-71.09013280296621,65.0,0.0006593545256515177,4.055613176878366e-07,1.6312561999633481e-06,3.9324697233838758e-07,6.8263586981645064e-07,1.1214208963080519e-06,1.945910149055313,2.4608950292201128,1.1270501836620057,-0.33924022844233781,0,3,8
1480263000,0.03480616419939106,42.340206534223718,-71.09013298136685,65.0,0.0005801027366565177,5.5791755855408559e-07,1.8386925169139979e-06,9.4949001918600603e-08,6.7010322493019284e-07,1.3038957066854172e-06,1.7917594692280547,2.4607439953719283,1.1269528771734001,-0.33900479865212851,0,3,8
1480263030,0.014589507394602316,42.340206161709041,-71.090133142608437,65.0,0.00024315845657670525,1.1554738568880954e-06,3.6977404902362179e-06,9.4949001918600603e-08,4.1471288477894015e-07,1.4422107311948006e-06,1.945910149055313,2.4607636684251757,1.1266736115119058,-0.33894720577105769,0,3,8
1480263060,0.06369990122479743,42.340205968823184,-71.090133202978677,65.0,0.0010616650204132905,1.1062859008924985e-06,3.6977404902362179e-06,3.7999921546849146e-07,4.1471288477894015e-07,8.9509479650107492e-07,1.945910149055313,2.4608171708685718,1.1269531931617485,-0.33895307536700553,0,13,13
1480263090,0.08801261543142291,42.34020559683708,-71.090133568616935,65.0,0.0014668769238570486,7.2223706222007507e-07,2.543350836917147e-06,3.7999921546849146e-07,5.7292354425868631e-07,1.0177336444844701e-06,1.7917594692280547,2.4608671934747766,1.1275808087724817,-0.33894031082674148,0,13,13
1480263120,0.034853876646453744,42.340205439975641,-71.090133730478229,65.0,0.0005808979441075623,7.9286580716583954e-07,2.543350836917147e-06,8.8547325940484074e-08,4.231046780581999e-07,1.3241602146746417e-06,1.945910149055313,2.4609206652766029,1.1276701581261086,-0.33887133439601064,0,13,13
1480263150,1.8380370006924356,42.340207021180774,-71.090131179971038,65.0,0.03063395001154059,9.7214338870230787e-07,2.9317772316912353e-06,8.8547325940484074e-08,1.8977174774759448e-07,1.3241602146746417e-06,1.945910149055313,2.460971691288464,1.1275849659274544,-0.33884580106620277,0,13,13
1480263180,0.5872363989822287,42.340210633932223,-71.090125423573298,65.0,0.009787273316370478,9.8757480722052764e-07,2.9317772316912353e-06,9.4428127191861791e-08,2.1361883956408006e-07,4.9742929887400319e-07,1.7917594692280547,2.4609184406630633,1.1275247369812551,-0.33876533984493723,0,13,13
1480263210,1.5523100882991052,42.340210513160571,-71.090126548980038,65.0,0.025871834804985085,4.4100943907606502e-07,1.6054339482638872e-06,1.8529303781041581e-07,3.0781439188208682e-07,6.0058234671233399e-07,1.945910149055313,2.4607810231329998,1.1271687981936858,-0.33862913201455136,0,13,13
1480263240,0.4320816160916737,42.340207831678981,-71.090131782269822,65.0,0.0072013602681945624,7.2213007761315072e-07,2.4631726042379164e-06,3.1703253893910079e-07,5.6785448779606059e-07,1.5245646262747008e-06,1.945910149055313,2.4607867613026499,1.1263610389846817,-0.33856233010106168,0,13,13
1480263270,0.014577154435722137,42.340207042218516,-71.090132630820818,65.0,0.00024295257392870228,1.9717426129769027e-06,6.5340598326794185e-06,5.4442713770871438e-07,1.136706052869661e-06,2.4214598210319838e-06,1.7917594692280547,2.4608265634346984,1.1255180368399866,-0.33857637402420537,0,13,13
1480263300,0.015262021348115495,42.34020692640523,-71.090132444156438,65.0,0.0002543670224685916,1.792316666967936e-06,6.5340598326794185e-06,1.0343763023977097e-06,1.2665594745907013e-06,2.1918089617665586e-06,1.945910149055313,2.4607409760016572,1.1253211805311543,-0.33857837981046102,0,13,13
1480263330,0.14770227168970526,42.34020706638421,-71.090131921266632,65.0,0.0024617045281617542,8.047843616570167e-07,3.1764230312581172e-06,4.9236294210477922e-07,1.0776441373516974e-06,1.7635384361286027e-06,1.945910149055313,2.4605441598601159,1.1254338160790072,-0.33839925311084629,0,13,13
1480263360,0.10890513061315628,42.340206948293407,-71.090131833568691,65.0,0.0018150855102192713,1.1849121855208091e-06,3.1764230312581172e-06,2.3316689946689318e-07,5.6611203546516636e-07,2.5150087083672001e-06,1.7917594692280547,2.4603472327234814,1.1251349372373367,-0.33819703109806371,0,13,13
1480263390,0.13843883850389505,42.340206783285673,-71.090131962668195,65.0,0.0023073139750649173,8.9638416463673261e-07,3.009450576745267e-06,2.3316689946689318e-07,7.677079836095297e-07,1.9952905108428065e-06,1.945910149055313,2.4598167285686605,1.1248994775316115,-0.33788748036277466,0,13,13
1480263420,0.25895259880547655,42.340207199444301,-71.090131246837416,65.0,0.004315876646757943,6.4048856925869803e-07,2.0600114357480307e-06,3.3721676360476295e-07,5.6186542328508303e-07,1.4682338903300613e-06,1.945910149055313,2.4585441198873399,1.126239109947893,-0.33728128467865087,0,13,13
1480263450,0.059970109026277814,42.340207194806901,-71.090131070946924,65.0,0.0009995018171046301,4.3293160959229966e-07,1.4431006385037032e-06,2.4035748376680978e-08,3.8697701581686233e-07,6.6734927020039619e-07,1.7917594692280547,2.4575125185991999,1.129266536518075,-0.33679279640082699,0,13,13
1480263480,0.1917720259444264,42.340207349534808,-71.090130799792206,65.0,0.003196200432407107,4.8325323738595065e-07,1.4431006385037032e-06,2.2114725664925894e-08,7.357538890928525e-08,6.7510617464602701e-07,1.945910149055313,2.4576247369166082,1.1298761339851342,-0.33678396175651731,0,13,13
1480263510,0.13119730469413304,42.340207868691692,-71.09013082052806,65.0,0.0021866217449022173,5.1424135666877177e-07,1.5390403731294845e-06,2.2114725664925894e-08,1.4956959235358881e-07,8.3661805352910963e-07,1.945910149055313,2.4574835322018935,1.1280763758322288,-0.33678248998442711,0,13,13
1480263540,0.4207988989937278,42.34020733204391,-71.090132429481528,65.0,0.007013314983228797,8.3595583580129138e-07,2.7741032011740275e-06,3.4291852552791964e-07,5.3612024803125161e-07,1.6137968272171561e-06,1.7917594692280547,2.4572738132577752,1.1259930554132083,-0.33673249555543167,0,13,13
1480263570,0.2485294771598459,42.340207262534612,-71.090132346637475,65.0,0.004142157952664098,9.943328439366272e-07,3.4172984736954926e-06,3.7582752182132709e-07,1.0579706201113891e-06,2.4635212899131022e-06,1.945910149055313,2.4571909598676132,1.1250103577103614,-0.33652733557894915,0,13,13
1480263600,0.024743194099171754,42.34020789811872,-71.090130881951907,65.0,0.00041238656831952923,8.7869591596794198e-07,3.4172984736954926e-06,5.8837821017427184e-07,1.0579706201113891e-06,2.0951603533932358e-06,1.945910149055313,2.4571302835026247,1.1244753286872,-0.33641876486717548,0,13,13
1480263630,0.03355532990503795,42.340207683576864,-71.090130955910539,65.0,0.0005592554984172991,8.5160989120666769e-07,2.6434363371018294e-06,1.4037330728786082e-07,8.5879493513053337e-07,1.9604393875738582e-06,1.7917594692280547,2.4571698774926833,1.1244425056753748,-0.33644132099521645,0,13,13
1480263660,0.12548036533223916,42.340207915628405,-71.090130414078729,65.0,0.002091339422203986,1.8686238187012243e-06,6.2550891695851749e-06,1.4037330728786082e-07,9.25735961506126e-07,2.394957741284497e-06,1.945910149055313,2.4572039456910271,1.1236055198408814,-0.33640145433889446,0,13,13
1480263690,0.007243932051146795,42.340208278170493,-71.090129745780814,65.0,0.00012073220085244658,1.8765125677912883e-06,6.2550891695851749e-06,4.9815239139140603e-07,6.9388957182839897e-07,2.2543860840409327e-06,1.945910149055313,2.4571506482787546,1.1223338093968758,-0.33637550900829133,0,13,13
1480263720,0.099118663991219,42.340208049200626,-71.090129992937946,65.0,0.0016519777331869834,1.1501367085379464e-06,3.4034912888433385e-06,4.9815239139140603e-07,7.9943318348956451e-07,2.9215846528757151e-06,1.7917594692280547,2.4571829875769784,1.1216262071191931,-0.33639376521827002,0,13,13
1480263750,0.00811665634213899,42.34020794545237,-71.090129940543747,65.0,0.0001352776057023165,8.8884250047859783e-07,3.4034912888433385e-06,1.0768738349575824e-06,1.1550983299397269e-06,2.6688522853551554e-06,1.945910149055313,2.4572550694939439,1.1214955901352914,-0.33636400811599243,0,13,13
