TIMESTAMP,DISTANCE,AVG_LAT,AVG_LNG,GPS_ACCURACY,AVG_SPEED_BY_GPS,ACCLERATOR_STD,MAX_ACCLERATOR,MIN_ACCLERATOR,PERCENTILE_25_ACCLERATOR,PERCENTILE_75_ACCLERATOR,ACCLERATOR_ENTROPY,AVG_ROLL,AVG_YAW,AVG_PITCH,WEEK_DAY,LABEL1,LABEL2
1480208220,17.44036339838528,42.338735464787995,-71.088129981685952,86.0,0.29067272330642135,0.0036659789283187845,0.0085131526321803423,3.4349503683741807e-06,3.3756011035984159e-05,0.0021991604776800434,1.3138340331927469,0.019084059042233932,0.68400340954089511,0.11735470045973936,6,4,2
1480208250,17.44036339838528,42.338741255272055,-71.088121369303124,95.333333333333329,0.29067272330642135,0.00296773263023684,0.0085131526321803423,3.4349503683741807e-06,1.3174047896468563e-05,6.91797287192324e-05,1.8675843750169276,0.012609670237438392,0.8417603922314314,0.066758488408391409,6,4,2
1480208280,6.76137527468009,42.338743103329378,-71.088121174645636,97.309066645198669,0.11268958791133483,8.6470357774801881e-06,3.0619680689532673e-05,6.8164169700230588e-06,1.1198625466731107e-05,2.4242274859735581e-05,1.7917594692280547,0.0037887709869065729,1.0531060418633682,-0.00062704489805876439,6,4,2
1480208310,11.31832902806244,42.338746153048014,-71.088164450746945,80.00382851162486,0.188638817134374,2.8151619532492204e-05,9.0479911631411662e-05,6.8164169700230588e-06,8.8094102288835673e-06,2.1810616958603234e-05,1.945910149055313,0.0038668465373066299,1.0550543046658114,-0.0006446990622047549,6,4,2
1480208340,1.1105771707597867,42.338767677684217,-71.088219178204866,65.0,0.01850961951266311,2.7420002253696018e-05,9.0479911631411662e-05,8.0986548602432274e-06,9.5934394592745696e-06,2.3954281212297373e-05,1.945910149055313,0.0039911236712996375,1.0560607846674943,-0.00067551041988171939,6,4,2
1480208370,6.868760972249546,42.338777285448927,-71.088216662258887,65.0,0.11447934953749243,5.8268187212972894e-06,2.9073772779157117e-05,1.164515031530845e-05,1.2961377897330822e-05,1.8614328138038709e-05,1.7917594692280547,0.0038861698648919884,1.0568265827120999,-0.00062643618037505914,6,4,2
1480208400,2.518233526322099,42.338768362361968,-71.088199547021219,65.0,0.04197055877203499,7.8369250139852521e-06,3.3061449677056409e-05,1.0752703204860134e-05,1.331557969005137e-05,2.5674055472049804e-05,1.945910149055313,0.0039560607529471915,1.057309361630504,-0.00062038787053318994,6,4,2
1480208430,4.312153135194071,42.338758093559946,-71.088192349103281,65.0,0.0718692189199012,1.053990707958381e-05,3.9037756515481999e-05,8.1043416682048037e-06,1.7079078297166971e-05,3.1132692570842634e-05,1.945910149055313,0.0039205983859658157,1.0574107210634855,-0.00062899600470031484,6,4,2
1480208460,11.058653876532336,42.33873819470309,-71.088178078298441,65.0,0.1843108979422056,1.3719467341197325e-05,5.3514013518549483e-05,8.1043416682048037e-06,2.9010509503787042e-05,3.8695894976207898e-05,1.7917594692280547,0.0039302498352179862,1.0577085181702865,-0.00072038362572862137,6,4,2
1480208490,0.5941603242792473,42.33874051877622,-71.088175316158157,65.0,0.009902672071320787,1.3539020469237725e-05,5.3514013518549483e-05,1.6766293786278059e-05,2.0704728393636182e-05,4.3293497366842e-05,1.945910149055313,0.0040661574773240257,1.0580538114252143,-0.00077537004396484625,6,4,2
1480208520,4.025874613729132,42.338759043634461,-71.088194402322202,65.0,0.06709791022881888,1.1322222194893457e-05,4.8916684375298413e-05,1.6766293786278059e-05,2.0704728393636182e-05,3.7299287772789644e-05,1.945910149055313,0.0040578019832609247,1.0581359990016499,-0.00071236461421051605,6,4,2
1480208550,1.412245679592481,42.338766027170543,-71.088201756591346,65.0,0.023537427993208015,9.8434192376502671e-06,4.3551999260014866e-05,1.4828503756337981e-05,2.8331056283180004e-05,4.0328316411644875e-05,1.7917594692280547,0.0039994882379931762,1.0575804196527183,-0.00067975228678891048,6,4,2
1480208580,1.0235394083167095,42.3387767548518,-71.088218424950469,65.0,0.017058990138611826,8.9132581478695299e-06,4.3422229787005022e-05,1.4828503756337981e-05,2.6655072426692825e-05,3.5853422205459393e-05,1.945910149055313,0.0042242094419315066,1.0569256598233256,-0.00077420801901534602,6,4,2
1480208610,2.064238466979025,42.338780545910282,-71.088221330030066,65.0,0.03440397444965041,6.6768851721689691e-06,4.0999603969061563e-05,1.9911288910927896e-05,2.2152199147967547e-05,2.9781487335225456e-05,1.945910149055313,0.0043708856885276304,1.0571317916434886,-0.00075518300368229588,6,4,2
1480208640,1.4620533903250326,42.338778882322075,-71.088218964250956,65.0,0.02436755650541721,5.0369976200342232e-06,3.3409810600834141e-05,1.7472687730276632e-05,2.0320936656788936e-05,2.2473154421569641e-05,1.7917594692280547,0.0043713286416576886,1.057661445231705,-0.00069396374493281565,6,4,2
1480208670,1.893523310909924,42.33876858112464,-71.088219112307527,65.0,0.031558721848498734,1.3322146755318725e-05,5.6892654662970125e-05,1.7472687730276632e-05,2.1084853823288537e-05,3.7238361119568085e-05,1.945910149055313,0.0045822660213688119,1.0574896610966744,-0.00087004951145957783,6,4,2
1480208700,0.49897014442263166,42.338779639600318,-71.088223204666065,65.0,0.008316169073710527,1.281893918163327e-05,5.6892654662970125e-05,1.9675108876619326e-05,2.1084853823288537e-05,3.3903271512307236e-05,1.945910149055313,0.0045501723783900111,1.057553163031357,-0.00091776269148078,6,4,2
1480208730,0.808198541498083,42.338780387765972,-71.088221954272953,65.0,0.013469975691634717,1.0767129174871722e-05,5.0198114862202014e-05,1.8518100571057394e-05,2.0224070806535197e-05,2.6219405293720345e-05,1.7917594692280547,0.0042243730277051039,1.0579569437200498,-0.00086063121353245327,6,4,2
1480208760,0.7319204836845291,42.338771210297551,-71.088210252526693,65.0,0.012198674728075485,1.4453599993132836e-05,5.0198114862202014e-05,6.3624102855522962e-06,1.7621931654157121e-05,3.236349913279313e-05,1.945910149055313,0.0039179836595698665,1.058061292346157,-0.00087763765560680996,6,4,2
1480208790,1.2692006963703741,42.338767782956005,-71.088204005467418,65.0,0.021153344939506234,1.2351875544948497e-05,4.2856041669303456e-05,6.3624102855522962e-06,1.7621931654157121e-05,3.7320509934585919e-05,1.945910149055313,0.0038078956196853871,1.0580546896670315,-0.00086346831727449058,6,4,2
1480208820,9.381273867814823,42.33875932176111,-71.088195791725724,65.0,0.15635456446358037,1.1895966217021941e-05,6.36015465054281e-05,2.7484144822596396e-05,3.6845247963382375e-05,5.1235417458311869e-05,1.7917594692280547,0.0038533615253081364,1.0579784745561549,-0.00084549430674825453,6,4,2
1480208850,4.173031622060145,42.338751525360998,-71.088168386500897,65.0,0.06955052703433574,1.6345159001892887e-05,6.36015465054281e-05,1.6365338126741182e-05,2.4912712591090289e-05,4.8461937722289882e-05,1.945910149055313,0.003852921104109795,1.0583491616276872,-0.00084602761833960625,6,4,2
1480208880,2.82910656567635,42.338760767268077,-71.088175539722698,65.0,0.047151776094605836,8.7128981472701597e-06,4.3648025870504957e-05,1.6365338126741182e-05,2.1935609656444041e-05,3.2190466059202178e-05,1.945910149055313,0.0038127939247430444,1.0585984056211257,-0.00083528795789743193,6,4,2
1480208910,2.5678564012443537,42.338767758586997,-71.088178185357449,65.0,0.04279760668740589,1.2139927968525848e-05,6.1218248493166184e-05,2.5832418248226745e-05,3.5252826428804697e-05,5.2824363472102921e-05,1.7917594692280547,0.0038382564410734603,1.0585656683377531,-0.00085177082385292453,6,4,2
1480208940,3.0042044501469705,42.338760229416621,-71.088181276448111,65.0,0.05007007416911617,1.3293142485782961e-05,8.4959485125145321e-05,3.9742629835785387e-05,4.9211504843477441e-05,5.7898800443707132e-05,1.945910149055313,0.0042209366807302784,1.0586089050133158,-0.0010050093954157484,6,4,2
1480208970,1.7896791316531615,42.338765231195012,-71.08819782677476,65.0,0.02982798552755269,1.7574697713836598e-05,8.4959485125145321e-05,2.3313521088961665e-05,3.9326362774611704e-05,5.2096325388672343e-05,1.945910149055313,0.0043663870990133689,1.0643803374877572,-0.002793177460485248,6,4,2
1480209000,2.218116905579039,42.338771965305753,-71.088206168648739,65.0,0.036968615092983985,3.600563664735947e-05,0.00013020538265459745,2.3313521088961665e-05,2.9661830733578766e-05,4.9231348376907173e-05,1.7917594692280547,0.0037063084194648203,1.0852458161635534,-0.0089710523079223111,6,4,2
1480209030,5.097299374121168,42.338761146420254,-71.088205241567834,65.0,0.08495498956868613,3.6821366601295916e-05,0.00013020538265459745,1.5370240487082678e-05,2.438165946696971e-05,4.1199772289639923e-05,1.945910149055313,0.0031453322210256299,1.0985350390919328,-0.012834167337528013,6,4,2
1480209060,1.7816060947143502,42.33875681071396,-71.088199500084826,65.0,0.029693434911905837,1.5593561947648677e-05,6.6271724858313051e-05,1.5370240487082678e-05,2.1990853342520125e-05,3.4308389993846662e-05,1.945910149055313,0.0031181122619496552,1.0985113290250086,-0.0127889780331774,6,4,2
1480209090,4.945749458378423,42.338750534981934,-71.088197134522744,65.0,0.08242915763964039,1.4080804128408489e-05,6.6271724858313051e-05,2.129528885412058e-05,2.9886991629055167e-05,3.8437731173329156e-05,1.7917594692280547,0.0031930567052003114,1.0983568711630733,-0.012812323108688234,6,4,2
1480209120,0.22031746070753624,42.338747845769362,-71.088197888374125,65.0,0.0036719576784589375,1.1537392072382818e-05,5.4941370378335357e-05,1.4689847318809455e-05,3.0614984993643529e-05,4.0846654498757479e-05,1.945910149055313,0.0032869773997996768,1.0978225826716099,-0.012911198132614326,6,4,2
1480209150,1.5109429316425567,42.338760242174089,-71.088207638929077,65.0,0.02518238219404261,1.2730629144818838e-05,5.4941370378335357e-05,1.4689847318809455e-05,2.2947855504344038e-05,3.8927272041066447e-05,1.945910149055313,0.0033004175247049712,1.0977285983162399,-0.012917010296752142,6,4,2
1480209180,0.8917901513579147,42.338760617750147,-71.088209084122042,65.0,0.01486316918929858,1.1341161516783745e-05,5.2353897941097357e-05,1.9476458891966724e-05,2.1671356523313418e-05,3.3157802608573991e-05,1.7917594692280547,0.003294691896686788,1.0977882051106316,-0.012893826743217049,6,4,2
1480209210,0.9520285778079475,42.338750459943171,-71.08820417794351,65.0,0.01586714296346579,1.0307155672179986e-05,5.2353897941097357e-05,2.0936843438905961e-05,2.518660174189525e-05,3.9732991135646563e-05,1.945910149055313,0.0032366525637413019,1.097518960631553,-0.012879699582588056,6,4,2
1480209240,1.8250970263282476,42.338753112539557,-71.088209120951944,65.0,0.03041828377213746,6.0632706043129674e-06,4.1013371162646321e-05,2.4245291730924719e-05,2.8604845010720392e-05,3.8551172078872016e-05,1.945910149055313,0.0032164647569987406,1.09747463712626,-0.012874536629730987,6,4,2
1480209270,7.398067635867355,42.338760317154097,-71.088210759686859,65.0,0.12330112726445593,1.3648954115978921e-05,6.1975910855773729e-05,2.3449859800350337e-05,2.7250405012043609e-05,4.7224885661539306e-05,1.7917594692280547,0.0032512744935552264,1.09772103681734,-0.012875240684790915,6,4,2
1480209300,0.4955586181887527,42.338769288003164,-71.088205676427194,65.0,0.008259310303145879,1.2141266829399455e-05,6.1975910855773729e-05,2.3449859800350337e-05,3.9085583233608615e-05,5.3350316981505093e-05,1.945910149055313,0.0032691800109460284,1.0973772925187302,-0.012847836544351844,6,4,2
1480209330,0.4000228181292446,42.338771320638294,-71.088200511650285,65.0,0.0066670469688207435,1.0076433450597817e-05,5.6617364097323522e-05,2.3802657947048379e-05,3.9085583233608615e-05,4.867197838357386e-05,1.945910149055313,0.003273220364045639,1.0971189239165329,-0.012808848004144042,6,4,2
1480209360,0.1980329762945919,42.338765460370297,-71.088204233608124,65.0,0.003300549604909865,1.2464729722439727e-05,4.9233659992526703e-05,1.6692411127261889e-05,2.3586660260337856e-05,4.4585410873307864e-05,1.7917594692280547,0.0032812502242321718,1.0975247361979068,-0.012813290473829899,6,4,2
1480209390,5.9695850172834675,42.338775555640709,-71.088219375952775,65.0,0.09949308362139113,1.7748294661478892e-05,5.8355846673316282e-05,6.8648687982991998e-06,2.0103536079348119e-05,4.4935629815721957e-05,1.945910149055313,0.0032384369278703569,1.097742977910557,-0.012897718476822556,6,4,2
1480209420,0.4861663555283634,42.338775895383911,-71.088225796129407,65.0,0.00810277259213939,1.6447773959623604e-05,5.8355846673316282e-05,6.8648687982991998e-06,3.2062510335084073e-05,5.2110095502632536e-05,1.945910149055313,0.003192043658783414,1.0978098155182856,-0.012885443400456656,6,4,2
1480209450,1.6439439732087615,42.338771454210416,-71.088224268209601,65.0,0.027399066220146026,1.4782254958645428e-05,4.8384823564663077e-05,4.0961893294710702e-06,2.8818002564887258e-05,4.4375700191196928e-05,1.7917594692280547,0.0029312941514685956,1.0983316731113415,-0.012592616940456535,6,4,2
1480209480,0.2679736731531571,42.338768193691372,-71.088222135111025,65.0,0.004466227885885952,1.5152223004918595e-05,4.758786372566921e-05,4.0961893294710702e-06,2.2398400320470286e-05,4.4615969202351099e-05,1.945910149055313,0.00252899553986962,1.0988647482626572,-0.012333502184279229,6,4,2
1480209510,8.638432854973102,42.338757898058674,-71.088214018567655,65.0,0.14397388091621838,1.1542759614050382e-05,4.8308670744204691e-05,1.6402506714199632e-05,2.6769222679104228e-05,4.4720512623389882e-05,1.945910149055313,0.0024731601698150299,1.0988996401139213,-0.012313947732340543,6,4,2
1480209540,1.1082726395887095,42.338751788259813,-71.088204107233466,65.0,0.018471210659811825,8.6264784357763787e-06,4.8308670744204691e-05,2.0970249093283991e-05,3.6865735691844413e-05,4.3101882105948845e-05,1.7917594692280547,0.0025322873002907678,1.0989659665342983,-0.012315108252643899,6,4,2
1480209570,8.010665926952992,42.338754330546777,-71.088207148175456,65.0,0.13351109878254988,1.003431022929343e-05,4.3359668247859401e-05,1.2202025336477419e-05,3.6833087625670098e-05,4.2156686565708746e-05,1.945910149055313,0.0022991144344573469,1.0992460064409815,-0.012091811920092557,6,4,2
1480209600,0.577374784270301,42.338764769322218,-71.088220632492252,65.0,0.009622913071171683,1.2108804901535986e-05,4.1984849451200321e-05,1.0569471555906061e-05,1.3903072563283192e-05,3.6833087625670098e-05,1.945910149055313,0.0010953050931858984,1.0996329412890842,-0.011354619543233382,6,4,2
1480209630,3.1106676698486693,42.338762262713892,-71.088220969625468,65.0,0.05184446116414449,1.1691564646033347e-05,4.0518665980534935e-05,1.0569471555906061e-05,1.8076315639589377e-05,3.849012146189945e-05,1.7917594692280547,0.00051962594825240749,1.0997434401832216,-0.011039663597341145,6,4,2
1480209660,6.429908729793193,42.338758848682822,-71.088202994081868,65.0,0.10716514549655322,1.9923618943094865e-05,6.1924160791117453e-05,2.3551170661075274e-06,2.1477303685813667e-05,4.3372596217373755e-05,1.945910149055313,0.00011086528507283778,1.0989658678872469,-0.010105485020622277,6,4,2
1480209690,3.6804267803241943,42.338764679128616,-71.088185390172868,65.0,0.06134044633873657,2.2511648197393792e-05,6.1924160791117453e-05,2.3551170661075274e-06,1.1880971371371795e-05,5.1897394509635525e-05,1.945910149055313,-0.0011819066118005171,1.0981244451791541,-0.0085854174421410249,6,4,2
1480209720,4.528008618544616,42.338767185671976,-71.088187232675963,65.0,0.07546681030907694,1.267403852769537e-05,5.7568262565058469e-05,1.7612506968786145e-05,3.9436363888943486e-05,5.0515696696763336e-05,1.7917594692280547,-0.002481278894913595,1.0971380283776115,-0.007144047395519995,6,4,2
1480209750,5.352845199322384,42.3387677820037,-71.088206910538688,65.0,0.08921408665537306,1.3993180393561511e-05,6.1120285983178325e-05,1.6608656255610507e-05,3.0090992256288214e-05,4.8978024339575498e-05,1.945910149055313,0.00095313767364002403,1.0920331264060643,-0.0030479526455585528,6,4,2
1480209780,2.5289422874313763,42.338767104586374,-71.08821788836083,65.0,0.04214903812385627,1.2516203099956481e-05,6.1120285983178325e-05,1.6608656255610507e-05,2.9733325534094836e-05,3.6052928081674689e-05,1.945910149055313,0.0041469600658363423,1.0884801631334313,-0.00054865708640345896,6,4,2
1480209810,0.6031579314881388,42.338768533314614,-71.088214535805349,65.0,0.01005263219146898,3.285220005926745e-06,3.76248201051434e-05,2.745272177562562e-05,3.0617129326816761e-05,3.4454297817786768e-05,1.7917594692280547,0.0043609827192971698,1.0881845273138635,-0.00056152320355498436,6,4,2
1480209840,1.7698699452213655,42.338768454395684,-71.088209317221541,65.0,0.029497832420356092,1.0559099338765751e-05,5.9718495594950346e-05,2.745272177562562e-05,2.947465101007025e-05,3.8093273322177096e-05,1.945910149055313,0.0044756858465473887,1.0879371717302013,-0.00053190722276549244,6,4,2
1480209870,1.287002186882351,42.338772652919857,-71.088203658447483,65.0,0.02145003644803918,1.0742753718966309e-05,5.9718495594950346e-05,2.6035429850170917e-05,2.947465101007025e-05,3.750589096228238e-05,1.945910149055313,0.0044365305586254924,1.0879128433887399,-0.00051184438085814809,6,4,2
1480209900,4.796750846318025,42.338771942152455,-71.088207299095771,65.0,0.07994584743863374,3.6635869439110743e-06,3.3199318376739684e-05,2.462577779464371e-05,2.5224438891285261e-05,3.2112640296911832e-05,1.7917594692280547,0.0043256158644656168,1.0878321908815503,-0.00052318379234862137,6,4,2
1480209930,3.1267421346008177,42.338769067990185,-71.088214770942415,65.0,0.052112368910013626,2.7620233573832659e-05,8.8448915108484342e-05,1.2735574179945534e-05,2.439364624333891e-05,5.5188127198742561e-05,1.945910149055313,0.0042885080154002886,1.0877103207866214,-0.00044992102157727815,6,4,2
1480209960,1.9384424441463002,42.338776533736748,-71.088224314177111,65.0,0.032307374069105006,2.7772444095814889e-05,8.8448915108484342e-05,1.2735574179945534e-05,2.2945570967702525e-05,6.4372388299544333e-05,1.945910149055313,0.0043612640386418858,1.0877220839434671,-0.00041685577000192446,6,4,2
1480209990,3.938433125498786,42.338761568486369,-71.088213010184433,65.0,0.06564055209164643,1.1111370116008294e-05,5.0334361140718041e-05,1.4364768597698185e-05,2.2698088276979122e-05,3.1088247596508425e-05,1.7917594692280547,0.0043048068612508645,1.0881226410499283,-0.00042154368271093734,6,4,2
1480210020,4.559591173232818,42.33874877143672,-71.088201463185456,65.0,0.07599318622054696,8.4651098441527973e-06,4.060887439124674e-05,1.4364768597698185e-05,3.0765532549943334e-05,3.8918932655392297e-05,1.945910149055313,0.0042636757469249513,1.0886854330618341,-0.00040643999084578593,6,4,2
1480210050,3.8174806271003305,42.338758690704658,-71.088211509482548,65.0,0.06362467711833884,1.4018099292722424e-05,4.9434018962153077e-05,2.349574569948731e-06,3.2472403759252327e-05,3.9805647507333168e-05,1.945910149055313,0.0028491383584039456,1.0866006609381456,0.00195322125677991,6,4,2
1480210080,2.1249088807403678,42.33876583412502,-71.088222765776024,65.0,0.03541514801233946,1.5375846295780322e-05,4.9434018962153077e-05,2.349574569948731e-06,1.0171930641761045e-05,2.6969288097304678e-05,1.7917594692280547,0.001760275631116457,1.0783392753823133,0.0045048661501685553,6,4,2
1480210110,1.3002541105206098,42.33876607245562,-71.088223346633654,65.0,0.021670901842010162,3.334323036379409e-05,0.00010897375489300427,5.4689208910704849e-06,1.0856201874082918e-05,2.2953905245881234e-05,1.945910149055313,0.0033545134306306097,1.0708098516514473,0.0040475507983427639,6,4,2
1480210140,1.9589291811615794,42.338775119444591,-71.088228217762619,65.0,0.03264881968602632,3.4496098008299369e-05,0.00010897375489300427,1.9947009817955602e-06,1.0328743533330674e-05,4.4262495537214931e-05,1.945910149055313,0.0040695162358587765,1.0692116918735401,0.0037518417675017567,6,4,2
1480210170,6.265607212492455,42.338768194756895,-71.088221393256575,65.0,0.10442678687487425,1.5883342467856767e-05,5.3352710912476287e-05,1.9947009817955602e-06,1.90437374101276e-05,3.4179919173183326e-05,1.7917594692280547,0.0043965630717794097,1.0700548013348816,0.0023181347848484283,6,4,2
1480210200,0.9454349106339313,42.338742734609994,-71.088205845850865,65.0,0.015757248510565522,1.6154005904495461e-05,5.9667311226130028e-05,1.2986482635754223e-05,1.9797111602585616e-05,4.0995197348215348e-05,1.945910149055313,-0.00088309754034216891,1.0670772440773244,0.0030360956572104475,6,4,2
1480210230,3.4244455954197335,42.338748845379776,-71.088208141746705,65.0,0.057074093256995556,1.6365676412781597e-05,5.9667311226130028e-05,1.2986482635754223e-05,1.9426360038232782e-05,4.1038683956316383e-05,1.945910149055313,-0.0089776625615225203,1.0618370555242671,0.0053951106913663355,6,4,2
1480210260,2.4649028099587142,42.338767883104957,-71.088210480603351,65.0,0.0410817134993119,1.0931208326502776e-05,3.1542368397513244e-05,9.6475132703800065e-07,1.8489447275091105e-05,3.1163694450904293e-05,1.7917594692280547,-0.014455468763970683,1.0586642329259084,0.0069887636675039578,6,4,2
1480210290,0.682952723955147,42.338760815622997,-71.088210271153443,65.0,0.01138254539925245,1.2036961123019276e-05,3.5326500665085745e-05,9.6475132703800065e-07,1.6610029439672358e-05,3.326774831559431e-05,1.945910149055313,-0.014624159525210744,1.0586247915162814,0.0070750236470449868,6,4,2
1480210320,2.758260197048123,42.338753511685042,-71.088209285399714,65.0,0.045971003284135385,1.2284800880127754e-05,3.5326500665085745e-05,3.6944419032325883e-06,1.0363531143385762e-05,3.3285148364644169e-05,1.945910149055313,-0.01469359285286503,1.0587124788001401,0.0071419651247059341,6,4,2
1480210350,3.9658257678342848,42.338752862670212,-71.088213691807795,65.0,0.06609709613057141,1.4138285790094636e-05,4.130002015920366e-05,3.6944419032325883e-06,9.3476279766588738e-06,3.326043117981269e-05,1.7917594692280547,-0.014848450605251301,1.0589732159293883,0.0072613726529048607,6,4,2
1480210380,2.693164878132082,42.338750925867451,-71.088211495789992,65.0,0.04488608130220137,6.2507328901559203e-05,0.00020483932604107333,8.8899852831364482e-06,2.3408922731561529e-05,4.9581333324604312e-05,1.945910149055313,-0.014909392646735473,1.0585594757526156,0.0072603441740096992,6,4,2
1480210410,1.7031456312354873,42.33876419272498,-71.088213754235127,65.0,0.028385760520591455,6.1625909675218528e-05,0.00020483932604107333,8.8899852831364482e-06,2.6768152461638493e-05,5.7018759145105538e-05,1.945910149055313,-0.014806481941438186,1.0582486598443028,0.0071952447938795558,6,4,2
1480210440,2.995042573414541,42.338773276302,-71.088223328186643,65.0,0.049917376223575685,1.621102480205482e-05,5.6174871800206117e-05,5.2572721004198019e-06,1.6165143316385701e-05,3.291310656309731e-05,1.7917594692280547,-0.014653215241445298,1.0581998381038984,0.0070465605781457113,6,4,2
1480210470,0.3458340758918414,42.3387728301186,-71.088227404207387,65.0,0.005763901264864023,1.7950569950077472e-05,5.2032595142944704e-05,5.2572721004198019e-06,1.588245004478589e-05,4.9415114189558661e-05,1.945910149055313,-0.014573778369804714,0.98442963365875702,0.0070359208176631206,6,4,2
1480210500,2.733388220459511,42.338763048033314,-71.088218605084336,65.0,0.04555647034099185,2.2098688764789771e-05,8.1344796000090954e-05,1.5588032134468718e-05,2.0324941907203286e-05,5.1865137171638013e-05,1.945910149055313,-0.013014632731566304,0.77015901754320459,0.0078296028286589589,6,4,2
1480210530,0.30018580169868025,42.338757890592582,-71.08821091104798,65.0,0.005003096694978004,2.9604393028973831e-05,8.5040779782326952e-05,1.5588032134468718e-05,2.0811789289408081e-05,6.700058186519199e-05,1.7917594692280547,-0.012211427272755737,0.55971555210404522,0.0082459925744073972,6,4,2
1480210560,2.780981108406062,42.338757417190848,-71.088218054679487,65.0,0.046349685140101037,3.3856129122818844e-05,0.00010623367168695172,4.4913605223652047e-06,2.1990707063890437e-05,6.7568721536030889e-05,1.945910149055313,-0.013558419921935915,0.56089051824110459,0.0076213002527285387,6,4,2
1480210590,0.2682836718778642,42.338756139556807,-71.088222221349042,65.0,0.004471394531297737,3.3278040791642757e-05,0.00010623367168695172,4.4913605223652047e-06,1.224314029687298e-05,4.8287722843860472e-05,1.945910149055313,-0.0135659089034669,0.56066302592356299,0.0074916456578389109,6,4,2
1480210620,0.38351665382756406,42.338760855820276,-71.088213974982978,65.0,0.006391944230459401,3.1782894240780591e-06,1.9121509899068046e-05,9.7062723894929802e-06,1.5095830431633855e-05,1.8454974162277731e-05,1.7917594692280547,-0.013456912119743767,0.56247220604476178,0.007385385961279251,6,4,2
1480210650,1.2769633113922936,42.338756585945013,-71.088201741848124,65.0,0.021282721856538227,1.9126801504795489e-05,6.7724523517845371e-05,1.6043297113776479e-05,1.9105203081176212e-05,4.8348180877323744e-05,1.945910149055313,-0.013408240403958644,0.56432304041528514,0.00731609749085465,6,4,2
1480210680,5.834896875044351,42.338763644288534,-71.088205908148808,65.0,0.09724828125073919,2.2092875294032361e-05,6.7724523517845371e-05,1.051198668061289e-06,1.7453624123820459e-05,4.8348180877323744e-05,1.945910149055313,-0.013463337698406486,0.56414477608808011,0.0072530646742565031,6,4,2
1480210710,1.6639655271736407,42.338768965733763,-71.088207859781875,65.0,0.027732758786227343,1.5280968251130142e-05,4.2451535604153908e-05,1.051198668061289e-06,6.7655338185832876e-06,3.2243521069167458e-05,1.7917594692280547,-0.013552299265883883,0.56405144101824145,0.0072644860207841501,6,4,2
1480210740,2.142979213645983,42.338764956006266,-71.08820642819316,65.0,0.035716320227433054,5.7120487635870948e-05,0.00018195604482826346,1.1643091192278109e-06,1.5735331204634456e-05,3.9079546860801566e-05,1.945910149055313,-0.013590660570132128,0.56379617693124184,0.0073802224682961949,6,4,2
1480210770,0.21999072774571504,42.338756248670308,-71.088207695347251,65.0,0.003666512129095251,5.7015767777558228e-05,0.00018195604482826346,1.1643091192278109e-06,1.8174437998625073e-05,3.4548198245861278e-05,1.945910149055313,-0.013610722956425857,0.56302348128682167,0.0075325118354195239,6,4,2
1480210800,3.633606991913241,42.338755942751938,-71.088211403110535,65.0,0.06056011653188735,6.2755897819303554e-05,0.0001737430625210208,2.2163130392713655e-06,1.2411237635446143e-05,9.3602152709235464e-05,1.7917594692280547,-0.013529127783857765,0.56277231400117134,0.0075414125308542459,6,4,2
1480210830,1.24364672601232,42.338758655996131,-71.088210930664872,65.0,0.020727445433538667,6.2354302069425483e-05,0.0001737430625210208,2.2163130392713655e-06,5.4840499561201464e-06,0.00010553352884658577,1.945910149055313,-0.013560482889507772,0.56296102315724805,0.0074675044955403429,6,4,2
1480210860,0.5097786078436222,42.338755736845798,-71.088207991648005,65.0,0.008496310130727037,2.8753203006778204e-05,9.7393800205615373e-05,2.9960993292205581e-06,1.5895752452281357e-05,3.095710187718311e-05,1.945910149055313,-0.013567279719824488,0.56297811234978723,0.0074576459175253488,6,4,2
1480210890,1.7251096189009454,42.338760679874937,-71.088215055868815,65.0,0.028751826981682424,4.0209919500469764e-06,2.8787441512053538e-05,1.7371061164363268e-05,2.4489181419207269e-05,2.8413345696188893e-05,1.7917594692280547,-0.013461269098488266,0.56342239664850069,0.007399373745926436,6,4,2
1480210920,0.16115901451092765,42.338767254103622,-71.088222512626601,65.0,0.0026859835751821275,5.1842332750722324e-06,2.84736886688314e-05,1.3849300093542153e-05,1.9668337876569695e-05,2.7392729269615756e-05,1.945910149055313,-0.01352816444234266,0.5920483149309963,0.0073469028472839554,6,4,2
1480210950,6.588716675534808,42.338760715143934,-71.08821917338895,65.0,0.1098119445922468,1.0199605452083715e-05,4.1975651139804216e-05,9.5475954760517926e-06,1.7907457341159135e-05,3.0427652350018925e-05,1.945910149055313,-0.013585209343982958,0.63452462117192765,0.0072893628679330793,6,4,2
1480210980,0.9169973742535512,42.338747306048113,-71.088206127278951,65.0,0.015283289570892521,1.2816985088262146e-05,4.1975651139804216e-05,7.4718524179558886e-06,1.0099378351281341e-05,3.0570784516410426e-05,1.7917594692280547,-0.01355102621091595,0.66326073785276718,0.0072976093589441036,6,4,2
1480211010,5.190578545995258,42.33874916854267,-71.088207885988126,65.0,0.0865096424332543,6.9188723593514587e-06,2.5936034618003926e-05,7.4718524179558886e-06,1.2686292826915023e-05,2.4737548667628746e-05,1.945910149055313,-0.013428627922453284,0.66867091248524346,0.0073545570568174729,6,4,2
1480211040,2.889990986543222,42.33875939643837,-71.088218093120858,65.0,0.04816651644238703,1.0145990552192501e-05,3.9026362585785868e-05,6.4262422230080451e-06,1.3557933653222357e-05,2.5416085253319576e-05,1.945910149055313,-0.013350223553200971,0.67330259200930975,0.0074730407240247492,6,4,2
1480211070,1.0904891616751788,42.338762693190866,-71.088221007415157,65.0,0.01817481936125298,9.9970589397185565e-06,3.9026362585785868e-05,6.4262422230080451e-06,1.5270864573490052e-05,2.2789527257273372e-05,1.7917594692280547,-0.013344403776198383,0.67439398732530631,0.0075676382146341384,6,4,2
1480211100,8.137031534148266,42.338759595227387,-71.088208131738767,65.0,0.13561719223580443,4.8539193399692947e-06,3.2760546520076913e-05,1.6314138946480423e-05,2.1601774722793071e-05,2.5977377429392924e-05,1.945910149055313,-0.013313586885255673,0.67443249404048267,0.0074756030001665776,6,4,2
1480211130,4.012351352537843,42.338771034330456,-71.088187407913381,65.0,0.06687252254229739,5.7809169545450143e-06,3.2760546520076913e-05,1.5998965959629564e-05,2.0242641766807574e-05,2.8011824383686983e-05,1.945910149055313,-0.013305495137319755,0.67441694390740781,0.0074594790943903278,6,4,2
1480211160,6.594334334926217,42.338775170892333,-71.088189356317457,65.0,0.10990557224877029,4.3277999673494789e-06,2.8240038495722842e-05,1.5998965959629564e-05,2.0361786732686224e-05,2.6386688567798206e-05,1.7917594692280547,-0.013426282452012531,0.67442802863214546,0.007502621963486257,6,4,2
1480211190,1.6179921826460166,42.338762059806548,-71.088200984824354,65.0,0.02696653637743361,5.346302127676579e-05,0.00017432644068626082,3.6281149806241326e-06,2.1578625211552251e-05,3.7572157486099396e-05,1.945910149055313,-0.013609964476672672,0.67473292830335097,0.0076440330001512485,6,4,2
1480211220,0.657205446195563,42.338763139379772,-71.088207921257037,65.0,0.010953424103259383,5.4919391985748216e-05,0.00017432644068626082,3.6281149806241326e-06,9.4333923203166136e-06,4.462992436482837e-05,1.945910149055313,-0.013719091257851273,0.67461171072259074,0.0077442201924828964,6,4,2
1480211250,5.01229001898782,42.338754749931958,-71.088190736011953,65.0,0.08353816698313034,1.4530726731626318e-05,4.8375644180581927e-05,7.6383039780030256e-06,1.1299541277511324e-05,3.1199058523993937e-05,1.7917594692280547,-0.013683847852528117,0.67480315150148173,0.0077048097296835245,6,4,2
1480211280,5.997933806749144,42.338740721887518,-71.088171969867602,65.0,0.09996556344581906,7.5810882623705737e-06,3.1868825286484931e-05,1.0680659066065878e-05,1.4567938692224978e-05,2.6619391559662285e-05,1.945910149055313,-0.013606131294006488,0.67560244819866078,0.0076967258585274997,6,4,2
1480211310,7.326148054564271,42.338750432908732,-71.088191982115589,65.0,0.12210246757607118,5.9661639898858299e-06,2.4049024882803605e-05,7.4567673215649132e-06,1.4151906664180568e-05,2.2499620300028183e-05,1.945910149055313,-0.013645954935481642,0.67575549027124937,0.0077706480777334211,6,4,2
1480211340,5.352528808492836,42.338764128705073,-71.088208929436547,65.0,0.08920881347488059,1.1670505987563929e-05,4.0033698751985067e-05,7.4567673215649132e-06,1.118528107775986e-05,2.9348992269717213e-05,1.7917594692280547,-0.013641145183050733,0.67529196565502547,0.0077294694259012345,6,4,2
1480211370,1.6267260583447907,42.338766723863323,-71.088211488321548,65.0,0.027112100972413178,1.0021381195227147e-05,4.0033698751985067e-05,8.2579600785886402e-06,1.7167811981254942e-05,3.0817617524248851e-05,1.945910149055313,-0.013224378537642214,0.67501898584153441,0.0074059767604242573,6,4,2
1480211400,0.8666719828542498,42.338768573288888,-71.08820810080762,65.0,0.01444453304757083,6.0809974346628597e-06,3.0447300069088197e-05,1.120835985264922e-05,1.7167811981254942e-05,2.4735942891584098e-05,1.945910149055313,-0.012934022084191629,0.67520051809957871,0.0072644308752674415,6,4,2
1480211430,1.2016534082819514,42.338763899388432,-71.088186124540798,65.0,0.02002755680469919,7.2246531621287039e-06,2.8340221517307755e-05,7.4559213550590303e-06,1.1507472244008186e-05,2.167695977785634e-05,1.7917594692280547,-0.012990904966374749,0.67602897325918043,0.0073474994124826014,6,4,2
1480211460,6.545478109563065,42.338758589105474,-71.088178725303095,65.0,0.10909130182605109,2.0957668775537939e-05,7.6845890381653756e-05,7.4559213550590303e-06,1.8425455596027383e-05,3.4062453471633155e-05,1.945910149055313,-0.012981481745210743,0.67648040411136612,0.0073263277335796299,6,4,2
1480211490,3.6194366595258676,42.338759413827304,-71.088197900358566,65.0,0.060323944325431124,2.3505789878582456e-05,8.9424074698485085e-05,2.444610177396969e-05,3.4062453471633155e-05,7.1685579486136555e-05,1.945910149055313,-0.012875411055398614,0.67662752608322196,0.0073318946907158485,6,4,2
1480211520,2.94732711791851,42.338768863345834,-71.088209435030365,65.0,0.049122118631975166,2.5077905626229276e-05,8.9424074698485085e-05,1.3150963949183917e-05,3.1093745721879628e-05,6.0278208987058122e-05,1.7917594692280547,-0.01279982426687805,0.67672528522033681,0.0073644856084596902,6,4,2
1480211550,1.7740534830512311,42.338781023892636,-71.088210227473468,65.0,0.029567558050853853,1.0925974136616467e-05,4.1537030176374433e-05,6.544677465379719e-06,1.7910408344825089e-05,3.0345478527111804e-05,1.945910149055313,-0.012777958174859327,0.67592196026484808,0.0073081347249538504,6,4,2
1480211580,1.3526465271679518,42.338789225812668,-71.08821042557679,65.0,0.02254410878613253,1.1748680885528215e-05,3.5182320735456643e-05,1.5824032104580776e-06,1.3402376595957511e-05,3.0345478527111804e-05,1.945910149055313,-0.012825932085166015,0.67527315190659876,0.0073109880486199258,6,4,2
1480211610,1.5935728273843166,42.338779446656069,-71.088212486428802,65.0,0.026559547123071944,1.2001807675471462e-05,3.5182320735456643e-05,1.5824032104580776e-06,9.7306835886646575e-06,2.8103328745605897e-05,1.7917594692280547,-0.012906781331815683,0.67523903688061948,0.0073453596707212312,6,4,2
1480211640,1.896267614635728,42.338763820980034,-71.08820898297644,65.0,0.0316044602439288,9.1805641011084218e-06,3.4582839597592868e-05,6.2208862093744422e-06,1.8659329838410635e-05,3.0167327594775757e-05,1.945910149055313,-0.0033564354788636697,0.66872201831560996,0.0038088024042907584,6,4,2
1480211670,1.2228803728025484,42.338767313050468,-71.088210523625861,65.0,0.020381339546709138,9.2253971476514578e-06,3.7514024345389122e-05,1.469404022351658e-05,1.8729862176125717e-05,3.5658691873043073e-05,1.945910149055313,0.0039532931985065342,0.66359715910371941,0.0010828762960871986,6,4,2
1480211700,2.106271467853837,42.3387526364858,-71.088188361801329,65.0,0.03510452446423062,8.0539180817997337e-06,3.7514024345389122e-05,1.4835104898946747e-05,2.7998376136068505e-05,3.7055148833265967e-05,1.7917594692280547,0.0041286238138531087,0.66363708761452234,0.00093100135292019295,6,4,2
1480211730,8.285885253310743,42.338747407155246,-71.088179984532886,65.0,0.13809808755517905,1.1429109880446418e-05,5.36097164340855e-05,2.1056673987411061e-05,2.7056644310150405e-05,4.3570227567398022e-05,1.945910149055313,0.0040155913099969376,0.66386496584981991,0.00090346327381586101,6,4,2
1480211760,0.38369092086180545,42.338761536675435,-71.088195996449556,65.0,0.006394848681030091,1.2962084366486435e-05,5.36097164340855e-05,1.6207624961532614e-05,2.4030713019397423e-05,4.1314709842160255e-05,1.945910149055313,0.0018977797726782402,0.66158606764535144,0.00084246109065508053,6,4,2
1480211790,2.9063397577703634,42.338763483410133,-71.088203699940792,65.0,0.04843899596283939,5.8787648612914918e-06,3.2650981611047987e-05,1.6207624961532614e-05,2.2529239407807222e-05,3.0628675165157302e-05,1.7917594692280547,-0.00074146126245222413,0.65812392063752512,0.00067997019220617644,6,4,2
1480211820,1.8489831617713455,42.33876141427131,-71.088209096714209,65.0,0.030816386029522424,2.0159642021484439e-05,7.920474494960543e-05,1.5364964440391929e-05,2.1427776143645522e-05,3.5319646378195006e-05,1.945910149055313,-0.00067868340395751199,0.65749817729243698,0.00063516055027837762,6,4,2
1480211850,2.3904529283867384,42.338760922560077,-71.088206609299903,65.0,0.039840882139778974,1.9357759621015945e-05,7.920474494960543e-05,1.5364964440391929e-05,2.5286229571053443e-05,3.7802848470457238e-05,1.945910149055313,-0.00072460509211153185,0.65740808757789337,0.00061463574325283058,6,4,2
1480211880,0.9438154180962418,42.338765870381991,-71.088200682009614,65.0,0.015730256968270698,1.0973287243422287e-05,5.8877839221616773e-05,2.6002148594224479e-05,2.8828652196380946e-05,3.5892886444904223e-05,1.7917594692280547,0.00083459628893277728,0.65818103737262434,0.00049727307821294589,6,4,2
1480211910,5.23730669936112,42.338769263604135,-71.088199559568338,65.0,0.08728844498935201,1.7533569534463095e-05,6.4151202110362601e-05,8.93981808695855e-06,2.9483445825292647e-05,5.0637806935284519e-05,1.945910149055313,0.0035033454783704914,0.6586784555242462,0.00034604135546932347,6,4,2
1480211940,3.3091447335772775,42.338780334978608,-71.088210503048927,65.0,0.05515241222628796,1.8511618917552208e-05,6.4151202110362601e-05,4.9995396620188162e-06,1.8768067750704004e-05,3.7681258852656541e-05,1.945910149055313,0.004294071661380662,0.65854432440740041,0.00029327497280868842,6,4,2
1480211970,1.5296794917634715,42.338796636226192,-71.088226021152963,65.0,0.025494658196057857,9.8737625584837246e-06,3.5100380927209331e-05,4.9995396620188162e-06,2.0417783139510758e-05,3.0204572353921034e-05,1.7917594692280547,0.004317379579810373,0.65825987741383341,0.00026827676651556951,6,4,2
1480212000,1.913559072893423,42.338781415453219,-71.088221148190513,65.0,0.031892651214890384,9.3977692681831098e-06,3.8983612995112348e-05,9.7452820027306737e-06,1.9139975591871459e-05,3.0584137797760125e-05,1.945910149055313,0.0043762789459409245,0.65837359642268345,0.00025905970764583886,6,4,2
1480212030,7.269988435953147,42.338757894252467,-71.088198432415922,65.0,0.12116647393255245,1.1610030275005529e-05,4.5035161993250728e-05,9.7452820027306737e-06,1.8761570146545798e-05,3.3869135076096125e-05,1.945910149055313,0.004444057438387195,0.6586707885506452,0.00022190188955137634,6,4,2
1480212060,1.022406345155046,42.338757445160596,-71.088184157801862,65.0,0.0170401057525841,8.8389520260570339e-06,4.5035161993250728e-05,1.7777601739259386e-05,2.4705362988585338e-05,3.444585488156033e-05,1.7917594692280547,0.0044803523272840332,0.65892618205944731,0.00018215808984087549,6,4,2
1480212090,4.758838723896316,42.338762354214857,-71.088181609934836,65.0,0.07931397873160527,1.1326806114566134e-05,4.0242763578282315e-05,7.5128676509775309e-06,2.0950094346116099e-05,3.7885543943569536e-05,1.945910149055313,0.0044806003213322494,0.6585992455515054,0.00020467997734504795,6,4,2
1480212120,1.5680235316762727,42.338765504031315,-71.088193365914293,65.0,0.026133725527937877,1.4279555722158713e-05,4.9354161872649645e-05,7.5128676509775309e-06,2.8079000833945756e-05,4.2660083981065186e-05,1.945910149055313,0.0044494602202291454,0.65811561466009372,0.00026669152210146959,6,4,2
1480212150,0.26023563590841775,42.338773387776051,-71.088212827005918,65.0,0.004337260598473629,1.2705614782661407e-05,4.9354161872649645e-05,1.6792532791100017e-05,2.0247626541558752e-05,4.3501555581203468e-05,1.7917594692280547,0.0043644290210220101,0.65796815308584156,0.00028364460163673034,6,4,2
1480212180,2.623211230455263,42.338761921860616,-71.088202006315072,65.0,0.04372018717425438,8.1271344101330991e-06,3.5639594486913732e-05,1.1383663631178252e-05,1.7238973589945869e-05,2.9359810086593995e-05,1.945910149055313,0.0044188439183216318,0.65787223419828744,0.00023248680635297455,6,4,2
1480212210,0.9628865013990088,42.338759965679756,-71.088204865120105,65.0,0.016048108356650145,9.5593078489983662e-06,4.3905157452557259e-05,1.1383663631178252e-05,2.8240915723061412e-05,3.6906906801446854e-05,1.945910149055313,0.0045164275828713223,0.65744991422456145,0.00024444728638707672,6,4,2
1480212240,0.6790980387724163,42.338771511826167,-71.088212884326737,65.0,0.011318300646206937,5.2113551371451628e-06,4.3905157452557259e-05,2.8336187786361403e-05,3.1000509560988708e-05,3.7274677952049469e-05,1.7917594692280547,0.004503954590418505,0.65739713561247015,0.00026731409576040177,6,4,2
1480212270,1.4796564310232354,42.338771200170726,-71.088215204474565,65.0,0.024660940517053923,1.1219151407097093e-05,6.1361168804741531e-05,2.2568819066168068e-05,3.111660735977973e-05,3.4307096684586168e-05,1.945910149055313,0.0043570261188748743,0.65779229343942514,0.00030738459530758676,6,4,2
1480212300,2.1066972685702945,42.338768606899897,-71.088225143438208,65.0,0.035111621142838244,1.5939312467190334e-05,6.1361168804741531e-05,4.3834801969513563e-06,2.2754807919124223e-05,3.3827687898874927e-05,1.945910149055313,0.0044097971865964466,0.65781625116213938,0.000294855166367239,6,4,2
1480212330,0.3406013825961795,42.338761889203198,-71.088216538850844,65.0,0.005676689709936325,1.0330813448521632e-05,3.4963114011745503e-05,4.3834801969513563e-06,1.5995032600619363e-05,2.9808786230676304e-05,1.7917594692280547,0.0046057494331457564,0.65808777824545928,0.00023327451996820652,6,4,2
1480212360,2.9042307327130423,42.338781586346222,-71.088230127049073,65.0,0.04840384554521737,1.0206917644270412e-05,4.6608969149917218e-05,1.4317036261485214e-05,1.9810195779765191e-05,3.25410797656758e-05,1.945910149055313,0.0045258664661740966,0.65859245703570857,0.00021625795100407519,6,4,2
1480212390,1.5850217959906303,42.338791246630947,-71.088233010209706,65.0,0.026417029933177173,8.6065700592455902e-06,4.6608969149917218e-05,1.8591369941508568e-05,2.5487266716389417e-05,3.432413126616791e-05,1.945910149055313,0.0044676087489881203,0.65820049032344163,0.00019728496032835209,6,4,2
1480212420,8.813986729007915,42.338792549449607,-71.088222133707774,65.0,0.14689977881679858,1.0142126549844885e-05,5.4516046925205005e-05,2.5266505412810133e-05,2.692502077471148e-05,3.9190985684359718e-05,1.7917594692280547,0.0044547738860549165,0.6575234166713857,0.00015522350889938142,6,4,2
1480212450,0.42303931416421997,42.338778545672042,-71.08820518535596,65.0,0.007050655236070333,1.8696726468659008e-05,5.4516046925205005e-05,2.2621198349869247e-06,1.4391014986990622e-05,4.2753308649289898e-05,1.945910149055313,0.0042653754660920756,0.65763427508308048,0.00024361785288335556,6,4,2
1480212480,5.310913485883783,42.338764371854211,-71.088196361732585,65.0,0.08851522476472971,1.746460440667177e-05,4.6640306738991467e-05,2.2621198349869247e-06,1.8329009745397164e-05,4.2943540440822728e-05,1.945910149055313,0.0042367430690985518,0.65803892054924618,0.00029750443027509716,6,4,2
1480212510,4.313651207113746,42.338777069713188,-71.088216475676731,65.0,0.0718941867852291,7.4619777930234519e-06,4.6640306738991467e-05,2.5080407915982805e-05,2.8161717936968095e-05,3.857950119631302e-05,1.7917594692280547,0.0044357553909824465,0.65815037068420279,0.00025014991636228333,6,4,2
1480212540,3.2813623029731125,42.338777882993597,-71.088213354182002,65.0,0.05468937171621854,4.2265479414388023e-06,3.0711766334445843e-05,1.7734697891299655e-05,2.3414470151513647e-05,2.8567365604919324e-05,1.945910149055313,0.0043973329949727755,0.65754723235184065,0.00028740369654959755,6,4,2
1480212570,9.19477624564626,42.338770893529173,-71.088198547332695,65.0,0.153246270760771,9.7510271955093946e-06,3.0966682422312115e-05,6.6161963144414438e-07,1.9741615139172072e-05,2.9031548470612941e-05,1.945910149055313,0.0042713880963308427,0.65749668181714505,0.00032578652978416944,6,4,2
1480212600,0.853333982682026,42.338763631200074,-71.088196197591756,65.0,0.014222233044700433,1.3182668717816246e-05,4.061073485714337e-05,6.6161963144414438e-07,1.3560988228387023e-05,2.9389569471311259e-05,1.7917594692280547,0.0044310665347307363,0.65758056551901212,0.00027198044765852479,6,4,2
1480212630,0.8792571657853476,42.338761243627616,-71.088194241625445,65.0,0.014654286096422461,1.1485668517413247e-05,4.061073485714337e-05,5.2904236822464547e-06,1.5898948717964329e-05,3.0497389835409335e-05,1.945910149055313,0.0047118528415934892,0.65753423225884866,0.00024991050592430126,6,4,2
1480212660,4.108400230179407,42.338776950348105,-71.088202358608029,65.0,0.06847333716965678,8.16942851482248e-06,3.2965710235840585e-05,5.2904236822464547e-06,1.792348452550181e-05,2.4972637179155031e-05,1.945910149055313,0.0047950785994991616,0.65745130694674681,0.000248116389242081,6,4,2
1480212690,1.453039473264967,42.33879365317231,-71.088220556166419,65.0,0.024217324554416116,6.5150209819750985e-06,3.5499405958559934e-05,1.5845822944006873e-05,1.9821923347289119e-05,2.5863284836238932e-05,1.7917594692280547,0.0048316656433351219,0.65729529474584869,0.00019304908033415235,6,4,2
1480212720,10.953728043821497,42.338782655698658,-71.088213325044578,65.0,0.18256213406369162,9.6380516056351839e-06,3.5499405958559934e-05,7.4008504540824347e-06,1.4609066828641954e-05,2.7815590307476007e-05,1.945910149055313,0.0048454765009517137,0.6573181849540074,0.00018199849737758386,6,4,2
1480212750,1.586007203152663,42.33877142707496,-71.088196391745228,65.0,0.026433453385877718,8.3245594254636476e-06,2.7973737531519196e-05,7.4008504540824347e-06,9.187976086102861e-06,2.4998032217984438e-05,1.945910149055313,0.0048286985212895881,0.65728658316117616,0.00021609192008243617,6,4,2
1480212780,4.3596271599823355,42.338771856647426,-71.088197883733741,65.0,0.07266045266637226,9.5740973763561123e-06,3.4107133241720985e-05,8.6258345157783678e-06,8.8273733242108449e-06,2.262168121760072e-05,1.7917594692280547,0.0048072935040511548,0.65724538107409014,0.00019515554830539951,6,4,2
1480212810,3.6408608656671184,42.338773250946858,-71.088206939368547,65.0,0.060681014427785306,1.2767438255782777e-05,4.5645181000438386e-05,8.6258345157783678e-06,1.5549132821375246e-05,3.4299970896467977e-05,1.945910149055313,0.0047707451076945077,0.65765411750069436,0.00018839593758276075,6,4,2
1480212840,5.421754186156475,42.33877868803949,-71.088209481305782,65.0,0.09036256976927458,1.8206391473009464e-05,7.9700764295898393e-05,2.2301768191238826e-05,2.7127417346981521e-05,4.1435976470782662e-05,1.945910149055313,0.0047844533412638576,0.65785897556001671,0.00020783216997344274,6,4,2
1480212870,0.4866421101470591,42.338786624091497,-71.088217414414288,65.0,0.008110701835784318,2.2162725599718658e-05,7.9700764295898393e-05,1.1649120943304987e-05,1.9389606557891171e-05,3.5754415251216195e-05,1.7917594692280547,0.004797674075753957,0.65729705627442625,0.00020868983610912903,6,4,2
1480212900,7.650743349544708,42.338778631174129,-71.088213039021554,65.0,0.12751238915907848,1.3537914043368142e-05,5.3523887209760332e-05,1.1649120943304987e-05,1.4579892926360587e-05,2.6806742291660512e-05,1.945910149055313,0.0045828075326022509,0.6570438092177241,0.00019819138933273588,6,4,2
1480212930,2.9123051194671508,42.338771522554765,-71.08820980696801,65.0,0.048538418657785846,1.3690770756310344e-05,5.3523887209760332e-05,1.2899287717874732e-05,1.5017138971163064e-05,3.4658139152792912e-05,1.945910149055313,0.0046542215053728426,0.65727272667636094,0.00013219606089330156,6,4,2
1480212960,0.6374097126947842,42.338773500032701,-71.088215484991807,65.0,0.010623495211579737,7.3858348407936172e-06,3.4679158171429003e-05,1.3773779807479688e-05,2.4168858799709257e-05,3.3856925437036508e-05,1.7917594692280547,0.0047410988192762051,0.65719331523183933,0.00019715694926833961,6,4,2
1480212990,3.4200685161938136,42.338779639978007,-71.088218788329144,65.0,0.05700114193656356,9.0854832982058314e-06,3.8191801478786646e-05,1.0227076657317046e-05,1.9115683450392813e-05,3.1301422971790694e-05,1.945910149055313,0.0044252394405114763,0.65713744081381453,0.00036912605402666525,6,4,2
1480213020,1.739781787948714,42.338790109093424,-71.088226526558756,65.0,0.028996363132478567,1.0763666211295079e-05,4.226142985550613e-05,1.0227076657317046e-05,2.09252610492566e-05,3.4932815722856717e-05,1.945910149055313,0.0044045492207305612,0.65724692685561537,0.00041168940745245152,6,4,2
1480213050,1.7462833678331087,42.338790727877182,-71.088227600135241,65.0,0.02910472279721848,2.2295070000058636e-05,8.4111636477021595e-05,1.7522717516469087e-05,2.3264654253137899e-05,3.9614529883361293e-05,1.7917594692280547,0.0045555146109227162,0.65712931959004106,0.00035231358934045511,6,4,2
1480213080,4.723040809419228,42.338782854129235,-71.088219456260305,65.0,0.07871734682365379,2.2435786787791369e-05,8.4111636477021595e-05,1.5506345678445876e-05,1.942848195456749e-05,2.3748057091151665e-05,1.945910149055313,0.0046170758996267195,0.65691175553587,0.00029499298339656052,6,4,2
1480213110,0.3753699312393397,42.338774610680055,-71.088209437086888,65.0,0.006256165520655662,9.0952479560855808e-05,0.00028460216670776712,1.5506345678445876e-05,2.141705302782962e-05,3.4260526759007765e-05,1.945910149055313,0.0046888889169267797,0.6569901088138298,0.00028417160801823949,6,4,2
1480213140,3.1544899588653648,42.338777028712698,-71.088209005056839,65.0,0.05257483264775608,9.5746250147371527e-05,0.00028460216670776712,1.8775733625627057e-05,2.5064463158206899e-05,3.5760827712945875e-05,1.7917594692280547,0.0045436319392481335,0.65738807272539479,0.00047056387629209944,6,4,2
1480213170,0.9358137732488875,42.338786391814608,-71.088216760240215,65.0,0.01559689622081479,1.6064448912414468e-05,6.57159169584568e-05,1.554648192012905e-05,2.1058670052251067e-05,4.0107115857504702e-05,1.945910149055313,0.0043345023784510653,0.65758374554561405,0.00070612438247622,6,4,2
1480213200,1.546353765656885,42.338791174080413,-71.088216447348984,65.0,0.025772562760948085,1.5769980116986592e-05,6.57159169584568e-05,1.554648192012905e-05,2.7219623169481951e-05,4.5898424941224976e-05,1.945910149055313,0.004374821985277986,0.6574770823134386,0.00069015471990842357,6,4,2
1480213230,0.6240800285543084,42.338788982877816,-71.088208947036847,65.0,0.010401333809238474,1.2044457152420379e-05,4.7924218967678479e-05,1.3674997574872868e-05,1.7602836873846309e-05,3.0773117668237938e-05,1.7917594692280547,0.0043678780114389361,0.65731877818614282,0.0006210691102192823,6,4,2
1480213260,3.122115766817621,42.338791124708479,-71.088213640865007,65.0,0.05203526278029368,9.0981372611991871e-06,3.8871541052137203e-05,1.3674997574872868e-05,1.7719155587724607e-05,3.1843072277052934e-05,1.945910149055313,0.0043041864136432089,0.65724176950097557,0.00058222263845935686,6,4,2
1480213290,0.1408504648764329,42.338786443047873,-71.088219320999016,65.0,0.0023475077479405485,9.9046966708766056e-06,3.8871541052137203e-05,1.023809286893079e-05,1.7134708164683621e-05,3.1843072277052934e-05,1.945910149055313,0.0042647428508600319,0.65728595245843802,0.00060578688617230218,6,4,2
1480213320,3.9951048124542075,42.338779827748986,-71.088207555799329,65.0,0.06658508020757012,8.434882504028404e-06,3.6561286116890533e-05,1.023809286893079e-05,1.6692303985464224e-05,2.584755338610552e-05,1.7917594692280547,0.0042295854743547535,0.65771466724088812,0.00080913709402499593,6,4,2
1480213350,0.7022815904566112,42.338782359069675,-71.08821045700283,65.0,0.011704693174276854,6.0458743467553661e-06,3.6561286116890533e-05,1.6292165793448468e-05,2.0493009170666087e-05,2.5645371152186177e-05,1.945910149055313,0.0043875030981721953,0.65838355425768591,0.00089406954658032499,6,4,2
1480213380,3.340089887498625,42.338790897774174,-71.088221726243432,65.0,0.05566816479164375,7.0103587372692391e-06,3.9761828170106184e-05,1.6292165793448468e-05,2.0594231240331038e-05,2.5659765985813026e-05,1.945910149055313,0.0044664220416159228,0.65865096309303262,0.00088716951267858279,6,4,2
1480213410,4.6032821621223645,42.338792992204397,-71.088219715989737,65.0,0.07672136936870608,8.9352407172452853e-06,3.9761828170106184e-05,1.015808344083924e-05,2.0468148431521182e-05,2.7185086600172838e-05,1.7917594692280547,0.0043972670642904946,0.6582100872452471,0.00098912978467907762,6,4,2
1480213440,0.5306651020414551,42.33878312930851,-71.088202097676032,65.0,0.008844418367357585,6.7584885753396665e-06,2.6750023917492112e-05,7.656876150825257e-06,1.0141038017249837e-05,2.1562476846731082e-05,1.945910149055313,0.004439061723154389,0.65771027050210373,0.00094961368344117798,6,4,2
1480213470,1.9882593926866823,42.338786788576449,-71.088206791841728,65.0,0.03313765654477804,6.8485579860247586e-06,2.731565731254256e-05,7.656876150825257e-06,1.3359074661195824e-05,2.3876180636725941e-05,1.945910149055313,0.0046893863742654461,0.65740118206474651,0.00067181402667787049,6,4,2
1480213500,0.7822132727171807,42.338787244766387,-71.088218656635505,65.0,0.013036887878619677,9.7279386812138602e-06,4.4722509067096369e-05,1.5729362832721311e-05,1.926989124955746e-05,3.1209247691015612e-05,1.7917594692280547,0.0048024389339548562,0.65722774838418752,0.0005840549497280542,6,4,2
1480213530,2.0458013856815316,42.338782557769555,-71.088225002663293,65.0,0.03409668976135886,1.2635378540838061e-05,4.4722509067096369e-05,1.974102070014837e-06,1.6547830606730615e-05,2.5354300278573353e-05,1.945910149055313,0.004794560650405481,0.65747640267370755,0.00042538308579011562,6,4,2
1480213560,5.724365669418643,42.338776907529237,-71.088219770318247,65.0,0.09540609449031072,9.1276653152739063e-06,2.7616274721943763e-05,1.974102070014837e-06,1.0049971992759969e-05,2.1197861377872415e-05,1.945910149055313,0.0046799323074510979,0.657381147405382,0.00028391830183401381,6,4,2
1480213590,4.580414350737526,42.338754878739195,-71.088194732120854,65.0,0.07634023917895877,9.1569895175091792e-06,2.7616274721943763e-05,2.7336456047800172e-06,1.1766712458931622e-05,2.6088038090697329e-05,1.7917594692280547,0.0040976912562628179,0.6573620178079298,0.00063693533754577989,6,4,2
1480213620,1.1272263639020441,42.338747763760942,-71.088196478826816,65.0,0.01878710606503407,5.0546711503993801e-06,2.6719306337894856e-05,1.0202512984659486e-05,1.6846857458970466e-05,2.2842706970057124e-05,1.945910149055313,0.0041205858009872951,0.65782698130701045,0.00065569941822163119,6,4,2
1480213650,3.8944520456027822,42.338756647266564,-71.088209267861785,65.0,0.06490753409337971,4.3393954798976607e-06,2.9086452223799981e-05,1.7234404036192901e-05,2.0198999095636049e-05,2.7738808442117644e-05,1.945910149055313,0.004569180995522509,0.65799559369771887,0.00033614749243572823,6,4,2
1480213680,3.280258888624798,42.338756422213706,-71.08820496261265,65.0,0.054670981477079966,5.7069341413911772e-06,4.1292391899284363e-05,2.7363045123418571e-05,2.7626361380094397e-05,3.6170757453852056e-05,1.7917594692280547,0.0048186935209888968,0.65798548712959026,0.00013823346229766191,6,4,2
1480213710,1.2122105254115054,42.338769097878711,-71.088208444687893,65.0,0.020203508756858425,1.2724282925023437e-05,4.1292391899284363e-05,8.2684535022499143e-06,1.1777891574118269e-05,3.4817283386621233e-05,1.945910149055313,0.0047624219491808435,0.65791632183999738,0.00025536891782139659,6,4,2
1480213740,1.1778864981889088,42.338779824374221,-71.088212635134951,65.0,0.019631441636481815,8.922086881464522e-06,3.1102374242706393e-05,8.2684535022499143e-06,9.8302646347155277e-06,2.5397954734624103e-05,1.945910149055313,0.0045926227309069107,0.6578853360291248,0.00041532414441867337,6,4,2
1480213770,1.2001515370067506,42.338776693073001,-71.08821030690612,65.0,0.020002525616779177,1.0852088719929192e-05,4.4229235338344718e-05,1.069186812753982e-05,1.6878602713767312e-05,2.7493435608102065e-05,1.7917594692280547,0.0043580160746205287,0.65799965901057011,0.00059234726564497077,6,4,2
1480213800,2.018673088107427,42.338785462651018,-71.088226080886855,65.0,0.033644551468457115,2.7491978367476713e-05,9.4439388800513901e-05,8.2156748816571373e-06,1.7279651659814975e-05,3.3119395717422608e-05,1.945910149055313,0.0047343181821898547,0.65812733314172156,0.00032076945892994715,6,4,2
1480213830,1.4516700370652267,42.338780702720591,-71.088231721831335,65.0,0.02419450061775378,2.6492844205344078e-05,9.4439388800513901e-05,8.2156748816571373e-06,1.9026133785885972e-05,3.560779018827324e-05,1.945910149055313,0.0049578324197233877,0.65832947332283542,0.0001156860414049612,6,4,2
1480213860,4.400978002885507,42.338767704264363,-71.088220616740969,65.0,0.07334963338142513,1.6059356154439697e-05,6.1959245191443898e-05,1.3906539101037939e-05,1.9499489139216223e-05,3.5774966768414977e-05,1.7917594692280547,0.004884502982384094,0.65827982668590024,0.00011578742229039473,6,4,2
1480213890,0.582974076614751,42.338764181578867,-71.088206511775653,65.0,0.00971623461024585,1.6116567310986172e-05,6.1959245191443898e-05,1.3906539101037939e-05,1.8040215883879604e-05,3.7833427830894127e-05,1.945910149055313,0.0049460232616372491,0.65800752283738828,1.9185382820418151e-05,6,4,2
1480213920,0.5066623287412154,42.338769166746722,-71.08820509158663,65.0,0.008444372145686923,1.0494502992011023e-05,4.4144976684017031e-05,1.5865453007637836e-05,2.1155375637244959e-05,3.9312663932279406e-05,1.945910149055313,0.0049518672749532533,0.65810428099804241,3.1436693356451913e-05,6,4,2
1480213950,2.767923026028964,42.338786639540906,-71.088208593937324,65.0,0.04613205043381607,1.1895474576568914e-05,4.2994866743221027e-05,1.2571336880791545e-05,1.9601497999616429e-05,4.098589822396919e-05,1.7917594692280547,0.0047905723766844136,0.65828668917688216,0.00032025129620678021,6,4,2
1480213980,5.406481320885848,42.338800764786498,-71.088214931483947,65.0,0.09010802201476413,8.8355411499216731e-06,4.2771043924846325e-05,1.2571336880791545e-05,2.0327236070708375e-05,2.6105718099143047e-05,1.945910149055313,0.0046876497486589407,0.65821019819462978,0.00042616848338108401,6,4,2
1480214010,3.18480264376979,42.338793483319989,-71.088217938584876,65.0,0.05308004406282983,3.4440856589221195e-06,2.9282785530377905e-05,1.8572460836508139e-05,1.9257114335945973e-05,2.3154290401601596e-05,1.945910149055313,0.0047175563076211962,0.65808172311464741,0.00036571764099065199,6,4,2
1480214040,2.837229094337898,42.338787558583753,-71.088216179140588,65.0,0.047287151572298305,5.3044490357767069e-06,2.3379930135295002e-05,1.0039625683628906e-05,1.2666351495127658e-05,2.1801249096843951e-05,1.7917594692280547,0.0047842433945526211,0.65831264830966907,0.00035398954208394948,6,4,2
1480214070,4.3637015842997355,42.338784016011338,-71.088205168579023,65.0,0.07272835973832893,5.9899294711761641e-06,2.8453444482359105e-05,1.0039625683628906e-05,1.3290611128653589e-05,1.9782511922565744e-05,1.945910149055313,0.0048347716838547617,0.65865708185781802,0.00035861435524458201,6,4,2
1480214100,0.33300479645966397,42.338771522959988,-71.088196776012978,65.0,0.005550079940994399,4.727633761305464e-06,2.8453444482359105e-05,1.3916762926229425e-05,1.6142171184165048e-05,2.0780263918560492e-05,1.945910149055313,0.0048126604390544229,0.65866345561356809,0.00037021047198859664,6,4,2
1480214130,4.770618643616927,42.338778112325834,-71.088211480286603,65.0,0.07951031072694878,5.0129540990818189e-06,2.8652054920226318e-05,1.3916762926229425e-05,1.7509850597674802e-05,2.4395581324691549e-05,1.7917594692280547,0.0047889816184541632,0.65875425387717501,0.00035386695778229135,6,4,2
1480214160,1.1589970306645707,42.338788903640904,-71.088217385078323,65.0,0.019316617177742846,4.5007627295889606e-06,2.8652054920226318e-05,1.6204404479926494e-05,1.9642694256592386e-05,2.6461263879184064e-05,1.945910149055313,0.004783908835242448,0.65834268269860119,0.00035168725308225556,6,4,2
1480214190,8.099471503870618,42.338773621161913,-71.088193632510993,65.0,0.13499119173117696,5.3810516596025506e-06,2.922071819173911e-05,1.3282557821188178e-05,1.9081116750303289e-05,2.5851815608544143e-05,1.945910149055313,0.00480472182057086,0.65762766291441133,0.00038594914948254642,6,4,2
