TIMESTAMP,DISTANCE,AVG_LAT,AVG_LNG,GPS_ACCURACY,AVG_SPEED_BY_GPS,ACCLERATOR_STD,MAX_ACCLERATOR,MIN_ACCLERATOR,PERCENTILE_25_ACCLERATOR,PERCENTILE_75_ACCLERATOR,ACCLERATOR_ENTROPY,AVG_ROLL,AVG_YAW,AVG_PITCH,WEEK_DAY,LABEL1,LABEL2
1479242700,0.0,42.33901685573381,-71.088249413362817,50.0,0.0,0.00028451758443636185,0.00071357751331291893,5.1627639594218139e-07,1.4757621203348806e-06,4.4251940601810165e-06,1.6094379124341005,-0.076236299736896218,-2.1152618342252461,0.090197198098529843,2,4,2
1479242730,12.092289556631465,42.338988530520147,-71.088241161888931,52.678571428571431,0.2015381592771911,6.9969049931782696e-06,2.0532965480898527e-05,1.0766402759492576e-07,1.5325823169686349e-06,4.0056761819455475e-06,1.7917594692280547,-0.03736088398406652,-2.1641841546309131,0.0233762387855973,2,4,2
1479242760,11.458846178009274,42.338825385251539,-71.088193495168767,65.0,0.1909807696334879,6.699140523736931e-06,2.0532965480898527e-05,1.0766402759492576e-07,8.1437566391752568e-07,3.5192252260009122e-06,1.945910149055313,-0.036994218957414352,-2.1627363143489116,0.023164725782312216,2,4,2
1479242790,2.8033786938812306,42.338800267083478,-71.088186772660507,65.0,0.046722978231353844,1.3985301506042936e-06,3.7761797772999265e-06,9.9320017040078238e-08,2.5518211681349652e-07,2.3522607708623017e-06,1.945910149055313,-0.036870778536850134,-2.1613709890012784,0.022989182434986533,2,4,2
1479242820,3.0823056861426315,42.338816468702774,-71.088195232326754,65.0,0.051371761435710525,4.3698119542201413e-06,1.2458709829557498e-05,9.9320017040078238e-08,4.3500811857185071e-07,2.0871098431495235e-06,1.7917594692280547,-0.036778000840903269,-2.1605972352151266,0.022784351383439098,2,4,2
1479242850,1.397517259762673,42.338831726013197,-71.088203552105767,65.0,0.023291954329377883,3.9282607118723072e-06,1.2458709829557498e-05,4.0550610105207037e-07,7.9649138260081634e-07,2.3264587500398293e-06,1.945910149055313,-0.036629429974253128,-2.1605283768909813,0.022722024688593644,2,4,2
1479242880,8.777062872236352,42.338894730442689,-71.088218045490166,60.0,0.1462843812039392,6.524745579341482e-07,2.167622578581587e-06,3.8273209570336527e-07,6.1502385520512096e-07,1.6881353347066413e-06,1.945910149055313,-0.036503555544405826,-2.1604103509608086,0.022671402329537155,2,4,2
1479242910,9.581185502417911,42.338994451049821,-71.088243069458684,108.125,0.15968642504029854,7.6520733087567781e-07,2.2608139770163691e-06,2.0295525027554295e-07,5.5480933732579106e-07,1.8679881630000497e-06,1.7917594692280547,-0.036376840474177254,-2.1603528680839017,0.022583658092359252,2,4,2
1479242940,0.0,42.339017484376505,-71.088249245724697,162.5,0.0,2.4924335183220202e-06,8.3317219029375056e-06,2.0295525027554295e-07,1.1308208949670635e-06,2.5925576033537913e-06,1.945910149055313,-0.036318405341326639,-2.1599234922704142,0.022587112550860274,2,4,2
1479242970,0.0,42.339017484376505,-71.088249245724697,200.0,0.0,2.3745716213514564e-06,8.3317219029375056e-06,9.9652255282065568e-07,1.1308208949670635e-06,3.1275622477784346e-06,1.945910149055313,-0.036283303439836948,-2.1594798691190058,0.022586668826173075,2,4,2
1479243000,9.94537211522345,42.338994875281472,-71.088242835703056,181.71458415051316,0.1657562019203908,4.8410154059454368e-06,1.425616566086208e-05,1.7047449764967729e-07,8.0419438976080737e-07,3.1527810566125975e-06,1.7917594692280547,-0.036210083261537913,-2.1592666261367683,0.022532610738392734,2,4,2
1479243030,9.5042934927307,42.338837474989923,-71.088200884211247,68.890049474217889,0.15840489154551166,4.7197346331944115e-06,1.425616566086208e-05,1.2375028938856387e-07,4.5527974986193424e-07,4.2263184306774517e-06,1.945910149055313,-0.036131308154708767,-2.15890684649565,0.022495721484237344,2,4,2
1479243060,1.3117138039836254,42.338812265740671,-71.088196972664676,65.0,0.021861896733060424,4.0899308777886966e-06,1.2364503357009091e-05,1.2375028938856387e-07,1.8333047193189995e-06,7.1753970300867832e-06,1.945910149055313,-0.03611507728661284,-2.1587006255445802,0.022560353355263487,2,4,2
1479243090,1.1801078207072069,42.33880830064431,-71.088191524047275,65.0,0.019668463678453447,4.3726157228830042e-06,1.2364503357009091e-05,5.1856493480216726e-07,1.7409552479522094e-06,7.0872818899433928e-06,1.7917594692280547,-0.036055531811118348,-2.1586433521037987,0.022641401327717151,2,4,2
1479243120,1.4331933456681127,42.338804814470805,-71.088188266119872,65.0,0.02388655576113521,2.0200556696135487e-06,7.0421796273280957e-06,5.1856493480216726e-07,1.3784314651062555e-06,2.4034723055418569e-06,1.945910149055313,-0.035960570093278001,-2.1583226068619927,0.022706425590983424,2,4,2
1479243150,1.6232466786303015,42.338808775180432,-71.088194839553211,65.0,0.027054111310505023,2.6400437832706023e-06,7.9969272007197781e-06,1.0203522581376986e-06,1.5615922691838051e-06,5.02178665127329e-06,1.945910149055313,-0.035950413637340826,-2.1577935598499614,0.022639736131410716,2,4,2
1479243180,1.6328520101760717,42.33880484821799,-71.088197038139811,65.0,0.027214200169601195,6.7449032445740299e-06,1.8361176026507253e-05,1.3176336025023803e-06,2.4933521120998038e-06,1.4188450538246473e-05,1.7917594692280547,-0.035933465482772216,-2.157436478453183,0.022509044508084497,2,4,2
1479243210,0.30494536246038784,42.338809328441776,-71.088199668611551,65.0,0.005082422707673131,7.1451027329016977e-06,1.8361176026507253e-05,9.4516992263033902e-08,2.2555136679421971e-06,1.5844677574715221e-05,1.945910149055313,-0.035866911444875506,-2.1572276740440484,0.022455756121001268,2,4,2
1479243240,0.4659900574194474,42.338815712188669,-71.08820055627794,65.0,0.0077665009569907895,6.4627755555152321e-06,1.5437063498675073e-05,9.4516992263033902e-08,8.3598423988908117e-07,1.2490146183365587e-05,1.945910149055313,-0.03582774488886354,-2.15725084146196,0.022404463949347031,2,4,2
1479243270,1.135022549490043,42.338813272135347,-71.088196855425821,65.0,0.018917042491500717,4.8442089270367485e-06,1.4662279891446662e-05,8.7248632625002386e-07,1.3788109623944334e-06,3.7852161789046026e-06,1.7917594692280547,-0.035829262599850899,-2.1571513531974298,0.022436613720804018,2,4,2
1479243300,0.0,42.338817218912403,-71.088205053530999,65.0,0.0,1.7773496921537445e-06,6.6646102357255274e-06,1.5070482095120333e-06,1.7690712649539006e-06,3.3119697932941303e-06,1.945910149055313,-0.035822225951177906,-2.1570426370264473,0.02236824481920013,2,4,2
1479243330,0.47703072795335544,42.338827150918597,-71.088208392116599,65.0,0.007950512132555924,1.6793143782785826e-06,6.6646102357255274e-06,1.4083612427461763e-06,1.7690712649539006e-06,3.3053357642165678e-06,1.945910149055313,-0.035791876899382742,-2.1570342494856556,0.022273974702546724,2,4,2
1479243360,0.7621050740620201,42.338817645070641,-71.088202532290254,65.0,0.012701751234367002,5.1899625901023964e-06,1.514171289625234e-05,1.4083612427461763e-06,2.0123488005770969e-06,8.9350778747634683e-06,1.7917594692280547,-0.035719922775636369,-2.1566898146610636,0.022258174187509066,2,4,2
1479243390,0.8932789903401267,42.33881079576485,-71.088199869157833,65.0,0.014887983172335445,5.1058533058754797e-06,1.514171289625234e-05,1.5337891834528457e-06,2.1995311420816074e-06,1.1293944293169925e-05,1.945910149055313,-0.035708500766008101,-2.1562479634363845,0.02222865258164777,2,4,2
1479243420,0.7801197838973936,42.33882356735085,-71.088203142328254,87.5,0.013001996398289892,3.4899011096787431e-06,1.1787501143288323e-05,1.2065610058586948e-06,1.4565108742770766e-06,4.6389740392472213e-06,1.945910149055313,-0.035704756940374179,-2.1558491175270209,0.022231606356461212,2,4,2
1479243450,1.7054352823771228,42.338934204330215,-71.08822651550598,176.72413793103448,0.028423921372952046,1.0068278314404981e-06,3.7401916448199723e-06,1.2065610058586948e-06,1.5476763789510097e-06,3.4164966653314367e-06,1.7917594692280547,-0.035642925009497388,-2.1555331444396946,0.022245047290400832,2,4,2
1479243480,0.8802666040192015,42.338935401955482,-71.08822773960604,177.14286352557448,0.014671110066986692,9.2603981785069522e-07,3.5153445266205571e-06,6.5162187723842886e-07,1.7000946622061881e-06,2.8927852290896904e-06,1.945910149055313,-0.035644219349923026,-2.1557694435282855,0.022260419014867333,2,4,2
1479243510,0.9959809122733403,42.338821925148316,-71.0882077590596,82.000017871608492,0.01659968187122234,2.6378250832473125e-06,8.3432528993310134e-06,6.5162187723842886e-07,1.9262245918599297e-06,5.1160502481100456e-06,1.945910149055313,-0.061073826890251384,-2.5524938103120354,-0.01441487212066757,2,4,2
1479243540,0.2407259144125912,42.338828654294566,-71.088212241636626,65.0,0.0040120985735431864,2.6423676079096039e-06,9.9733994792890047e-06,3.2086450960440476e-06,4.2635254978437223e-06,8.8723897796833873e-06,1.7917594692280547,-0.095389631379660764,-3.0907657346545627,-0.060613350334677442,2,4,2
1479243570,0.2855190394343865,42.338827262282258,-71.088210882442894,65.0,0.004758650657239775,3.7054403965347511e-06,1.0668056327919381e-05,9.5629793137793156e-07,2.6853012067685535e-06,9.5110841095449252e-06,1.945910149055313,-0.098424605598359527,-3.0944347961933034,-0.056596470125556131,2,4,2
1479243600,2.7604352924416125,42.338831893790555,-71.088211859092866,65.0,0.046007254874026876,3.5772489999160731e-06,1.0946440065193499e-05,9.5629793137793156e-07,3.3167993510638621e-06,8.208308274132077e-06,1.945910149055313,-0.1006772439296717,-3.0899375368609321,-0.054840612257146967,2,4,2
1479243630,0.312977356762816,42.338839355350807,-71.088216709789862,65.0,0.005216289279380267,3.4893562955492043e-06,1.0946440065193499e-05,6.8767270725437351e-07,1.4679260971546069e-06,5.4293305114172451e-06,1.7917594692280547,-0.100924768526284,-3.0903453267651066,-0.053499956409167111,2,4,2
1479243660,1.5896600188212553,42.338835329882706,-71.088216309815891,65.0,0.02649433364702092,1.1067794413697118e-05,3.3652881021625136e-05,6.5125873763882901e-07,9.4517840679304665e-07,4.6411728312016455e-06,1.945910149055313,-0.1002351184355019,-3.0912005831376015,-0.052922380484764255,2,4,2
1479243690,0.8674406763395702,42.338834859485075,-71.088214613653776,65.0,0.014457344605659504,1.0930959693171918e-05,3.3652881021625136e-05,6.5125873763882901e-07,9.1725420049132546e-07,6.9578481300973482e-06,1.945910149055313,-0.099466116950265845,-3.0916797729167476,-0.052567241422937012,2,4,2
1479243720,1.069843306799866,42.338842747592793,-71.088215826388591,65.0,0.01783072177999777,4.0896925821969559e-06,1.1183537072225464e-05,6.7442905925550962e-07,1.3275453570437654e-06,7.9140302624283368e-06,1.7917594692280547,-0.098020587150428676,-3.0908223912768364,-0.052582036349074268,2,4,2
1479243750,0.20379125867926845,42.338845498399778,-71.088214543002479,65.0,0.0033965209779878076,9.7519088825673795e-06,2.9715089886175549e-05,1.5883231861334587e-06,2.8661303732714973e-06,1.5737286394284388e-05,1.945910149055313,-0.096043590425798478,-3.0889682274158723,-0.052979830645449796,2,4,2
1479243780,0.41731689900399765,42.338838694006483,-71.088215939426647,65.0,0.006955281650066628,1.0232546859242412e-05,2.9715089886175549e-05,2.7826164857113409e-07,2.4988336960655302e-06,1.4416680472061371e-05,1.945910149055313,-0.094863953006262269,-3.0885556961878757,-0.053080993667716521,2,4,2
1479243810,2.5514550812928785,42.338829920052142,-71.088211743148278,65.0,0.04252425135488131,3.4466855761453514e-06,1.0731176353162404e-05,2.7826164857113409e-07,1.3378353827442069e-06,4.506600999239569e-06,1.7917594692280547,-0.095346431619983282,-3.0892302043110713,-0.051739550032388316,2,4,2
1479243840,1.1582126565996256,42.338823036069549,-71.088204783796158,65.0,0.019303544276660426,4.1236193113937696e-06,1.1842171635300046e-05,6.4733244165974208e-07,1.9240421375496248e-06,7.6401319284253288e-06,1.945910149055313,-0.096245539555001064,-3.0894376237781396,-0.050500615846512879,2,4,2
1479243870,1.7914958167871884,42.338820875929919,-71.088208911291019,65.0,0.029858263613119808,4.3676483725531185e-06,1.1842171635300046e-05,7.3161947883478977e-07,1.4523937517466904e-06,7.6926542179716852e-06,1.945910149055313,-0.095947847703185457,-3.0889193862300255,-0.050512724977075603,2,4,2
1479243900,0.9745191510360939,42.338818425790073,-71.08821317663886,65.0,0.016241985850601565,3.7160243707664617e-06,1.0836220932255115e-05,3.2371218444763771e-07,7.9876841693453481e-07,3.587304951435847e-06,1.7917594692280547,-0.095689142715765466,-3.0884038122564319,-0.050439672951826831,2,4,2
1479243930,1.8656305390092716,42.338818457348985,-71.088207605945485,65.0,0.031093842316821194,1.6283948887397609e-06,4.9236565949064971e-06,3.2371218444763771e-07,1.7692564806492548e-06,4.3721561267355563e-06,1.945910149055313,-0.095700867289701924,-3.0883605186733001,-0.050434097253297706,2,4,2
1479243960,1.3981339833795412,42.338827777773218,-71.088207771668351,65.0,0.023302233056325686,1.8777180075624206e-06,7.1457128418044191e-06,1.3978718212250748e-06,2.3469009449401621e-06,5.0890349507471413e-06,1.945910149055313,-0.095576203973178162,-3.0884018635450423,-0.050400057608193098,2,4,2
1479243990,0.9545232928057574,42.338829769253849,-71.088212000555899,65.0,0.015908721546762625,2.4396063783229889e-06,7.1457128418044191e-06,4.4978715917294107e-07,1.2527462456208157e-06,5.011784198702245e-06,1.7917594692280547,-0.095338750554811572,-3.0885007854873181,-0.050271334238925131,2,4,2
1479244020,0.43659511782082133,42.338823496663991,-71.088209844650819,65.0,0.007276585297013689,6.295048301464078e-06,1.9200037935439813e-05,4.0424978028504827e-07,8.2707910646283522e-07,7.0603182826490043e-06,1.945910149055313,-0.095307503467449387,-3.0886993357075547,-0.050259459357842991,2,4,2
1479244050,1.3932670474052917,42.338821787364161,-71.088205136011595,65.0,0.023221117456754863,1.0100026782793532e-05,2.9625150241756128e-05,2.9414139383539433e-07,2.4273046973719559e-06,1.4435157443139479e-05,1.945910149055313,-0.095261375332118162,-3.0887199969333032,-0.05016863929922101,2,4,2
1479244080,0.8569394310059181,42.338826144638332,-71.088204618554343,65.0,0.014282323850098635,9.9701805561366392e-06,2.9625150241756128e-05,2.9414139383539433e-07,2.5120969940989004e-06,6.0430165830035433e-06,1.7917594692280547,-0.094737185301618496,-3.08843384211931,-0.049926775585621232,2,4,2
1479244110,0.5858643702699473,42.338828646730803,-71.088206807702505,65.0,0.009764406171165788,3.5475782164347222e-06,1.1605655255907347e-05,3.9985061882109879e-08,2.0597870298065207e-06,5.2645032617712786e-06,1.945910149055313,-0.094281946463586494,-3.0878815288555859,-0.049789895171861588,2,4,2
1479244140,3.0438879427131984,42.338827609978765,-71.088211961588769,65.0,0.05073146571188664,4.3457790199603709e-05,0.00012955841548325264,3.9985061882109879e-08,2.1289114678869217e-06,1.8002880635792748e-05,1.945910149055313,-0.094129882127077152,-3.0874919238172587,-0.049765669323291024,2,4,2
1479244170,0.8122201454288422,42.338832361371267,-71.088217454315128,65.0,0.013537002423814037,4.553645897725615e-05,0.00012955841548325264,2.4881740406257274e-06,3.9132360979709819e-06,2.0817145062275144e-05,1.7917594692280547,-0.093874028019802214,-3.0873116452718903,-0.049701412333171519,2,4,2
1479244200,0.5503491494441697,42.338836193148261,-71.088215195495579,65.0,0.009172485824069494,2.6385491902764781e-06,1.0068262202066124e-05,2.3053731578599666e-06,4.0308411477459081e-06,7.891437403945657e-06,1.945910149055313,-0.093768098961698881,-3.0874925849479333,-0.049642968741473677,2,4,2
1479244230,0.6348384697336809,42.338833749926494,-71.088213207457727,65.0,0.010580641162228014,6.3919519058344209e-06,2.2291242265284447e-05,2.3053731578599666e-06,3.2671028090671235e-06,7.891437403945657e-06,1.945910149055313,-0.093783953109767879,-3.0877535466428654,-0.049628877188239044,2,4,2
1479244260,0.5757372557473515,42.338829098470264,-71.088214606042698,65.0,0.009595620929122525,7.5195376627612287e-06,2.2291242265284447e-05,7.7391305437781358e-07,1.4807087602295153e-06,3.4368274933167378e-06,1.7917594692280547,-0.09377756874385397,-3.0881926659531147,-0.049626766844412355,2,4,2
1479244290,0.0,nan,nan,nan,0.0,1.0280929778778046e-06,3.4161789526449223e-06,7.7391305437781358e-07,9.6640244834213414e-07,2.8898366357846963e-06,1.945910149055313,-0.093681091025057062,-3.0882089460712243,-0.04965912702869562,2,4,2
1479244320,0.0,nan,nan,nan,0.0,1.1017407519637368e-06,4.6442206536755348e-06,9.8869164235388266e-07,2.1629170074835606e-06,3.2947258181787644e-06,1.945910149055313,-0.093638506030756505,-3.0879584457894258,-0.049664047801743598,2,4,2
1479244350,0.9348897509608352,42.338797424983426,-71.08819771943358,65.0,0.015581495849347253,1.8829882730454964e-06,7.3804136411957285e-06,1.9389354125839118e-06,2.2349718451610769e-06,4.3532997983709824e-06,1.7917594692280547,-0.093634560007713488,-3.0883560474605685,-0.049659802097807397,2,4,2
1479244380,0.5247946811648395,42.338808647697213,-71.088202423778512,65.0,0.008746578019413993,2.0698766181093697e-06,7.3804136411957285e-06,1.4113673188418967e-06,2.0200314331605557e-06,5.1364891709566578e-06,1.945910149055313,-0.093623379493799883,-3.0884618928069494,-0.049652766972362691,2,4,2
1479244410,2.0631892223762636,42.338823532923108,-71.088209503003952,65.0,0.03438648703960439,5.7035086220516773e-06,1.9820469585640067e-05,1.4113673188418967e-06,4.1458040203319411e-06,8.4320202197873481e-06,1.945910149055313,-0.093495730403793928,-3.0880940963833963,-0.049649904952158756,2,4,2
1479244440,0.30363784742602873,42.338826521683153,-71.088212795726207,65.0,0.005060630790433812,6.696600032050587e-06,1.9820469585640067e-05,3.2460725239691067e-07,1.8620306409396404e-06,1.0507753162114187e-05,1.7917594692280547,-0.092881065396541437,-3.087657406310703,-0.049570929152333527,2,4,2
1479244470,1.271892124797573,42.338827363440899,-71.088212165242567,65.0,0.02119820207995955,3.9254913180161546e-06,9.4736237429526115e-06,3.2460725239691067e-07,7.3226269483242856e-07,8.3326854501023997e-06,1.945910149055313,-0.092432208416834943,-3.0875188256427544,-0.049507328170426405,2,4,2
1479244500,0.389359821705786,42.338830521099702,-71.088212505423769,65.0,0.006489330361763099,3.0468113478197737e-06,8.8177256879693657e-06,9.165409750547301e-07,1.3686026836402504e-06,6.82613535484191e-06,1.945910149055313,-0.092337348605765923,-3.0877521852382013,-0.049499684237612029,2,4,2
1479244530,1.38734530145544,42.338832332735208,-71.088215759357297,65.0,0.023122421690924,2.046765179373035e-06,6.1732454737040857e-06,9.3443374006138839e-07,1.6174762116453959e-06,5.2828324387984486e-06,1.7917594692280547,-0.092167320971405411,-3.08790264143791,-0.049444170103321222,2,4,2
1479244560,0.855203336366078,42.338834607336636,-71.088217398296294,65.0,0.014253388939434635,2.6232997234155568e-06,7.9368943404537433e-06,2.4906261723339421e-07,1.5990465990141412e-06,5.7346302243786649e-06,1.945910149055313,-0.092262266835798176,-3.0877142807984486,-0.049466811115786546,2,4,2
1479244590,0.4517597432140731,42.338830731151333,-71.088215034360786,65.0,0.007529329053567885,6.6876803660166642e-06,2.1112243482808084e-05,2.4906261723339421e-07,2.939977656192177e-06,1.0351586551262198e-05,1.945910149055313,-0.092420527265165517,-3.0872813582705558,-0.049528270738423842,2,4,2
1479244620,1.1132662667803315,42.338831573721976,-71.088213917609011,65.0,0.01855443777967219,6.6448247411219839e-06,2.1112243482808084e-05,2.04506754314768e-06,5.0016175456407534e-06,1.4949821792565731e-05,1.7917594692280547,-0.092410633807222267,-3.0866152960871815,-0.049487066383483637,2,4,2
1479244650,0.2539965900381657,42.338836387375395,-71.088214507171969,65.0,0.004233276500636095,5.0953297628229233e-06,1.5677669469397425e-05,3.7637939500925946e-07,1.9835197223411788e-06,8.9248800984616324e-06,1.945910149055313,-0.092487494070506077,-3.0864775764173413,-0.049149726753372293,2,4,2
1479244680,0.739485517661142,42.338831597461969,-71.088210023465336,65.0,0.0123247586276857,3.447487122371942e-06,9.6019035242945769e-06,3.7637939500925946e-07,1.5449377392708286e-06,6.0182774153550868e-06,1.945910149055313,-0.092317460067155702,-3.0854830023244313,-0.047344644774186116,2,4,2
1479244710,1.3501757196888526,42.33882805290672,-71.08820820416318,65.0,0.02250292866148088,4.0025403011381856e-06,1.025426344477862e-05,1.532217994933498e-06,1.6586568815796791e-06,9.4799667726361523e-06,1.7917594692280547,-0.091684862942906689,-3.0819452304421819,-0.041951396139000167,2,4,2
1479244740,0.31825640119767906,42.338826537695105,-71.08820963456553,65.0,0.005304273353294651,0.00088876868178320841,0.0025498543222759059,1.4149204698186315e-06,3.6687306587946517e-06,2.1492030249782371e-05,1.945910149055313,-0.091625057508797375,-3.0793649610074323,-0.038457776791694931,2,4,2
1479244770,1.1426982654892865,42.338828920033421,-71.088211520615644,65.0,0.01904497109148811,0.00088879032900473327,0.0025498543222759059,1.4149204698186315e-06,4.6839759692712038e-06,2.1176691788011219e-05,1.945910149055313,-0.057101382019566584,-3.0784626800132484,-0.041170833490688404,2,4,2
1479244800,0.22304668423621737,42.338835960364285,-71.088213689841893,65.0,0.0037174447372702894,2.6521611243534505e-06,9.6235865212363139e-06,1.5678004320552515e-06,3.5195199200979096e-06,6.8819172706432337e-06,1.7917594692280547,-0.0032218737608159897,-3.0768970965305962,-0.044956104301698496,2,4,2
1479244830,0.2191358654842706,42.338832818306493,-71.088213375363381,65.0,0.0036522644247378435,4.1893009166922929e-06,1.4484158677696117e-05,1.5678004320552515e-06,3.0545576713844871e-06,8.5022431811693553e-06,1.945910149055313,-0.00049924439485313861,-3.0746025321842083,-0.045132000898391193,2,4,2
1479244860,1.9441524667040249,42.338825807738566,-71.088214463265246,65.0,0.03240254111173375,4.0574246304433973e-06,1.4484158677696117e-05,2.7471373481208761e-06,6.0279026527108455e-06,1.1919422564073497e-05,1.945910149055313,-0.0042502410860235972,-3.0735505839790456,-0.045333447401361547,2,4,2
1479244890,0.9287042789198876,42.338832125232379,-71.088220153810539,65.0,0.015478404648664793,3.9207649634426262e-06,1.6988719385547999e-05,4.5729792367057366e-06,8.8852432642652385e-06,1.2845691934048218e-05,1.7917594692280547,-0.0042762979091411366,-3.0735797553805266,-0.045356539790656569,2,4,2
1479244920,1.2768372307014724,42.338838033966375,-71.088223494110537,65.0,0.021280620511691207,5.0788920901518456e-06,1.883458143694287e-05,4.8584777918542655e-06,6.9202575100674821e-06,1.5109154927427689e-05,1.945910149055313,-0.0042556122988668104,-3.0731663119298971,-0.045371070478244402,2,4,2
1479244950,0.9486978215959273,42.338835649608512,-71.088218257163888,65.0,0.015811630359932122,6.1944607471528943e-06,1.957631501951988e-05,4.8584777918542655e-06,5.1344883915336151e-06,1.7528615518703625e-05,1.945910149055313,-0.0042420350252359339,-3.0729438596404859,-0.045377440325703504,2,4,2
1479244980,0.24936859294865657,42.338833828277288,-71.088211616511899,65.0,0.004156143215810943,5.2730927196147798e-06,1.957631501951988e-05,5.0385408083653354e-06,6.8856140979368739e-06,1.5515846213912622e-05,1.7917594692280547,-0.0042059346967847746,-3.0733456015345335,-0.045376937201922075,2,4,2
1479245010,1.6686720537192292,42.338832568138287,-71.088213611980976,65.0,0.027811200895320486,4.1324393273382927e-06,1.7466964573654346e-05,5.7771459717484181e-06,7.7919477484375746e-06,1.4097596998022619e-05,1.945910149055313,-0.0042062082870708058,-3.0734510297388029,-0.045383077713972528,2,4,2
1479245040,0.49995129836825425,42.338835486866529,-71.088222993228612,65.0,0.008332521639470904,4.8948206441369704e-06,1.7466964573654346e-05,2.4860864758395837e-06,7.3289276898273786e-06,1.4097596998022619e-05,1.945910149055313,-0.0042032569393395799,-3.0729974473759758,-0.045377681696031916,2,4,2
1479245070,1.6886225359171678,42.338839713899581,-71.088223885141545,65.0,0.028143708931952796,3.2927416907640755e-06,1.2660309026914734e-05,2.4860864758395837e-06,5.7820815544546448e-06,9.5739878172026115e-06,1.7917594692280547,-0.0041584848782204352,-3.0726743009964714,-0.045401464090220556,2,4,2
1479245100,1.0870357908241999,42.3388416858147,-71.088219120060515,65.0,0.018117263180403333,4.7772300686179224e-06,2.0665623096348321e-05,4.9919316787670268e-06,7.1428385288817558e-06,9.0077577071513406e-06,1.945910149055313,-0.0041428814886413584,-3.072916634833549,-0.045387306612635396,2,4,2
1479245130,0.05678647391977969,42.338840223655197,-71.088216250030428,65.0,0.0009464412319963281,6.4939983057232714e-06,2.0665623096348321e-05,3.5184675636672629e-06,7.1428385288817558e-06,1.8445984739457759e-05,1.945910149055313,-0.0041793034913962957,-3.073171107462771,-0.045363478512198775,2,4,2
1479245160,0.5978132367824016,42.33883588071194,-71.088216978912641,65.0,0.00996355394637336,7.5438842938022473e-06,2.6147989821352824e-05,3.5184675636672629e-06,8.9007905190893141e-06,1.910338872172283e-05,1.7917594692280547,-0.0041991411098558648,-3.0733391595898283,-0.045402915375534487,2,4,2
1479245190,0.5015182157237867,42.338834282195556,-71.088217380740048,65.0,0.00835863692872978,7.5160056725318147e-06,2.6147989821352824e-05,3.1408974920410333e-06,5.9406354906028106e-06,1.535694521671228e-05,1.945910149055313,-0.0041644628810602281,-3.0732236100062904,-0.045411617496251069,2,4,2
1479245220,1.6197006178173998,42.338832490060774,-71.088213795275479,65.0,0.026995010296956664,5.1221794155136995e-06,1.783105438477853e-05,3.1408974920410333e-06,4.1492376028895818e-06,1.1352458097851793e-05,1.945910149055313,-0.0041232695846236808,-3.073367903307473,-0.045406441372692521,2,4,2
1479245250,2.6382995281917614,42.33882890816394,-71.088212105672241,65.0,0.04397165880319602,3.1548733325618872e-06,1.2668706912074636e-05,3.990646233810618e-06,6.0440532290744711e-06,1.0929627315744298e-05,1.7917594692280547,-0.0041205363357612055,-3.0736363187596614,-0.045444146994362167,2,4,2
1479245280,0.7065082144842912,42.338827107179306,-71.088210844380356,65.0,0.011775136908071521,2.992091887187354e-06,1.3056210915860222e-05,3.2671172902907621e-06,9.2269274361312373e-06,1.1591696430210902e-05,1.945910149055313,-0.0041563606129197146,-3.0738552317194672,-0.045468170060712305,2,4,2
1479245310,1.9072872356892638,42.338823585132999,-71.088207302696944,65.0,0.031788120594821064,4.0412023276470417e-06,1.3056210915860222e-05,3.2671172902907621e-06,4.2167147027600291e-06,1.2202391862943816e-05,1.945910149055313,-0.0041499451762248502,-3.0737544987702328,-0.045439595704591031,2,4,2
1479245340,0.2144617129231988,42.338819143645495,-71.08820862921695,65.0,0.003574361882053313,4.2706165040799023e-06,1.6066584947307719e-05,3.7986398315032431e-06,6.133404806979521e-06,1.1862924446667053e-05,1.7917594692280547,-0.0040838635816289846,-3.0731551874942533,-0.045409019548826583,2,4,2
1479245370,0.6679903085237533,42.338825109167026,-71.088211105184243,65.0,0.011133171808729221,4.9603668400577778e-06,1.6066584947307719e-05,1.8384585557602167e-06,7.4419319132912234e-06,1.3559721363750899e-05,1.945910149055313,-0.0040837058980486987,-3.0731361300388533,-0.045463254852498532,2,4,2
1479245400,1.4544798866212816,42.338828759930792,-71.088209812533066,65.0,0.024241331443688025,6.1522985939311626e-06,2.0718868934765023e-05,1.8384585557602167e-06,5.1600423461268693e-06,1.3559721363750899e-05,1.945910149055313,-0.004124961247786209,-3.0733741298198369,-0.045519076780309142,2,4,2
1479245430,0.6113810815942256,42.33882637517123,-71.088209147859146,65.0,0.010189684693237092,5.5971112683979369e-06,2.0718868934765023e-05,2.6402194448218858e-06,6.5876540214800555e-06,1.0481083706950178e-05,1.7917594692280547,-0.0041056988417770566,-3.0733370013036363,-0.045499087718173396,2,4,2
1479245460,2.0360212352734424,42.338830398665436,-71.088213144488918,65.0,0.03393368725455737,3.1651994132060248e-06,1.3659000132212604e-05,2.6402194448218858e-06,7.7530590460440688e-06,1.0493379642395655e-05,1.945910149055313,-0.0040863822116591854,-3.0734680723818029,-0.045479245655181688,2,4,2
1479245490,0.964489455795775,42.338835548812042,-71.08821369491892,65.0,0.016074824263262916,4.4492689367412537e-06,2.1830914345372392e-05,7.351916120784709e-06,9.3218826648226912e-06,1.2322968369542053e-05,1.945910149055313,-0.0040971911542814132,-3.0735815685663099,-0.045462468955640108,2,4,2
1479245520,0.5373103103284979,42.338838949633733,-71.088212643999654,65.0,0.008955171838808297,4.6463086114331454e-06,2.1830914345372392e-05,8.9973121792177659e-06,9.6676341234070203e-06,1.663103705030272e-05,1.7917594692280547,-0.0041047183276939321,-3.0732716711361969,-0.045401578961728667,2,4,2
1479245550,5.056781271201346,42.338875519810657,-71.088220199188598,137.0,0.08427968785335577,3.2294585918018285e-06,1.7377900447641898e-05,7.2136102580128194e-06,9.2503790986798377e-06,1.3604588148736203e-05,1.945910149055313,-0.0040783960625953974,-3.0731064197722957,-0.045400690523133377,2,4,2
1479245580,1.4922901319238169,42.338945884240012,-71.088229853292631,186.5,0.024871502198730282,3.489502516803047e-06,1.2818729439187218e-05,2.1524846271265751e-06,7.8932673660645641e-06,1.2188036497855698e-05,1.945910149055313,-0.0040789316018541412,-3.0732012546011802,-0.045438123884560325,2,4,2
1479245610,6.054108418307088,42.338944544744209,-71.088227662920474,169.00000198471483,0.1009018069717848,1.2223341667074464e-05,3.9656476267911781e-05,2.1524846271265751e-06,7.158314500055181e-06,1.1877381567282233e-05,1.7917594692280547,-0.0040818637894115516,-3.0731902224757781,-0.045464574828000703,2,4,2
1479245640,3.616297625154556,42.338832594081481,-71.088217168575312,68.500004961787099,0.06027162708590927,1.1249868140472015e-05,3.9656476267911781e-05,3.0646641451033197e-06,7.5992792104230887e-06,1.2269485816243056e-05,1.945910149055313,-0.0040534010354520257,-3.0730029401525627,-0.045493965649697453,2,4,2
1479245670,0.5863250401930646,42.338837862989664,-71.088228490351852,65.0,0.009772084003217744,5.8639445377046424e-06,1.9988648768627032e-05,3.0646641451033197e-06,7.6964425834295496e-06,1.6673563463598565e-05,1.945910149055313,-0.004035218968756085,-3.0730684770387056,-0.045449657819664299,2,4,2
1479245700,1.466251806816315,42.338840969415081,-71.088225073895131,65.0,0.024437530113605253,8.2792570526289958e-06,2.6036222892310063e-05,1.9409795452392859e-06,7.9741833750116308e-06,1.9795031461686212e-05,1.7917594692280547,-0.0039565871314359421,-3.0728804707642268,-0.045307651798104816,2,4,2
1479245730,0.9100689263169327,42.338828567931046,-71.08821862425647,65.0,0.015167815438615544,6.7302126642364168e-06,2.6036222892310063e-05,1.9409795452392859e-06,9.8680422235655365e-06,1.3267105454553412e-05,1.945910149055313,-0.0039300462629926185,-3.0729391349912487,-0.045309633558538835,2,4,2
1479245760,3.112533409082451,42.338807503942675,-71.088205398393171,65.0,0.051875556818040854,7.2075941962875185e-06,3.2159204092923756e-05,8.9003037973759575e-06,1.1304725563153598e-05,1.7822772923848256e-05,1.945910149055313,-0.0038677592559765855,-3.0733422223239502,-0.045353728386722802,2,4,2
1479245790,2.6440735031809472,42.338799321101696,-71.088199934396258,65.0,0.04406789171968246,9.7556544284458052e-06,3.2159204092923756e-05,3.102511949907592e-06,7.3779102829529984e-06,1.7876585935037878e-05,1.7917594692280547,-0.0038257982829835065,-3.0736183628889151,-0.045420037335052142,2,4,2
1479245820,1.8522192420999306,42.338811512772985,-71.088210777578666,65.0,0.03087032070166551,1.5971573637640552e-05,4.7469827895042319e-05,1.4819206468839258e-06,3.6595879081939848e-06,2.8380109795837254e-05,1.945910149055313,-0.0038926422189482662,-3.0742267492100903,-0.045430378817223782,2,4,2
1479245850,2.246042495473994,42.338821071642315,-71.08821393487969,65.0,0.03743404159123323,1.5569875468466161e-05,4.7469827895042319e-05,1.4819206468839258e-06,5.7456947262077548e-06,2.8380109795837254e-05,1.945910149055313,-0.0038714718529589088,-3.0742973830716602,-0.045350600351117307,2,4,2
1479245880,1.1110683481597374,42.338823001843402,-71.088208986429095,65.0,0.01851780580266229,3.9219997758303028e-06,1.3115672605578176e-05,1.5840562892004232e-06,5.4240336705300101e-06,1.0958187626556828e-05,1.7917594692280547,-0.0038961979076899064,-3.0735961829566754,-0.045315855255826924,2,4,2
1479245910,0.0,nan,nan,nan,0.0,5.2710382385998035e-06,1.9447339236623214e-05,1.5840562892004232e-06,8.0992733404522402e-06,1.3264060030149983e-05,1.945910149055313,-0.0038866995449249112,-3.0731525469675445,-0.045277913962868302,2,4,2
1479245940,0.0,nan,nan,nan,0.0,5.3184322838787925e-06,1.9447339236623214e-05,4.6262854892865795e-06,7.9189818104391601e-06,1.6455095480626278e-05,1.945910149055313,-0.0038396499828253247,-3.0729555012517884,-0.045265224905457195,2,4,2
1479245970,0.0,nan,nan,nan,0.0,4.4556121927637293e-06,1.8105991960964552e-05,4.6262854892865795e-06,8.2286409489856247e-06,1.3387546741223761e-05,1.7917594692280547,-0.0038497448428219294,-3.0726109430932449,-0.045304600561989851,2,4,2
1479246000,0.0,nan,nan,nan,0.0,6.4810595533916255e-06,2.4133737394236727e-05,4.0307819781498495e-06,5.8580460791657318e-06,1.2227298987937429e-05,1.945910149055313,-0.0038562906535836603,-3.072638747835144,-0.045276203570300398,2,4,2
1479246030,0.0,nan,nan,nan,0.0,7.6087808616491345e-06,2.4133737394236727e-05,4.0307819781498495e-06,5.2001703329955459e-06,1.4956272507156066e-05,1.945910149055313,-0.0038691886324158813,-3.0728283851037546,-0.045242697817775554,2,4,2
1479246060,0.0,nan,nan,nan,0.0,6.809162444356155e-06,2.442644958491018e-05,5.3579918747900151e-06,9.0821084753581859e-06,1.8668943687015191e-05,1.7917594692280547,-0.00387747901841279,-3.07286555241161,-0.045268553292166523,2,4,2
1479246090,0.0,42.338819620387902,-71.088225122423296,65.0,0.0,5.7177285322627895e-06,2.442644958491018e-05,4.5705195623765029e-06,9.5015966996036996e-06,1.4117838799396078e-05,1.945910149055313,-0.003842159288623723,-3.0731043050872446,-0.045318554780422141,2,4,2
1479246120,0.6696144707244662,42.338819834890742,-71.088220707711372,65.0,0.011160241178741103,4.5008730944927932e-06,1.6715473647873816e-05,4.1038165670877637e-06,7.2515457496275038e-06,1.4117838799396078e-05,1.945910149055313,-0.0037895656740447236,-3.0731014505565071,-0.04531090090869596,2,4,2
1479246150,1.639881256431777,42.338815913792956,-71.08821194799647,65.0,0.027331354273862952,8.0555616356368166e-06,2.9350938164275092e-05,4.1038165670877637e-06,8.7729505022362179e-06,1.5717186631431472e-05,1.7917594692280547,-0.0037803187835386046,-3.07283394461601,-0.045328566823228063,2,4,2
1479246180,0.572923091880486,42.338815065795025,-71.088208271780303,65.0,0.009548718198008099,7.3509532639981961e-06,2.9350938164275092e-05,4.6882699026490229e-06,9.8144947923082043e-06,1.4922235236947533e-05,1.945910149055313,-0.003842718327065038,-3.0732877085328272,-0.045324952357368865,2,4,2
1479246210,0.9661619212836267,42.338820918119644,-71.088208465122307,65.0,0.016102698688060444,4.6170126211743727e-06,1.7122144891790633e-05,3.0753070313871294e-06,6.5127580958270081e-06,1.2703647991571002e-05,1.945910149055313,-0.003849814861079577,-3.0735368183017306,-0.045263007338477143,2,4,2
1479246240,0.17575407857572745,42.338819452501362,-71.088204972180876,65.0,0.0029292346429287907,4.9054107750680289e-06,1.6928762402238991e-05,3.0753070313871294e-06,5.4560811666604602e-06,1.3158651736340394e-05,1.7917594692280547,-0.0038158625070857399,-3.07344958650719,-0.045248301897491267,2,4,2
1479246270,2.0635840015230276,42.338815230315419,-71.088210984443535,65.0,0.03439306669205046,6.170172390950425e-06,1.8778925772158161e-05,1.4723445407343897e-06,4.9524215808516774e-06,1.5553248504090622e-05,1.945910149055313,-0.0038261705024523682,-3.073244964627091,-0.045264219689339177,2,4,2
1479246300,0.10443271969075853,42.338814825444345,-71.08821349556014,65.0,0.0017405453281793088,6.0943135662410568e-06,1.8888114064985575e-05,1.4723445407343897e-06,7.4591262346372766e-06,1.6478330189050205e-05,1.945910149055313,-0.0038466970838161273,-3.0731179596296525,-0.045256910316465983,2,4,2
1479246330,1.36391050673964,42.338817212251342,-71.088206126803712,65.0,0.022731841778994,5.1338081649017117e-06,1.8888114064985575e-05,4.7201853817135358e-06,6.4207525697374792e-06,1.4702341716836077e-05,1.7917594692280547,-0.0038396017063262668,-3.0732208285280351,-0.04527427683859428,2,4,2
1479246360,1.5337882875942892,42.338813641435358,-71.088202982541816,65.0,0.025563138126571485,5.616841277245149e-06,1.9634782104294277e-05,3.1013956656236419e-06,5.0557440539956188e-06,1.1376990261427618e-05,1.945910149055313,-0.0038273585862785347,-3.0729516306890612,-0.045315123674350706,2,4,2
1479246390,0.9613927699027935,42.338803353388442,-71.088198717079209,65.0,0.016023212831713225,5.3941196015412405e-06,1.9634782104294277e-05,2.1151511627312014e-06,4.7600260608728923e-06,9.1331452296184064e-06,1.945910149055313,-0.0038068528415703372,-3.0726917387720531,-0.045287555321039223,2,4,2
1479246420,1.3596234869457693,42.338805314104867,-71.08819957363545,65.0,0.022660391449096155,8.7443382793205265e-06,2.8416655588860373e-05,2.1151511627312014e-06,5.5629532317357483e-06,1.4572778986149181e-05,1.7917594692280547,-0.0038205225818543852,-3.0728178062206282,-0.045272646701162038,2,4,2
1479246450,0.8845041990430373,42.338816685086854,-71.088202556282752,65.0,0.01474173665071729,8.5669444729209997e-06,2.8416655588860373e-05,2.283118411175945e-06,5.2245045498090452e-06,1.6968361681828971e-05,1.945910149055313,-0.0039225034162355026,-3.0726836105630868,-0.0453396222535856,2,4,2
1479246480,1.0833452067990352,42.338819515110949,-71.088201509416265,65.0,0.01805575344665059,5.5088850251320288e-06,1.7452441149951243e-05,2.283118411175945e-06,5.3988175735875351e-06,1.5007859818543716e-05,1.945910149055313,-0.0041249395224036388,-3.0735010600011416,-0.045404959435020507,2,4,2
1479246510,2.450330049256928,42.33881524412859,-71.088200053126258,65.0,0.04083883415428213,9.1961900577539499e-06,3.5133304623411928e-05,5.6263448711639285e-06,1.1484852986151017e-05,1.5985211311123103e-05,1.7917594692280547,-0.0043212235698207148,-3.0760154084392788,-0.045488055039270447,2,4,2
1479246540,2.3354957849639266,42.338812095872271,-71.088198027673073,65.0,0.038924929749398776,7.6171920977868192e-06,3.5133304623411928e-05,1.058806773042047e-05,1.2989935930145458e-05,1.6983348648443825e-05,1.945910149055313,-0.0041481176548827468,-3.0776785280972567,-0.045412955497619846,2,4,2
1479246570,5.254161474966342,42.338827764465044,-71.088205424790033,65.0,0.08756935791610569,4.7623357745516138e-06,1.7726006787036644e-05,3.1361748256863764e-06,6.5517823875550017e-06,1.2989935930145458e-05,1.945910149055313,-0.0040406767253090116,-3.0773526448327329,-0.045308924264841101,2,4,2
1479246600,3.8875691728808706,42.33882751693455,-71.088212401636454,65.0,0.06479281954801451,2.8388412720709238e-06,1.0577027516678305e-05,3.0173217626000803e-06,3.4395642627114596e-06,8.0775808234754726e-06,1.7917594692280547,-0.0040797847090126372,-3.0755415615901516,-0.045273699199166378,2,4,2
1479246630,1.369135104031353,42.338816648043235,-71.088210214822837,65.0,0.02281891840052255,3.891326116949727e-06,1.3825454881543257e-05,3.0173217626000803e-06,4.3402885491515465e-06,1.0745788607770875e-05,1.945910149055313,-0.004055352108967787,-3.0743909824218281,-0.045306988669477924,2,4,2
1479246660,3.5915821373520957,42.338817547906345,-71.088219065303349,65.0,0.059859702289201594,9.0765157486024634e-06,3.1264485126064948e-05,3.1707058509249323e-06,4.534828071908542e-06,1.2370002290203351e-05,1.945910149055313,-0.0040271276085798897,-3.0742705674564426,-0.045319295949381097,2,4,2
1479246690,0.8013153972550021,42.338816385890134,-71.08821904549302,65.0,0.013355256620916701,9.0021660483222728e-06,3.1264485126064948e-05,3.5597848964389228e-06,7.4786224856885768e-06,1.3359870155261654e-05,1.7917594692280547,-0.004038672469023106,-3.0745034447597752,-0.045287750179036801,2,4,2
1479246720,1.3422510154042633,42.338818156297123,-71.088208932559084,65.0,0.022370850256737723,3.2155244738183242e-06,1.5840355701130457e-05,6.7534026128316264e-06,7.6553089063417025e-06,1.2595558952580392e-05,1.945910149055313,-0.0040480347861536628,-3.0744163626935501,-0.045304719684311663,2,4,2
1479246750,1.0816440733906192,42.338821416253445,-71.088213158961906,65.0,0.018027401223176986,3.9824213942560653e-06,1.5840355701130457e-05,1.6072038242358245e-06,6.7370559959392613e-06,9.0429612052819716e-06,1.945910149055313,-0.0040664463958310724,-3.0748186207772514,-0.045342664354183874,2,4,2
1479246780,1.1497388494277339,42.338823754320856,-71.088215719050126,65.0,0.019162314157128896,8.1629643948819246e-06,2.4249411761820866e-05,1.5962513089430707e-06,2.8855802129385923e-06,1.3939776575762558e-05,1.7917594692280547,-0.004122808530060358,-3.0756315739663997,-0.04532437674470003,2,4,2
1479246810,6.77051384173055,42.33894840633203,-71.088231621941233,175.0,0.11284189736217584,8.0936225179362053e-06,2.4249411761820866e-05,8.1016786349058294e-07,1.8551065139772747e-06,1.3682243379042802e-05,1.945910149055313,-0.004142003580587532,-3.0755358923953056,-0.045327167895575178,2,4,2
1479246840,2.2920152425375244,42.33894083230102,-71.088228229955917,177.14285728399835,0.038200254042292076,5.4916997022503866e-06,1.7331322801984074e-05,8.1016786349058294e-07,5.1603737409372968e-06,1.2427703247766122e-05,1.945910149055313,-0.0041319514389857046,-3.0754054540664426,-0.045369518183029256,2,4,2
1479246870,2.2356462438905456,42.33881830003984,-71.088205213845427,80.454545813813994,0.037260770731509095,4.3778444105293445e-06,1.7331322801984074e-05,3.4269512726008892e-06,8.6467529514610494e-06,1.2478842760545372e-05,1.7917594692280547,-0.0041618633668375213,-3.0752160033718128,-0.045372110932728617,2,4,2
1479246900,1.273545949002185,42.338825184078019,-71.088208134458114,65.0,0.021225765816703084,4.8673580307791481e-06,1.455176264306494e-05,9.1746830499478939e-07,2.1754470868431119e-06,9.9131001079230513e-06,1.945910149055313,-0.004171898994799055,-3.0753551185375385,-0.045380778273669209,2,4,2
1479246930,0.22020353677527627,42.33882763659313,-71.088209372517298,65.0,0.0036700589462546045,7.0074398193729001e-06,2.158169471662241e-05,9.1746830499478939e-07,2.721320321858877e-06,1.2737600728932995e-05,1.945910149055313,-0.0041440808523167784,-3.0757915065901558,-0.04538498075911105,2,4,2
1479246960,0.4573621905305585,42.33883097365198,-71.08821345663435,65.0,0.007622703175509308,8.2544980487810694e-06,2.4009953123700665e-05,3.3417314109385074e-06,5.0111997551232954e-06,1.8256079638442033e-05,1.7917594692280547,-0.0040957619303400713,-3.0758579525230281,-0.045374237559153985,2,4,2
1479246990,1.0084067691941685,42.338833297727724,-71.088212748215568,65.0,0.016806779486569477,1.7272019179714274e-05,5.7115384673361759e-05,3.3417314109385074e-06,7.2806580615849286e-06,1.8023463962881521e-05,1.945910149055313,-0.0040575388031115992,-3.0755958359314257,-0.045324689931435,2,4,2
1479247020,0.3618757390188268,42.338831071953692,-71.088215384867397,65.0,0.006031262316980447,1.9220236469911929e-05,5.7115384673361759e-05,7.4985743212561665e-06,9.7831675484307427e-06,3.6349529808129585e-05,1.945910149055313,-0.0040714382276086274,-3.0753141033241329,-0.045343440124065819,2,4,2
1479247050,3.5877471074384446,42.338823337007767,-71.088212046763786,65.0,0.05979578512397408,1.4729797286704662e-05,4.974527955571965e-05,5.3021795901637549e-06,1.0110314162712798e-05,2.6055489365003541e-05,1.7917594692280547,-0.0040560621350610873,-3.0749547095654415,-0.045388139812770879,2,4,2
1479247080,0.22456963713294645,42.338822422810097,-71.088204840618488,65.0,0.0037428272855491076,8.6384587984816731e-06,2.7089392466491547e-05,2.1507247937122887e-06,7.1448416641037346e-06,2.0744595750650597e-05,1.945910149055313,-0.0041002556693901394,-3.0748526003737555,-0.045364556497258061,2,4,2
1479247110,0.8992663175165868,42.338832054317621,-71.088210662804187,65.0,0.01498777195860978,7.0224353941837953e-06,2.3543657814218496e-05,2.1507247937122887e-06,4.9586110857483152e-06,1.4765554615609466e-05,1.945910149055313,-0.0041323768717287214,-3.0745453960547926,-0.045353260218680205,2,4,2
1479247140,0.09497721248742218,42.338840679828159,-71.088214912964389,65.0,0.0015829535414570363,4.1444943273478825e-06,1.4825343647768173e-05,4.1010054735179903e-06,6.0484807879662033e-06,1.3174524854687453e-05,1.7917594692280547,-0.0040975873954361931,-3.0740609379870332,-0.045346220001883285,2,4,2
1479247170,0.6464817446938741,42.338836891685943,-71.088211262204112,65.0,0.010774695744897901,4.9814477963646795e-06,2.2769659778550917e-05,6.7452730579288923e-06,9.3234078686655067e-06,1.4896306951160389e-05,1.945910149055313,-0.0040817078446522799,-3.0739625222982943,-0.045329299899696647,2,4,2
1479247200,0.559760824696914,42.338831841674832,-71.088210714802898,65.0,0.0093293470782819,4.5990132436882043e-06,2.2769659778550917e-05,7.7836543976559196e-06,1.2553715690020345e-05,1.7158778209077651e-05,1.945910149055313,-0.0040740352828760474,-3.073786857224623,-0.045322808587480445,2,4,2
1479247230,0.35600713455064514,42.338832184439028,-71.08821390843346,65.0,0.0059334522425107524,4.8721568722566001e-06,1.9233307813378089e-05,3.6015465768120866e-06,1.0184590426094627e-05,1.4874253963674309e-05,1.7917594692280547,-0.0040750300077112651,-3.0735682607079684,-0.045415661827013544,2,4,2
1479247260,2.111747435689903,42.338822623239608,-71.088209976926834,65.0,0.035195790594831716,4.5331987756114345e-06,1.7380980735140187e-05,3.6015465768120866e-06,7.6294918949117429e-06,1.3785643039199902e-05,1.945910149055313,-0.0040761272696521944,-3.0741378705651532,-0.045391448167287407,2,4,2
1479247290,0.899029141980849,42.33882741142385,-71.088210593941852,65.0,0.014983819033014151,6.5553376593151141e-06,2.5656048491798209e-05,5.0815255065490395e-06,9.2365817293644604e-06,1.6253743173356773e-05,1.945910149055313,-0.0040861412492950383,-3.0748373491035248,-0.045335456250330496,2,4,2
1479247320,0.26348886456666065,42.338837205371505,-71.088214108586556,65.0,0.004391481076111011,7.6310405326509562e-06,2.5656048491798209e-05,2.9948732017450023e-06,5.5265685567465329e-06,1.3802643792350733e-05,1.7917594692280547,-0.0040883927070869764,-3.0749837852222801,-0.04535792746551448,2,4,2
1479247350,3.050038758261779,42.338814071599074,-71.088199589803168,65.0,0.05083397930436298,5.9366151441081144e-06,2.0391167086359297e-05,1.3892506294144709e-06,3.2198747905263748e-06,9.0766567415667747e-06,1.945910149055313,-0.0040125613524224866,-3.0745439015439402,-0.045366513534391535,2,4,2
1479247380,0.5961739201674855,42.338800468338178,-71.088188808619279,65.0,0.009936232002791425,5.972401202724633e-06,2.0391167086359297e-05,1.3892506294144709e-06,4.4340846251918793e-06,1.0725223930913749e-05,1.945910149055313,-0.0040028542207332469,-3.074502481888886,-0.045341537172118473,2,4,2
1479247410,2.7910575579358263,42.338824005049347,-71.088204225796119,65.0,0.0465176259655971,2.8810689445101161e-06,1.3128192713376807e-05,4.891840780518399e-06,5.7568941212012144e-06,9.5687248847752745e-06,1.7917594692280547,-0.004071405743716265,-3.07462334255642,-0.045343587511016636,2,4,2
1479247440,0.681115724755347,42.338824438241531,-71.088209231643631,65.0,0.01135192874592245,2.6676386527802894e-06,1.0742898455627558e-05,2.7089541934842737e-06,5.3481923837164813e-06,8.5278437599914799e-06,1.945910149055313,-0.0040542024209141532,-3.0748093228435214,-0.045389431787491698,2,4,2
1479247470,0.24762554902230013,42.338821227616393,-71.088208859289892,65.0,0.004127092483705002,4.9910698215780552e-06,1.5474187618470518e-05,1.7693902113725282e-06,4.2567490901994189e-06,1.2340470326864245e-05,1.945910149055313,-0.0039930962264641441,-3.0751444356765325,-0.045382080328996925,2,4,2
1479247500,0.6200157115448282,42.338821569605209,-71.088207072191679,65.0,0.010333595192413803,5.4051889798238771e-06,1.5474187618470518e-05,1.7693902113725282e-06,4.8415459827453105e-06,1.4326009235059233e-05,1.7917594692280547,-0.0039423978712648305,-3.0750217085844738,-0.045322983146073685,2,4,2
1479247530,0.28879331596756036,42.33881944595997,-71.088204954766383,65.0,0.0048132219327926724,3.4849782906850314e-06,1.4455331580712001e-05,3.5969903156730792e-06,6.4483597695870108e-06,1.0913275025563538e-05,1.945910149055313,-0.0040029506333457672,-3.0745916528152941,-0.045351320188526542,2,4,2
1479247560,1.8255474712672977,42.338818425832031,-71.088204128507385,65.0,0.030425791187788296,2.8448672451375193e-06,1.2835189018711353e-05,4.7533482199085279e-06,6.5705301949036038e-06,1.0913275025563538e-05,1.945910149055313,-0.0040856587233807414,-3.0747321228559072,-0.045390154678016874,2,4,2
1479247590,0.5664832399225989,42.338828844906267,-71.088212669953904,65.0,0.009441387332043314,3.1779178844905259e-06,1.2835189018711353e-05,2.5436316305901078e-06,5.5978293674457302e-06,8.4152341918308753e-06,1.7917594692280547,-0.0041129681900857499,-3.0750041369142149,-0.045428991061163153,2,4,2
1479247620,2.8541036948043392,42.338822898538943,-71.088207555087408,65.0,0.04756839491340566,6.0756325039406976e-06,1.8971206767734704e-05,2.5436316305901078e-06,5.2947786657365431e-06,1.2884644134390605e-05,1.945910149055313,-0.00019950073275444433,-2.9792685372898999,-0.017914534191655274,2,4,2
1479247650,0.2817736915207477,42.338815455297294,-71.088201559763633,65.0,0.004696228192012462,6.3039042226339603e-06,1.8971206767734704e-05,4.6125115128826623e-06,5.4416492582639502e-06,1.7990578445450294e-05,1.945910149055313,0.0027547840149186932,-2.9074937961437541,0.0028014551602817887,2,4,2
1479247680,0.3686037328209406,42.338817926177249,-71.08820587501414,65.0,0.006143395547015677,5.2056882010381849e-06,1.9310226426910793e-05,4.9062526979374772e-06,8.0568069333607938e-06,1.6542206821521581e-05,1.7917594692280547,0.0027624908805913215,-2.9073852534792137,0.0028177632714197934,2,4,2
1479247710,1.5101921120783437,42.338818014659942,-71.088206450016798,65.0,0.02516986853463906,3.9061992240230432e-06,1.9310226426910793e-05,9.2583639690241093e-06,1.0302465790202065e-05,1.7225685859642468e-05,1.945910149055313,0.002796599400200773,-2.9075479029680542,0.0029092568423511943,2,4,2
1479247740,1.5685304195030179,42.338808463798252,-71.088199846001899,65.0,0.02614217365838363,3.6233305609404204e-06,1.9101088170063521e-05,7.6179079662632475e-06,9.763941351303234e-06,1.3602804158492511e-05,1.945910149055313,0.002920177437143877,-2.9079885214785324,0.0031520407881885154,2,4,2
1479247770,1.0596351275084197,42.338812288594013,-71.088202662434611,65.0,0.01766058545847366,1.4317193597488993e-06,1.1855324767763608e-05,7.6179079662632475e-06,9.0300318708834737e-06,1.0949888060646187e-05,1.7917594692280547,0.0030582232661344583,-2.9084910939841446,0.003339996106807578,2,4,2
1479247800,1.6403067761999695,42.338810208163117,-71.088201165433063,65.0,0.02733844626999949,5.2834280360315822e-06,1.684123109435538e-05,6.1620209499176536e-07,7.6167824717409625e-06,1.3385293437326048e-05,1.945910149055313,0.0030793618476674146,-2.9087037717094901,0.0033399076853806433,2,4,2
1479247830,0.945008360903208,42.338808511198174,-71.088200234060338,65.0,0.0157501393483868,6.7581640783777727e-06,1.684123109435538e-05,6.1620209499176536e-07,3.6368316233717197e-06,1.671298387470794e-05,1.945910149055313,0.0030662360516860456,-2.9086866221719729,0.0033029470732697129,2,4,2
1479247860,0.5349668831129833,42.338807238906796,-71.08820005114093,65.0,0.008916114718549722,5.9919822937321901e-06,1.674526755976728e-05,7.9808175801445518e-07,1.0199868505534364e-06,9.8227484601509328e-06,1.7917594692280547,0.003087925084285605,-2.9082562820287383,0.003309376748321892,2,4,2
1479247890,1.1609481521972989,42.338808252022758,-71.088199479275474,65.0,0.01934913586995498,4.6043790888349253e-06,1.465803295560991e-05,7.9808175801445518e-07,2.1388635659886838e-06,8.2485345518721097e-06,1.945910149055313,0.0030337373597790576,-2.9075425644918238,0.0033260573665570585,2,4,2
1479247920,2.3086502032179506,42.338812658608376,-71.088199885359529,65.0,0.038477503386965844,7.1843942154464652e-06,2.6797192349694933e-05,3.2722978333316783e-06,6.6969589700200743e-06,1.3044804102649429e-05,1.945910149055313,0.0027476915175673631,-2.9072797860359367,0.0032967471800711134,2,4,2
1479247950,2.327147373934478,42.338813160297107,-71.088199795569693,65.0,0.03878578956557464,8.0415261485788627e-06,2.6797192349694933e-05,3.9977274786380502e-06,6.7184323376562741e-06,1.7302277057373203e-05,1.7917594692280547,0.0022745899273335268,-2.9072376552756531,0.0033459796228306597,2,4,2
1479247980,7.910323829791097,42.338816379771764,-71.088198651399807,65.0,0.13183873049651829,7.2112094747749021e-06,2.2028774982052646e-05,3.7644419931909429e-06,5.3041189008648597e-06,1.9040510684301881e-05,1.945910149055313,0.0020111643520291885,-2.9074452169818814,0.0034563525119074173,2,4,2
1479248010,1.0566791655906618,42.338798917628232,-71.08819338279109,65.0,0.017611319426511028,6.5581793310598249e-06,2.2028774982052646e-05,3.7644419931909429e-06,8.5469843600965801e-06,1.9519868178801223e-05,1.945910149055313,0.002292347576869603,-2.9076304624414111,0.0035082385052383099,2,4,2
1479248040,7.9259689674848826,42.338800491610812,-71.088198915763726,65.0,0.1320994827914147,4.8412227637440177e-06,2.0217892648933296e-05,5.4687193996275714e-06,7.9110562274637328e-06,1.1973110780994816e-05,1.7917594692280547,0.0028422000703505796,-2.9072982308202682,0.0034960800454421465,2,4,2
1479248070,1.3362954648001153,42.338820483200152,-71.088207807244032,65.0,0.022271591080001922,4.2067294491573036e-06,1.6825725092472537e-05,3.4468001262265394e-06,6.4130657877241405e-06,1.0745792280044054e-05,1.945910149055313,0.0028650666573852845,-2.9070776266894662,0.0034633832855630103,2,4,2
1479248100,0.14858409963239883,42.338820126474907,-71.088202997440263,65.0,0.0024764016605399804,4.4031995668371963e-06,1.6825725092472537e-05,3.4468001262265394e-06,5.8346496626209276e-06,1.0944262795551395e-05,1.945910149055313,0.00293654606504453,-2.9072660195160309,0.0035113930163449794,2,4,2
1479248130,0.6508002294712039,42.338821760915813,-71.088206775053692,65.0,0.010846670491186731,3.3382952517322381e-06,1.4150517953102293e-05,4.3118871494211448e-06,8.0177928916866619e-06,1.2281313081081239e-05,1.7917594692280547,0.0030481491806750353,-2.9071547091178354,0.0035615248286446403,2,4,2
1479248160,1.0067964302026482,42.338821958499381,-71.088208132790569,65.0,0.01677994050337747,5.679071896896399e-06,1.5633428902862344e-05,9.0055750108806665e-07,4.583362938414887e-06,1.4264003777936905e-05,1.945910149055313,0.0030294077824295613,-2.9069043405622028,0.0035305399841463075,2,4,2
1479248190,1.0835504918991237,42.338818256346457,-71.088202149559891,65.0,0.018059174864985393,6.5178018698100341e-06,1.8412528390678995e-05,9.0055750108806665e-07,3.5819968230992204e-06,1.5005459252816929e-05,1.945910149055313,0.0030738682635647512,-2.9068879092930717,0.0035136399815445985,2,4,2
1479248220,1.469999763453973,42.338826719370957,-71.088208343389539,65.0,0.024499996057566215,4.9858713395933731e-06,1.8412528390678995e-05,4.9192618646515668e-06,6.3625285125219652e-06,1.3306784984901226e-05,1.7917594692280547,0.0030922270630532184,-2.9069701017311349,0.0035622561683621239,2,4,2
1479248250,1.7088475591404422,42.338825021435902,-71.088209052051681,65.0,0.028480792652340704,3.1153382280029793e-06,1.5122898916653723e-05,4.9192618646515668e-06,8.3452247951962707e-06,1.2100295469854356e-05,1.945910149055313,0.0030916678166447512,-2.9070351364807032,0.0035884038790175775,2,4,2
1479248280,0.08411209074523701,42.338818429395914,-71.088204974432159,65.0,0.0014018681790872835,2.6388034184397934e-06,1.4956418698157846e-05,6.6461617289359605e-06,1.000995834176213e-05,1.3145519862287585e-05,1.945910149055313,0.0030819398034899414,-2.9072949294319241,0.0035520047096429283,2,4,2
1479248310,4.160736947219238,42.338824625700624,-71.088210079729123,65.0,0.06934561578698731,5.2940990586575911e-06,1.6143130016103435e-05,3.2113617105378228e-06,4.7615610853746262e-06,1.4663376178242097e-05,1.7917594692280547,0.0030412415259422013,-2.9075314715046248,0.0035540689837274264,2,4,2
1479248340,1.2804964791476237,42.338821883526414,-71.088214746801043,65.0,0.021341607985793726,7.9352641589613501e-06,2.8388286719397671e-05,3.2113617105378228e-06,6.3293905971093049e-06,1.505306425501801e-05,1.945910149055313,0.003018809050039747,-2.9073543429554585,0.0035646705655319752,2,4,2
1479248370,2.813069297578934,42.338808272938032,-71.088207507180229,65.0,0.04688448829298223,7.4763517094547383e-06,2.8388286719397671e-05,2.498074460011451e-06,8.3758099495024531e-06,1.3943910664040306e-05,1.945910149055313,0.0030230608652380758,-2.9072872960281724,0.0035583905709558328,2,4,2
1479248400,1.7779248477806198,42.338812855152497,-71.088204652516922,65.0,0.029632080796343663,5.0475592571086723e-06,1.4325009854889073e-05,2.498074460011451e-06,4.086559124732622e-06,1.3751827390707858e-05,1.7917594692280547,0.0032357790480047051,-2.9083785365559316,0.0034594477304940806,2,4,2
1479248430,1.8135939802159862,42.338818363401792,-71.088203283624239,65.0,0.030226566336933103,5.0322706293334991e-06,1.4325009854889073e-05,2.2757736106644203e-06,3.51818575307796e-06,1.3660528153196495e-05,1.945910149055313,0.0034474077386269712,-2.9091165647314385,0.0033723173023741627,2,4,2
1479248460,0.9043085515051607,42.338793640601025,-71.088187953307369,65.0,0.015071809191752678,4.5294000203759969e-06,1.5928487940740202e-05,2.2757736106644203e-06,5.8778676450280998e-06,1.1756667332918553e-05,1.945910149055313,0.0034822477831265874,-2.909334512726987,0.0033738315593647016,2,4,2
1479248490,2.145785546290286,42.33880270965755,-71.088194015905628,65.0,0.03576309243817143,4.5453704203442922e-06,1.5928487940740202e-05,2.3065869665358411e-06,4.0939225329948452e-06,9.3501382518439993e-06,1.7917594692280547,0.0035224139587445233,-2.9100760744303518,0.0034225783345402348,2,4,2
1479248520,0.6876699661200494,42.338824786234646,-71.088210862245859,65.0,0.011461166102000823,4.2057500224555849e-06,1.4285211507065417e-05,2.3065869665358411e-06,4.0977775876489383e-06,1.0670138138654952e-05,1.945910149055313,0.0034628148985115215,-2.9098468379818692,0.0034323268518116541,2,4,2
1479248550,2.2698998711704186,42.3388157953407,-71.088207851725755,65.0,0.03783166451950697,4.4747119809678126e-06,1.6328560691658687e-05,3.3031484188913072e-06,6.0638376336898523e-06,1.3250146518246856e-05,1.945910149055313,0.0034385235561961631,-2.9097853795147119,0.0034008187631448536,2,4,2
1479248580,0.840595861237448,42.338817155185509,-71.088205780011023,65.0,0.014009931020624134,4.7529520024793472e-06,1.7532271026655973e-05,3.3031484188913072e-06,9.9716796107874324e-06,1.5735931468259736e-05,1.7917594692280547,0.00345356924918826,-2.9098764730493816,0.0034398710815241023,2,4,2
1479248610,0.6095747987426756,42.338823091540512,-71.088204744656906,65.0,0.010159579979044594,6.4442478771870274e-06,2.1991799890254415e-05,2.0419664188769578e-06,9.001950191218431e-06,1.7679058521693342e-05,1.945910149055313,0.0034378189464703557,-2.9098892240700285,0.003487633861239587,2,4,2
1479248640,0.33702547624575263,42.33882513924231,-71.088205041070978,65.0,0.005617091270762544,1.4635543733073775e-05,4.7394400648007155e-05,2.0419664188769578e-06,5.0821263227754421e-06,1.9908822953492563e-05,1.945910149055313,0.0034884061298016715,-2.9098303123398459,0.0035122748956058062,2,4,2
1479248670,1.3703904379358942,42.338833075252332,-71.088207443373065,65.0,0.022839840632264904,2.0997862360794277e-05,5.7733195600181273e-05,3.7185019409632229e-06,9.0425228842822414e-06,3.8836642850333694e-05,1.7917594692280547,0.0034882313155593183,-2.9098108398577351,0.0035141948613439064,2,4,2
1479248700,1.0915649166844954,42.33882812614722,-71.088208662429494,65.0,0.018192748611408256,1.6282717052138932e-05,5.7733195600181273e-05,7.7683600601761519e-06,9.8740124101359807e-06,1.5828616082094599e-05,1.945910149055313,0.003499857674588477,-2.9100215673565515,0.0034762364696009945,2,4,2
1479248730,2.1239006982577555,42.338811726774104,-71.088207918809005,65.0,0.03539834497096259,4.5434525854648492e-06,2.0029407343403217e-05,7.646906674264275e-06,9.3593052503419028e-06,1.7204868740623309e-05,1.945910149055313,0.0035420247435854787,-2.9099077593935214,0.0034809695753092325,2,4,2
