TIMESTAMP,DISTANCE,AVG_LAT,AVG_LNG,GPS_ACCURACY,AVG_SPEED_BY_GPS,ACCLERATOR_STD,MAX_ACCLERATOR,MIN_ACCLERATOR,PERCENTILE_25_ACCLERATOR,PERCENTILE_75_ACCLERATOR,ACCLERATOR_ENTROPY,AVG_ROLL,AVG_YAW,AVG_PITCH,WEEK_DAY,LABEL1,LABEL2
1479046560,3.4939415726558476,42.331586316907618,-71.109859147175314,10.0,0.058232359544264124,6.7760393220941799e-05,0.00020988263190353635,0.0,3.5148265981127466e-05,7.7064988443102547e-05,1.7917594692280547,0.020504339461641735,0.51046269721362536,0.0090187302708642034,0,0,6
1479046590,10.36454353329282,42.331599035572573,-71.109903233192028,10.0,0.17274239222154703,5.7799605137065091e-05,0.00020988263190353635,3.7691652488602667e-05,4.0776716679690383e-05,6.9372800708210089e-05,1.945910149055313,0.032334659869114817,0.6050312631492385,0.001105964928419516,0,0,6
1479046620,6.872875227076784,42.331612084100335,-71.109948610021831,10.0,0.11454792045127973,7.3618563525097976e-06,5.9221191423382931e-05,3.7691652488602667e-05,4.2048273408584443e-05,5.17577904779754e-05,1.7917594692280547,0.038421047660381707,0.59962813967673689,-0.013597968932140625,0,0,6
1479046650,0.0,42.331612575838655,-71.109950663588108,10.0,0.0,1.1045220966559678e-05,5.9221191423382931e-05,2.7264472062656995e-05,3.0605967025567589e-05,4.6818077401206956e-05,1.945910149055313,0.038036402170590268,0.60014816934425408,-0.014207348943523239,0,0,6
1479046680,0.0,42.331612575838655,-71.109950663588108,10.0,0.0,5.6906596369783113e-06,4.22865277275808e-05,2.7264472062656995e-05,2.9198564947873843e-05,3.9398391704537436e-05,1.945910149055313,0.037969428857176073,0.59999327084917642,-0.014393388029446745,0,0,6
1479046710,0.0,42.331612575838655,-71.109950663588108,10.0,0.0,8.35043706130898e-06,4.22865277275808e-05,1.9338333339359953e-05,2.4076778694259885e-05,3.7573742906314917e-05,1.7917594692280547,0.03798395493374556,0.59968089218739096,-0.014480061190503416,0,0,6
1479046740,0.0,42.331612575838655,-71.109950663588108,10.0,0.0,9.1021339874145153e-06,4.2618173392806221e-05,1.4274916414184974e-05,2.0863537474647711e-05,3.1777041151826268e-05,1.945910149055313,0.037963467202458516,0.59966351196802936,-0.014487845396713439,0,0,6
1479046770,0.0,42.331612575838655,-71.109950663588108,10.0,0.0,9.1046225488921062e-06,4.2618173392806221e-05,1.4274916414184974e-05,1.8506312684501709e-05,3.0144490305957003e-05,1.945910149055313,0.037934080913995458,0.59915871099160445,-0.014496469507578534,0,0,6
1479046800,0.0,42.331612575838655,-71.109950663588108,10.0,0.0,6.4285588933090557e-06,3.3152418345510201e-05,1.7732032107333379e-05,2.0608126037755201e-05,3.2466982179625998e-05,1.7917594692280547,0.037913698070320391,0.59891676122559667,-0.014543925011599406,0,0,6
1479046830,0.0,42.331612575838655,-71.109950663588108,10.0,0.0,6.7698920572849424e-06,3.5485152380670239e-05,1.653016562182171e-05,2.2758728861254813e-05,3.3051332476044545e-05,1.945910149055313,0.03797079190655623,0.59885013477476534,-0.0145627165470228,0,0,6
1479046860,0.0,42.331612575838655,-71.109950663588108,10.0,0.0,6.9849086477044599e-06,3.5485152380670239e-05,1.653016562182171e-05,1.9372503187623144e-05,3.0057511140454134e-05,1.945910149055313,0.038028138525875818,0.59840917012866979,-0.014532636301331321,0,0,6
1479046890,0.0,42.331612575838655,-71.109950663588108,10.0,0.0,8.1600848899988049e-06,3.7355741836392531e-05,1.6000419909206814e-05,1.8609522849885922e-05,3.2782922400286061e-05,1.7917594692280547,0.03798560700834136,0.5981064115484781,-0.014537864182507599,0,0,6
1479046920,0.0,42.331612575838655,-71.109950663588108,10.0,0.0,1.0078045673751579e-05,3.9850159039906495e-05,1.4972374432518304e-05,1.7398641178220515e-05,3.6119434940111675e-05,1.945910149055313,0.037991333791434101,0.5975224004480395,-0.014543028969063605,0,0,6
1479046950,0.0,42.331612575838655,-71.109950663588108,10.0,0.0,8.4608896704540814e-06,3.9850159039906495e-05,1.3407589281976018e-05,1.6884618439876258e-05,2.6610744811828841e-05,1.945910149055313,0.03803044216086103,0.59748563493049589,-0.01453009202367348,0,0,6
1479046980,0.0,42.331612575838655,-71.109950663588108,10.0,0.0,7.0513338940458949e-06,3.5339564106616204e-05,1.3407589281976018e-05,1.9720060933631243e-05,2.7702666238634537e-05,1.7917594692280547,0.038046753718622796,0.59789149175362466,-0.01458751274062195,0,0,6
1479047010,0.0,42.331612575838655,-71.109950663588108,10.0,0.0,1.0418283110892781e-05,4.4998564929945284e-05,1.2979733133561498e-05,1.7793498256759755e-05,3.0316507000917878e-05,1.945910149055313,0.03805038778686181,0.5980550604265692,-0.014621415260518944,0,0,6
1479047040,0.0,42.331612575838655,-71.109950663588108,10.0,0.0,1.1181144723393317e-05,4.4998564929945284e-05,1.2979733133561498e-05,1.6226638323105568e-05,3.435406735914918e-05,1.945910149055313,0.038049421138383388,0.59799983652246114,-0.014617320167761598,0,0,6
1479047070,0.0,42.331612575838655,-71.109950663588108,10.0,0.0,7.9403024862262882e-06,3.4723440957636398e-05,1.4921110954016125e-05,1.7543063329308887e-05,3.2595012997728716e-05,1.7917594692280547,0.038068468814980751,0.59806613498074546,-0.014590753466000734,0,0,6
1479047100,0.0,42.331612575838655,-71.109950663588108,10.0,0.0,4.5798794049340573e-06,3.0020505552274333e-05,1.5767111984082482e-05,2.3475064797594734e-05,2.8847436717496818e-05,1.945910149055313,0.038054716101672673,0.59838419882050065,-0.0145986955436983,0,0,6
1479047130,0.0,42.331612575838655,-71.109950663588108,10.0,0.0,6.0002615520310186e-06,3.0020505552274333e-05,1.1339193633918179e-05,2.3105739737348277e-05,2.8944275665775735e-05,1.945910149055313,0.038034229219755904,0.59818706951052125,-0.01459202310571538,0,0,6
1479047160,0.0,42.331612575838655,-71.109950663588108,10.0,0.0,7.052093469320511e-06,3.3050331441156866e-05,1.1339193633918179e-05,2.2699944858101445e-05,2.967842440574913e-05,1.7917594692280547,0.038015022928563673,0.59795107905570932,-0.014616621397119505,0,0,6
1479047190,0.0,42.331612575838655,-71.109950663588108,10.0,0.0,5.3184321001150107e-06,3.3050331441156866e-05,1.8820926137704622e-05,2.079330504743561e-05,3.0357551686471179e-05,1.945910149055313,0.03804276142922524,0.59801152099854316,-0.014610829120212833,0,0,6
1479047220,0.0,42.331612575838655,-71.109950663588108,10.0,0.0,5.5249085891376437e-06,3.4680438821616882e-05,1.8820926137704622e-05,2.0572703618809869e-05,2.7206616719678476e-05,1.945910149055313,0.038064320900789504,0.5978480051459043,-0.014551875034632547,0,0,6
1479047250,0.0,42.331612575838655,-71.109950663588108,10.0,0.0,5.3854249977058555e-06,3.4680438821616882e-05,1.87630895814373e-05,2.2184268978234705e-05,2.971621598073599e-05,1.7917594692280547,0.038044706493707448,0.59747997789311103,-0.014556242144175445,0,0,6
1479047280,0.0,42.331612575838655,-71.109950663588108,10.0,0.0,5.7958504035955019e-06,3.0224983353204732e-05,1.2372684881061261e-05,2.0717830569600562e-05,2.7758313451340138e-05,1.945910149055313,0.038097199504221642,0.59744329549641562,-0.014641002979252315,0,0,6
1479047310,0.0,42.331612575838655,-71.109950663588108,10.0,0.0,4.4994424144913549e-06,2.7326713039350514e-05,1.2372684881061261e-05,2.0648258355113883e-05,2.4362224816560504e-05,1.945910149055313,0.038115306564619929,0.59752930709821328,-0.014664800980005967,0,0,6
1479047340,0.0,42.331612575838655,-71.109950663588108,10.0,0.0,3.5572589967744885e-06,3.0738443054889857e-05,2.0123083393972036e-05,2.145032441316922e-05,2.4732489138323171e-05,1.7917594692280547,0.038083069014939068,0.59776605048041676,-0.014637102166300667,0,0,6
1479047370,0.0,42.331612575838655,-71.109950663588108,10.0,0.0,7.3031270507098213e-06,3.0738443054889857e-05,1.0138285333046582e-05,1.6349275407090734e-05,2.7405553575102681e-05,1.945910149055313,0.038094467493027952,0.59767891486564761,-0.014638743379238022,0,0,6
1479047400,0.0,42.331612575838655,-71.109950663588108,10.0,0.0,6.5409118268636914e-06,2.9281543801667128e-05,1.0138285333046582e-05,1.5462647512698233e-05,2.4693467346390302e-05,1.945910149055313,0.038116885163049341,0.59737211804134771,-0.014655478847787952,0,0,6
1479047430,0.0,42.331612575838655,-71.109950663588108,10.0,0.0,2.9990363957673966e-06,2.7357013784840954e-05,1.83480598801665e-05,1.9065015954072249e-05,2.1925319816454574e-05,1.7917594692280547,0.038117175820191126,0.59770486082881735,-0.01468239387903396,0,0,6
1479047460,0.0,42.331612575838655,-71.109950663588108,10.0,0.0,2.291016136096288e-06,2.2548077704996526e-05,1.5054399686972767e-05,1.9130726685907349e-05,2.1316732806626772e-05,1.945910149055313,0.038088194225060809,0.59755757201072179,-0.01471101097647573,0,0,6
1479047490,0.0,42.331612575838655,-71.109950663588108,10.0,0.0,4.4730843016210574e-06,2.7294864348649498e-05,1.4190617251023663e-05,1.5033800864321618e-05,2.1785013388125365e-05,1.945910149055313,0.038062238886397377,0.59689979340303989,-0.014704287094277275,0,0,6
1479047520,0.0,42.331612575838655,-71.109950663588108,10.0,0.0,6.213025379975745e-06,2.9340901359622435e-05,1.4190617251023663e-05,1.7409799327471175e-05,2.8120986843787492e-05,1.7917594692280547,0.038050056887856912,0.5961974109999385,-0.01465500391314205,0,0,6
1479047550,0.0,42.331612575838655,-71.109950663588108,10.0,0.0,5.1780018020532494e-06,3.4060223333402765e-05,1.8082728575999276e-05,2.4159704852318104e-05,3.1128744251296352e-05,1.945910149055313,0.038060845396760613,0.59563031853845083,-0.014612022412100235,0,0,6
1479047580,0.0,42.331612575838655,-71.109950663588108,10.0,0.0,6.2040251934831785e-06,3.4060223333402765e-05,1.6506065303252576e-05,2.0626450362980045e-05,2.8672763734313048e-05,1.945910149055313,0.038071360547333191,0.59567702939789269,-0.014594551732124797,0,0,6
1479047610,0.0,42.331612575838655,-71.109950663588108,10.0,0.0,4.8703236301947796e-06,3.0441665205787025e-05,1.6194025965595811e-05,1.7894221823282035e-05,2.4114248281732074e-05,1.7917594692280547,0.038061417947352877,0.59619929183211651,-0.014575556302119838,0,0,6
1479047640,0.0,42.331612575838655,-71.109950663588108,10.0,0.0,5.6229968165125774e-06,3.0441665205787025e-05,1.2077697028324636e-05,1.605442144692938e-05,2.2840205718979915e-05,1.945910149055313,0.038058866713080626,0.59650731033996662,-0.014554930455613275,0,0,6
1479047670,0.0,42.331612575838655,-71.109950663588108,10.0,0.0,4.1373917604042399e-06,2.3621720054589423e-05,1.2077697028324636e-05,1.4708446776462994e-05,2.1572725482314956e-05,1.945910149055313,0.0381054895438925,0.59640777829284597,-0.014562418989498352,0,0,6
1479047700,0.0,42.331612575838655,-71.109950663588108,10.0,0.0,3.3936661480658363e-06,2.3702952304207257e-05,1.3502076624663039e-05,1.6773164753617219e-05,2.1105244389075693e-05,1.7917594692280547,0.038125421909740352,0.59613107067031779,-0.014639563197744515,0,0,6
1479047730,0.0,42.331612575838655,-71.109950663588108,10.0,0.0,3.3905916894202855e-06,2.7117195229144921e-05,1.6989641570465827e-05,1.8342343864400592e-05,2.354366818954009e-05,1.945910149055313,0.038090969196743166,0.59652592865813969,-0.014667098633261716,0,0,6
1479047760,0.0,42.331612575838655,-71.109950663588108,10.0,0.0,4.1641074818176333e-06,3.0390822336429138e-05,1.6989641570465827e-05,2.0771967596333557e-05,2.5250789652008923e-05,1.945910149055313,0.03815174241817533,0.59669764636906564,-0.014648229589639839,0,0,6
1479047790,0.0,42.331612575838655,-71.109950663588108,10.0,0.0,3.4943652226423527e-06,3.0390822336429138e-05,1.9522452096441613e-05,2.2376399291375406e-05,2.6342649264978891e-05,1.7917594692280547,0.038182701357902839,0.59627545847670671,-0.014661898453502714,0,0,6
1479047820,0.0,42.331612575838655,-71.109950663588108,10.0,0.0,6.6665333602094047e-06,3.6900624604647601e-05,1.3272798784128947e-05,2.1192473502697442e-05,2.5826013506586183e-05,1.945910149055313,0.038160274644934176,0.59634632457008052,-0.014669295537439593,0,0,6
1479047850,0.0,42.331612575838655,-71.109950663588108,10.0,0.0,7.0007775624876772e-06,3.6900624604647601e-05,1.3272798784128947e-05,1.834850925093015e-05,2.4942306283219692e-05,1.945910149055313,0.038166761805031903,0.59626127655809236,-0.014657096155427941,0,0,6
1479047880,0.0,42.331612575838655,-71.109950663588108,10.0,0.0,2.9798409176001372e-06,2.5780518751443518e-05,1.7036981091106723e-05,2.231882939927929e-05,2.527972065721433e-05,1.7917594692280547,0.038137834697395602,0.59590836330090446,-0.014606147351172912,0,0,6
1479047910,0.0,42.331612575838655,-71.109950663588108,10.0,0.0,2.7098145917015647e-06,2.6470377989298592e-05,1.8347679530218203e-05,2.0954133627963478e-05,2.4676885232004431e-05,1.945910149055313,0.038073176957659716,0.59591241376128024,-0.014640844929449682,0,0,6
1479047940,0.0,42.331612575838655,-71.109950663588108,10.0,0.0,4.2792045919390375e-06,2.6470377989298592e-05,1.2908382676079392e-05,1.6121963856964064e-05,2.1168445486145441e-05,1.945910149055313,0.038093824303182922,0.59571617832657964,-0.014677929009851815,0,0,6
1479047970,0.0,42.331612575838655,-71.109950663588108,10.0,0.0,3.359092455441344e-06,2.2379614283356658e-05,1.2908382676079392e-05,1.4210488333797754e-05,1.9102789453486647e-05,1.7917594692280547,0.03817741726695472,0.59548646646346293,-0.014681265242525499,0,0,6
1479048000,0.0,42.331612575838655,-71.109950663588108,10.0,0.0,5.0811028330689806e-06,2.3597958672232616e-05,9.4439884973346905e-06,1.4424398043552084e-05,2.289259440108951e-05,1.945910149055313,0.038187025470847846,0.59563582664839188,-0.014631278261238547,0,0,6
1479048030,0.0,42.331612575838655,-71.109950663588108,10.0,0.0,5.1488681817651584e-06,2.3597958672232616e-05,9.4439884973346905e-06,1.4759435898307184e-05,2.3448089627388041e-05,1.945910149055313,0.038223606182790804,0.59564362817794148,-0.014634981717624276,0,0,6
1479048060,0.0,42.331612575838655,-71.109950663588108,10.0,0.0,2.805688914812086e-06,2.3490604735953723e-05,1.4832383414316423e-05,1.7318275238160642e-05,2.0613384406532444e-05,1.7917594692280547,0.038211542949029419,0.59567986214963675,-0.014654573430652316,0,0,6
1479048090,0.0,42.331612575838655,-71.109950663588108,10.0,0.0,2.3545810896217605e-06,2.26434541139661e-05,1.5113585853656201e-05,1.7322121222558211e-05,2.0149110499837589e-05,1.945910149055313,0.038234076678255971,0.59595193282484604,-0.014584408137795031,0,0,6
1479048120,0.0,42.331612575838655,-71.109950663588108,10.0,0.0,5.0570553284356561e-06,3.1404205056414326e-05,1.5113585853656201e-05,1.8382323153107088e-05,2.4287195322901556e-05,1.945910149055313,0.038246065465581049,0.59625100606012893,-0.014582836745022273,0,0,6
1479048150,0.0,42.331612575838655,-71.109950663588108,10.0,0.0,5.3131683721207202e-06,3.1404205056414326e-05,1.3779797891082257e-05,2.1596037573738921e-05,2.5517733233127172e-05,1.7917594692280547,0.038255772787588412,0.59614458575560969,-0.014610850811418455,0,0,6
1479048180,0.0,42.331612575838655,-71.109950663588108,10.0,0.0,3.6540415429040906e-06,2.4659936054115264e-05,1.3779797891082257e-05,1.8471565443619085e-05,2.3797734896482084e-05,1.945910149055313,0.038270402404483671,0.59598626212717132,-0.014613614277462153,0,0,6
1479048210,0.0,42.331612575838655,-71.109950663588108,10.0,0.0,3.194198720917409e-06,2.6952075424727786e-05,1.8272458985311489e-05,1.8471565443619085e-05,2.2410685592944128e-05,1.945910149055313,0.038247128281517676,0.59650631476252858,-0.014610078096508609,0,0,6
1479048240,0.0,42.331612575838655,-71.109950663588108,10.0,0.0,3.7622664346837322e-06,2.6952075424727786e-05,1.5753322266565647e-05,1.8744703021926866e-05,2.3529951775631864e-05,1.7917594692280547,0.038246041637747259,0.59687486585436667,-0.014634289713752524,0,0,6
1479048270,0.0,42.331612575838655,-71.109950663588108,10.0,0.0,4.4919254694656573e-06,2.7445922805726103e-05,1.3644615201086614e-05,1.7572487933302419e-05,2.3694079439833245e-05,1.945910149055313,0.038257298567976099,0.59693746817495452,-0.014656262422212647,0,0,6
1479048300,0.0,42.331612575838655,-71.109950663588108,10.0,0.0,4.1793234239145397e-06,2.7445922805726103e-05,1.3644615201086614e-05,1.687708991220857e-05,2.1072378716667304e-05,1.945910149055313,0.038281579929727645,0.59707777663226713,-0.014628515883952762,0,0,6
1479048330,0.0,42.331612575838655,-71.109950663588108,10.0,0.0,2.584807080752347e-06,1.8830979575875518e-05,1.1727865355630145e-05,1.3301327561218774e-05,1.6993618835396749e-05,1.7917594692280547,0.038243264097639694,0.59667775561605674,-0.01460557051700557,0,0,6
1479048360,0.0,42.331612575838655,-71.109950663588108,10.0,0.0,7.761594507482957e-06,3.225483480236695e-05,1.1617789599312879e-05,1.2015080363044345e-05,2.5597509511433599e-05,1.945910149055313,0.038254607329752451,0.59601981643808499,-0.014583743229042536,0,0,6
1479048390,0.0,42.331612575838655,-71.109950663588108,10.0,0.0,7.1938153432101547e-06,3.225483480236695e-05,1.1617789599312879e-05,1.6227330697829247e-05,2.6719238524974538e-05,1.945910149055313,0.038263497006459091,0.59581627045424157,-0.014561929388760648,0,0,6
1479048420,0.0,42.331612575838655,-71.109950663588108,10.0,0.0,6.360916094875e-06,3.2472927661057783e-05,1.2591126401153886e-05,1.9214799713461721e-05,2.6489189784191644e-05,1.7917594692280547,0.038259774746574791,0.59554446197673172,-0.0145663362958757,0,0,6
1479048450,0.0,42.331612575838655,-71.109950663588108,10.0,0.0,7.4066603433849532e-06,3.2472927661057783e-05,1.209783368878035e-05,1.4001199563815211e-05,2.6198985070680214e-05,1.945910149055313,0.038316116357438791,0.59510788713278784,-0.014524681599459391,0,0,6
1479048480,0.0,42.331612575838655,-71.109950663588108,10.0,0.0,5.5477627492636423e-06,2.8939982322029355e-05,1.209783368878035e-05,1.2654782591551958e-05,1.800829213460002e-05,1.945910149055313,0.038333563090274067,0.59490538824335937,-0.014520807328270647,0,0,6
1479048510,0.0,42.331612575838655,-71.109950663588108,10.0,0.0,4.6791495296280099e-06,2.7569267625802836e-05,1.2609959930635913e-05,1.5923526357509265e-05,1.9626928660554907e-05,1.7917594692280547,0.038320700406193432,0.5948635934316916,-0.014535926056048911,0,0,6
1479048540,0.0,42.331612575838655,-71.109950663588108,10.0,0.0,8.6781054225635661e-06,3.9580568759104223e-05,1.276579544076826e-05,1.5496910731905535e-05,2.3337837037353492e-05,1.945910149055313,0.038365667857321116,0.59483095557466625,-0.014494882002150909,0,0,6
1479048570,0.0,42.331612575838655,-71.109950663588108,10.0,0.0,9.087393880997462e-06,3.9580568759104223e-05,9.404015475271189e-06,1.3966815581410414e-05,1.755935008711104e-05,1.945910149055313,0.03843007762164713,0.59468669400714025,-0.014487896023591058,0,0,6
1479048600,0.0,42.331612575838655,-71.109950663588108,10.0,0.0,4.9698242621156102e-06,2.5794629761497461e-05,9.404015475271189e-06,1.4048481469754898e-05,1.7186216687541639e-05,1.7917594692280547,0.038408989765908362,0.59476076583463156,-0.01452847984429634,0,0,6
1479048630,0.0,42.331612575838655,-71.109950663588108,10.0,0.0,8.6080510875973089e-06,4.0849966047637876e-05,1.3229355151468252e-05,1.7325853535967166e-05,2.6183439406700746e-05,1.945910149055313,0.038395974591895345,0.59480170341194705,-0.014542584405626136,0,0,6
1479048660,0.0,42.331612575838655,-71.109950663588108,10.0,0.0,7.4844456305340327e-06,4.0849966047637876e-05,1.7317224937568643e-05,1.9189026559907538e-05,2.7426587728370493e-05,1.945910149055313,0.038370927267160883,0.59450176481414718,-0.014531798436444568,0,0,6
1479048690,0.0,42.331612575838655,-71.109950663588108,10.0,0.0,3.3286632444313787e-06,2.8280926404836961e-05,1.9839637072734082e-05,2.2287372051586071e-05,2.762481048310223e-05,1.7917594692280547,0.038312211060947864,0.59369605540655745,-0.014528619954441289,0,0,6
1479048720,0.0,42.331612575838655,-71.109950663588108,10.0,0.0,4.2344168818661049e-06,2.8000630770905278e-05,1.6939143666187638e-05,1.9847196031364638e-05,2.7446093904975942e-05,1.945910149055313,0.038408764591564185,0.59342529060572236,-0.014518524315857461,0,0,6
1479048750,0.0,42.331612575838655,-71.109950663588108,10.0,0.0,4.8743489350708842e-06,2.8000630770905278e-05,1.25795084675346e-05,1.5382806383128033e-05,2.1289791484574619e-05,1.945910149055313,0.038447363311145503,0.59394173541135875,-0.014510562805332482,0,0,6
1479048780,0.0,42.331612575838655,-71.109950663588108,10.0,0.0,3.2614700097497254e-06,2.2377186747234619e-05,1.25795084675346e-05,1.3957537603616189e-05,1.7689047763941581e-05,1.7917594692280547,0.038380563256727639,0.59454327434418286,-0.014459001578651189,0,0,6
1479048810,0.0,42.331612575838655,-71.109950663588108,10.0,0.0,4.5515262296304023e-06,2.8992191309763376e-05,1.4350743114259461e-05,1.7344999572298175e-05,2.2313796263178706e-05,1.945910149055313,0.038389364235546508,0.59477714775452994,-0.014400835851837407,0,0,6
1479048840,0.0,42.331612575838655,-71.109950663588108,10.0,0.0,4.6673905025689707e-06,2.8992191309763376e-05,1.2949492924628294e-05,1.9876117021628638e-05,2.438829580686768e-05,1.945910149055313,0.038414043202902627,0.5948266926804413,-0.014407347147319718,0,0,6
1479048870,0.0,42.331612575838655,-71.109950663588108,10.0,0.0,4.4786136560269214e-06,2.6285666291345146e-05,1.2949492924628294e-05,1.774940016939758e-05,2.3724726155347765e-05,1.7917594692280547,0.038475701817230777,0.59482651608008597,-0.014449749404400811,0,0,6
1479048900,0.0,42.331612575838655,-71.109950663588108,10.0,0.0,4.9796839944030616e-06,2.6285666291345146e-05,8.7824084941942048e-06,1.4852983666823237e-05,1.8507984562975413e-05,1.945910149055313,0.038456211189467564,0.59529733679931529,-0.014481058479965102,0,0,6
1479048930,0.0,42.331612575838655,-71.109950663588108,10.0,0.0,5.347429448609557e-06,2.6201024482359034e-05,8.7824084941942048e-06,1.4852983666823237e-05,2.120441874256983e-05,1.945910149055313,0.038460968080475839,0.59543445654785265,-0.014479156170467479,0,0,6
1479048960,0.0,42.331612575838655,-71.109950663588108,10.0,0.0,4.6489949122378367e-06,2.6201024482359034e-05,1.2423578320921365e-05,2.0450796538451573e-05,2.5086490417938732e-05,1.7917594692280547,0.03852822582623891,0.59528197035768793,-0.014506827765589952,0,0,6
1479048990,0.0,42.331612575838655,-71.109950663588108,10.0,0.0,4.4904084213054733e-06,2.5752464849443816e-05,1.2423578320921365e-05,1.5576366143425103e-05,2.276237631742281e-05,1.945910149055313,0.038500354581410205,0.59506331668061396,-0.014462257115011704,0,0,6
1479049020,0.0,42.331612575838655,-71.109950663588108,10.0,0.0,5.7356559185019724e-06,3.2668071334252585e-05,1.5098848138026035e-05,1.6436103253975031e-05,2.3435357890392034e-05,1.945910149055313,0.038560151742463099,0.595155757107659,-0.01442058348805289,0,0,6
1479049050,0.0,42.331612575838655,-71.109950663588108,10.0,0.0,7.254528592168386e-06,3.6890060355493092e-05,1.6818322359125888e-05,1.9894611821763882e-05,3.1737420700304744e-05,1.7917594692280547,0.038604765669604364,0.59543102309752882,-0.01446903801378051,0,0,6
1479049080,0.0,42.331612575838655,-71.109950663588108,10.0,0.0,7.5876820927803724e-06,3.6890060355493092e-05,1.2258261228701812e-05,1.7791586265953657e-05,2.5959174284469425e-05,1.945910149055313,0.038571576323986792,0.59526863306185096,-0.014424784735395014,0,0,6
1479049110,0.0,42.331612575838655,-71.109950663588108,10.0,0.0,4.050214844150327e-06,2.3614928136957062e-05,1.2258261228701812e-05,1.5821963394314529e-05,2.2239236075748544e-05,1.945910149055313,0.038574132430964067,0.5955220626368346,-0.014402022037555463,0,0,6
1479049140,0.0,42.331612575838655,-71.109950663588108,10.0,0.0,3.0929528450741986e-06,2.3614928136957062e-05,1.4442059929286278e-05,1.8039711156378497e-05,2.2064729701776346e-05,1.7917594692280547,0.038529853966190582,0.59571277102143216,-0.01446825955992615,0,0,6
1479049170,0.0,42.331612575838655,-71.109950663588108,10.0,0.0,3.2372709425655306e-06,2.3653293341797544e-05,1.4432687241140188e-05,1.5996453959190985e-05,2.0917533391258628e-05,1.945910149055313,0.038561907029800856,0.59564637367284734,-0.014449756288901152,0,0,6
1479049200,0.0,42.331612575838655,-71.109950663588108,10.0,0.0,5.4962512108692388e-06,2.779602737032581e-05,1.4251700771351557e-05,1.4777454577826818e-05,2.4991074014077153e-05,1.945910149055313,0.038617987615165564,0.59557645702563966,-0.01442601150845069,0,0,6
1479049230,0.0,42.331612575838655,-71.109950663588108,10.0,0.0,6.1742091732587358e-06,2.779602737032581e-05,1.1811753057815442e-05,1.4357606988703508e-05,2.3894428342449962e-05,1.7917594692280547,0.038662770600598716,0.5955266005896328,-0.01438617928355819,0,0,6
1479049260,0.0,42.331612575838655,-71.109950663588108,10.0,0.0,9.3599937404349869e-06,4.0955758864743481e-05,1.1811753057815442e-05,1.3516778488764442e-05,1.8673849093910886e-05,1.945910149055313,0.038680341299922545,0.59552175320236322,-0.014387427375049052,0,0,6
1479049290,0.0,42.331612575838655,-71.109950663588108,10.0,0.0,9.5358180482379575e-06,4.0955758864743481e-05,9.8085491219171554e-06,1.3957140398062847e-05,2.1027046589436573e-05,1.945910149055313,0.038661473167384761,0.59544084821815957,-0.014399279164730326,0,0,6
1479049320,0.0,42.331612575838655,-71.109950663588108,10.0,0.0,3.8448147519318835e-06,2.1297544301780913e-05,9.8085491219171554e-06,1.5542218497407048e-05,1.9866453149463017e-05,1.7917594692280547,0.038680243992635352,0.59594922094311198,-0.014429843268214343,0,0,6
1479049350,0.0,42.331612575838655,-71.109950663588108,10.0,0.0,5.9804625440075397e-06,3.4221601143774377e-05,1.4606953631322442e-05,1.7358596650791232e-05,1.998106783345341e-05,1.945910149055313,0.038733295310437295,0.59607700814407572,-0.014459727565271033,0,0,6
1479049380,0.0,42.331612575838655,-71.109950663588108,10.0,0.0,5.9943762806396201e-06,3.4221601143774377e-05,1.4606953631322442e-05,1.7505723600371597e-05,2.1081895002529483e-05,1.945910149055313,0.038708335085035142,0.59550693417155021,-0.014420458984534939,0,0,6
1479049410,0.0,42.331612575838655,-71.109950663588108,10.0,0.0,3.0698945001836223e-06,2.4056445356161165e-05,1.559160251567168e-05,1.6880345199088106e-05,2.1816329874427662e-05,1.7917594692280547,0.038640281787953736,0.59500653871269671,-0.014466072276119901,0,0,6
1479049440,0.0,42.331612575838655,-71.109950663588108,10.0,0.0,4.0546473900950806e-06,2.4056445356161165e-05,1.0609100805595968e-05,1.670777205446455e-05,2.0950577402690487e-05,1.945910149055313,0.03864669022798585,0.59532052467263363,-0.014461959467062756,0,0,6
1479049470,0.0,42.331612575838655,-71.109950663588108,10.0,0.0,3.2193148997145682e-06,2.1527025795153701e-05,1.0609100805595968e-05,1.6188705848588547e-05,1.863971413597802e-05,1.945910149055313,0.038706409062389098,0.59579494414704748,-0.014430048345406139,0,0,6
1479049500,0.0,42.331612575838655,-71.109950663588108,10.0,0.0,2.5443556825696065e-06,2.1906475132104332e-05,1.5375807350321994e-05,1.6071659754433617e-05,2.0168539997239077e-05,1.7917594692280547,0.038784986870967673,0.59576491416047528,-0.01438597842016528,0,0,6
1479049530,0.0,42.331612575838655,-71.109950663588108,10.0,0.0,3.0643051381968541e-06,2.6467770832135442e-05,1.5761678223626454e-05,1.9298746932432921e-05,2.1536733482765836e-05,1.945910149055313,0.038748834275372047,0.59564204988887137,-0.014336251022661861,0,0,6
1479049560,0.0,42.331612575838655,-71.109950663588108,10.0,0.0,2.4317613422679202e-06,2.6467770832135442e-05,1.8223972604255158e-05,1.971560287410987e-05,2.0878639236294396e-05,1.945910149055313,0.03872082936892951,0.59556609901709567,-0.014350743349232867,0,0,6
1479049590,0.0,42.331612575838655,-71.109950663588108,10.0,0.0,2.4886249654861508e-06,2.3655667481164266e-05,1.5162111131091324e-05,1.963849708179849e-05,2.0453405224991924e-05,1.7917594692280547,0.03873567286125746,0.59519707757689821,-0.014346380212960837,0,0,6
1479049620,0.0,42.331612575838655,-71.109950663588108,10.0,0.0,9.1761844392966499e-06,4.3397746870342283e-05,1.4545642404576934e-05,1.7508834665201781e-05,2.758015321876147e-05,1.945910149055313,0.038615074139430397,0.59509783445983355,-0.014358517859141893,0,0,6
1479049650,0.0,42.331612575838655,-71.109950663588108,10.0,0.0,1.4316939040921424e-05,6.2033787076495959e-05,1.4545642404576934e-05,2.758015321876147e-05,4.420938132989966e-05,1.945910149055313,0.038442854269614961,0.59309531810116056,-0.014412410983034826,0,0,6
1479049680,0.0,42.331612575838655,-71.109950663588108,10.0,0.0,1.4644561651475231e-05,6.2033787076495959e-05,1.5488164379026122e-05,2.9219435099792955e-05,4.4052595210249406e-05,1.7917594692280547,0.03836762001993841,0.58931129772495716,-0.014394033894115107,0,0,6
1479049710,0.0,42.331612575838655,-71.109950663588108,10.0,0.0,7.272405209720314e-06,2.9755560018810637e-05,9.7469944693232974e-06,1.3927897575877559e-05,2.3299261803249508e-05,1.945910149055313,0.038589163825601971,0.59016478018035101,-0.014274920392074661,0,0,6
1479049740,0.0,42.331612575838655,-71.109950663588108,10.0,0.0,4.5996241835366192e-06,2.2146609993123627e-05,8.544748124717244e-06,9.8414546232791871e-06,1.6593481325290597e-05,1.945910149055313,0.038665908980487225,0.59210329030531972,-0.014237715617199605,0,0,6
1479049770,0.0,42.331612575838655,-71.109950663588108,10.0,0.0,7.0413072414146804e-06,2.6438985214727885e-05,8.388707913753518e-06,8.892539787846703e-06,1.9797090176255759e-05,1.7917594692280547,0.038589955801430216,0.59310359831685411,-0.014242142964602042,0,0,6
1479049800,0.0,42.331612575838655,-71.109950663588108,10.0,0.0,6.4318054230635629e-06,2.6438985214727885e-05,8.388707913753518e-06,1.2319815414098133e-05,2.3038576939169824e-05,1.945910149055313,0.038611022183454642,0.59372246789716976,-0.014277887346824154,0,0,6
1479049830,0.0,42.331612575838655,-71.109950663588108,10.0,0.0,4.0543646215481938e-06,2.5393321587180465e-05,1.1891100102544118e-05,1.5187710029590402e-05,1.930699601698201e-05,1.945910149055313,0.038634551575097306,0.59414049982584183,-0.014331286192728328,0,0,6
1479049860,0.0,42.331612575838655,-71.109950663588108,10.0,0.0,2.1777763904181444e-06,1.9275143735108398e-05,1.2713806536186436e-05,1.4690948485154895e-05,1.732524602614311e-05,1.7917594692280547,0.038602546899597308,0.5940140728687191,-0.014380515326853449,0,0,6
1479049890,0.0,42.331612575838655,-71.109950663588108,10.0,0.0,3.7043450339035225e-06,1.9934877750096489e-05,9.5504381735812183e-06,1.3673383061026004e-05,1.9594646718456886e-05,1.945910149055313,0.038603250172963087,0.59372114756135053,-0.01435062035469334,0,0,6
1479049920,0.0,42.331612575838655,-71.109950663588108,10.0,0.0,4.6434970471623505e-06,2.1022169615465427e-05,8.8918169861980335e-06,1.2501532338072392e-05,1.992451372595093e-05,1.945910149055313,0.038642429882267182,0.59378528264766628,-0.014322554679382985,0,0,6
1479049950,0.0,42.331612575838655,-71.109950663588108,10.0,0.0,3.7459600591731859e-06,2.1022169615465427e-05,8.8918169861980335e-06,1.5283140453990028e-05,1.7737241052636517e-05,1.7917594692280547,0.038671558067104844,0.59381508380218684,-0.014306610661310218,0,0,6
1479049980,0.0,42.331612575838655,-71.109950663588108,10.0,0.0,2.9324634326852744e-06,2.3481899323597537e-05,1.4680968331049259e-05,1.6342983301197478e-05,2.0253631867894241e-05,1.945910149055313,0.038720551857081446,0.5945484109526934,-0.014290315630507755,0,0,6
1479050010,0.0,42.331612575838655,-71.109950663588108,10.0,0.0,3.9170562576862527e-06,2.632417174292087e-05,1.5596309779582633e-05,1.5968953792144854e-05,2.255082396976769e-05,1.945910149055313,0.038729392191039269,0.59483468379456483,-0.014316532923794619,0,0,6
1479050040,0.0,42.331612575838655,-71.109950663588108,10.0,0.0,4.9339918072677235e-06,2.912720439901372e-05,1.5657476817719642e-05,1.7153200742098755e-05,2.5244815901841434e-05,1.7917594692280547,0.038695249279208213,0.59428579540955229,-0.014295533469018957,0,0,6
1479050070,0.0,42.331612575838655,-71.109950663588108,10.0,0.0,3.7537551609647014e-05,0.00012594915736775531,9.4437790658926532e-06,1.9137215002033467e-05,2.5566976388808427e-05,1.945910149055313,0.028983911517201366,0.58340287753532016,0.0072525079823810238,0,0,6
1479050100,0.0,42.331612575838655,-71.109950663588108,10.0,0.0,3.7521521050164931e-05,0.00012594915736775531,9.4437790658926532e-06,1.8704340902332007e-05,2.6794591126676255e-05,1.945910149055313,0.021633276918252172,0.57578691748278621,0.022176967311469526,0,0,6
1479050130,0.0,42.331612575838655,-71.109950663588108,10.0,0.0,6.8412234245906175e-06,3.0078206714231458e-05,8.9053611243952022e-06,1.9250209987435464e-05,2.6500360479547983e-05,1.7917594692280547,0.021631794103321885,0.57591895716916042,0.020651227867957516,0,0,6
1479050160,0.0,42.331612575838655,-71.109950663588108,10.0,0.0,5.9993639325120235e-06,2.7496822126356961e-05,8.9053611243952022e-06,1.3443550675949318e-05,2.0348462226021072e-05,1.945910149055313,0.02192842038270873,0.57594093614313058,0.02089027100263419,0,0,6
1479050190,0.0,42.331612575838655,-71.109950663588108,10.0,0.0,3.3419511786637436e-06,2.1196302500721878e-05,9.8077099085799356e-06,1.5982956754004429e-05,1.8792845869731984e-05,1.945910149055313,0.022174444916354102,0.57663822079004856,0.021010858842359613,0,0,6
1479050220,0.0,42.331612575838655,-71.109950663588108,10.0,0.0,8.4387743894641823e-06,4.0368753136563101e-05,1.5959842601894322e-05,1.6468314099926511e-05,2.1912178854744054e-05,1.7917594692280547,0.022324873906480552,0.57702038886515716,0.020949377894569313,0,0,6
1479050250,0.0,42.331612575838655,-71.109950663588108,10.0,0.0,9.8853925772469973e-06,4.0368753136563101e-05,8.4604163474979855e-06,1.7665704895019783e-05,2.7713814486463758e-05,1.945910149055313,0.022602268055691606,0.57668584234652331,0.021140905800823957,0,0,6
1479050280,0.0,42.331612575838655,-71.109950663588108,10.0,0.0,9.0625950078415447e-06,3.3276824666842732e-05,8.4604163474979855e-06,1.411063383583306e-05,2.8725596964538451e-05,1.945910149055313,0.022848874132105484,0.57662787991238074,0.021179443451064296,0,0,6
1479050310,0.0,42.331612575838655,-71.109950663588108,10.0,0.0,8.286751202666508e-06,3.255989169215185e-05,1.0744901562988972e-05,1.110878375206398e-05,2.234364976392211e-05,1.7917594692280547,0.022952600978601106,0.57679379391658803,0.020927283855684722,0,0,6
1479050340,0.0,42.331612575838655,-71.109950663588108,10.0,0.0,4.0467846462684344e-06,2.0514809160531077e-05,1.0125609824725365e-05,1.1284110238127792e-05,1.7379082431413059e-05,1.945910149055313,0.023067338623005675,0.57666246449818259,0.020819531579969623,0,0,6
1479050370,0.0,42.331612575838655,-71.109950663588108,10.0,0.0,6.1866698780302965e-06,2.1838155749888501e-05,3.7241248916016291e-06,1.0888336855502149e-05,2.0286140839221953e-05,1.945910149055313,0.023004067039081637,0.57620056285590382,0.020809974287036185,0,0,6
1479050400,0.0,42.331612575838655,-71.109950663588108,10.0,0.0,7.0964425799247685e-06,2.6119669083551264e-05,3.7241248916016291e-06,1.3215702050590146e-05,2.0566544043830469e-05,1.7917594692280547,0.023739786034407382,0.57606569450128964,0.020559006008616612,0,0,6
1479050430,0.0,42.331612575838655,-71.109950663588108,10.0,0.0,7.1020760476064233e-06,3.0552300344005852e-05,1.085747430218805e-05,1.2103883602652075e-05,2.1196102500573775e-05,1.945910149055313,0.024758881006933697,0.57587655082715694,0.020157645927628996,0,0,6
1479050460,0.0,42.331612575838655,-71.109950663588108,10.0,0.0,6.4648663373247566e-06,3.0552300344005852e-05,1.085747430218805e-05,1.1866824536121898e-05,1.9412998720404215e-05,1.945910149055313,0.024873658078059472,0.57541997717476512,0.020032359912807222,0,0,6
1479050490,0.0,42.331612575838655,-71.109950663588108,10.0,0.0,6.3480906838295201e-06,2.6569130024570754e-05,7.50698479122996e-06,1.1908253070615247e-05,2.0125492853164077e-05,1.7917594692280547,0.025049874098773867,0.57498437366797239,0.020157695966617244,0,0,6
1479050520,0.0,42.331612575838655,-71.109950663588108,10.0,0.0,7.1355745844288325e-06,2.7324421785410175e-05,7.50698479122996e-06,1.3475205461004698e-05,2.5252980065459325e-05,1.945910149055313,0.027015338735758315,0.57535064722811902,0.020947382163731789,0,0,6
1479050550,0.0,42.331612575838655,-71.109950663588108,10.0,0.0,5.7577700817406934e-06,3.1195338593246874e-05,1.4485316525131654e-05,1.676460788766542e-05,2.5630625945879036e-05,1.945910149055313,0.028827334849397684,0.57591160545410425,0.021655611516623489,0,0,6
1479050580,0.0,42.331612575838655,-71.109950663588108,10.0,0.0,5.439000904081066e-06,3.1195338593246874e-05,1.5301272182218866e-05,1.7134340702486394e-05,2.2302041450583266e-05,1.7917594692280547,0.029371278336009762,0.57646037108694415,0.021378930506767761,0,0,6
1479050610,0.0,42.331612575838655,-71.109950663588108,10.0,0.0,5.2464727159943031e-06,2.8674159766477537e-05,1.2533151732798533e-05,1.7277625374087426e-05,2.4896473745235966e-05,1.945910149055313,0.029486618397504005,0.5771283341847766,0.019993452674676813,0,0,6
1479050640,0.0,42.331612575838655,-71.109950663588108,10.0,0.0,6.597022514453132e-06,2.8674159766477537e-05,1.0976142459762328e-05,1.2380003738353301e-05,2.4022078783213827e-05,1.945910149055313,0.029670009314928782,0.57709741910436496,0.019408281224871742,0,0,6
1479050670,0.0,42.331612575838655,-71.109950663588108,10.0,0.0,9.9929365784949451e-06,3.9918549201824595e-05,1.0976142459762328e-05,1.2252221756551775e-05,2.0893916256382765e-05,1.7917594692280547,0.030198481605016102,0.57610396646329698,0.02073452454578216,0,0,6
1479050700,0.0,42.331612575838655,-71.109950663588108,10.0,0.0,9.4658124217596811e-06,3.9918549201824595e-05,8.3986382612712514e-06,1.3322241132529555e-05,2.0756651460069581e-05,1.945910149055313,0.055371506922627392,0.723304984820339,-0.064245046216304627,0,0,6
1479050730,0.0,42.331612575838655,-71.109950663588108,10.0,0.0,3.8868116216579535e-06,1.9848417702901161e-05,8.3986382612712514e-06,1.1406354649493911e-05,1.6444310741735539e-05,1.945910149055313,0.073925450326563086,0.83466115273145347,-0.1290444209483354,0,0,6
1479050760,0.0,42.331612575838655,-71.109950663588108,10.0,0.0,3.5177462056416249e-06,1.9887738311094202e-05,8.8216610615189651e-06,1.440146732637735e-05,1.7726337619202455e-05,1.7917594692280547,0.074016670382691122,0.83541405595977325,-0.12919728936113503,0,0,6
1479050790,0.0,42.331612575838655,-71.109950663588108,10.0,0.0,3.256076923616905e-06,2.0862101933726702e-05,1.1502062991861804e-05,1.4313815958509506e-05,1.9099348157147332e-05,1.945910149055313,0.074083333300587056,0.83590701085061458,-0.12927213569256565,0,0,6
1479050820,0.0,42.331612575838655,-71.109950663588108,10.0,0.0,4.2684148519350764e-06,2.5024188677779644e-05,1.1502062991861804e-05,1.4933111225595883e-05,1.9316048306584755e-05,1.945910149055313,0.074106374192744781,0.83623627170719583,-0.12926782144159346,0,0,6
1479050850,0.0,42.331612575838655,-71.109950663588108,10.0,0.0,3.515927737654647e-06,2.5024188677779644e-05,1.4120987755720932e-05,1.5522029877337219e-05,1.7735886244434839e-05,1.7917594692280547,0.074127448006933813,0.83638683505514189,-0.12931417871424147,0,0,6
1479050880,0.0,42.331612575838655,-71.109950663588108,10.0,0.0,3.8694893958924048e-06,2.5358292836751186e-05,1.4120987755720932e-05,1.6085462185147219e-05,2.1504181699883098e-05,1.945910149055313,0.074121771220836991,0.83661825877822982,-0.12944191452259199,0,0,6
1479050910,0.0,42.331612575838655,-71.109950663588108,10.0,0.0,4.1508705389758523e-06,2.7291772602597543e-05,1.4283343502565444e-05,1.9016510582336558e-05,2.4455476362962547e-05,1.945910149055313,0.074135786833128187,0.83657812926525155,-0.12941563546132545,0,0,6
1479050940,0.0,42.331612575838655,-71.109950663588108,10.0,0.0,4.3813491756824011e-06,2.7291772602597543e-05,1.4283343502565444e-05,1.7043134309157877e-05,2.2799436293015692e-05,1.7917594692280547,0.074160917706835736,0.83627985604966659,-0.12934186888520502,0,0,6
1479050970,0.0,42.331612575838655,-71.109950663588108,10.0,0.0,3.2657053572112062e-06,2.6357517554364432e-05,1.6260653374596228e-05,1.8948483029245923e-05,2.360276272514248e-05,1.945910149055313,0.074205224286314417,0.83617454594513707,-0.12941604784455829,0,0,6
1479051000,0.0,42.331612575838655,-71.109950663588108,10.0,0.0,2.7166431705788785e-06,2.6357517554364432e-05,1.8282083230073131e-05,2.0115858938487677e-05,2.4227032284090501e-05,1.945910149055313,0.074214136802489936,0.83612282681922412,-0.12943945144100349,0,0,6
1479051030,0.0,42.331612575838655,-71.109950663588108,10.0,0.0,2.1351668776519697e-06,2.5644652467718594e-05,2.0022453559732018e-05,2.1167220037149839e-05,2.4656929605631573e-05,1.7917594692280547,0.074258843684109191,0.83686146831069597,-0.12940128980468971,0,0,6
1479051060,0.0,42.331612575838655,-71.109950663588108,10.0,0.0,3.5748098752684154e-06,2.5644652467718594e-05,1.6236784429400012e-05,1.7087298445687276e-05,2.3703679517878055e-05,1.945910149055313,0.074313825965434746,0.83761471278349375,-0.12939133378588735,0,0,6
1479051090,0.0,42.331612575838655,-71.109950663588108,10.0,0.0,4.1632073551821052e-06,2.8631492412887054e-05,1.6236784429400012e-05,1.7087298445687276e-05,2.3034275242171852e-05,1.945910149055313,0.074302702100234749,0.83764387637837034,-0.12941859302435549,0,0,6
1479051120,0.0,42.331612575838655,-71.109950663588108,10.0,0.0,5.4686376895790896e-06,3.4215482248678819e-05,1.9012439661219693e-05,2.0147622627452253e-05,2.7088936107381561e-05,1.7917594692280547,0.074309215267747322,0.83782575596307052,-0.12943764909075725,0,0,6
1479051150,0.0,42.331612575838655,-71.109950663588108,10.0,0.0,5.4200607582106166e-06,3.4215482248678819e-05,1.8150548345965972e-05,1.9194409328543113e-05,2.5455175926988031e-05,1.945910149055313,0.074338392562257022,0.83816036620221157,-0.12946343804094684,0,0,6
1479051180,0.0,42.331612575838655,-71.109950663588108,10.0,0.0,4.0797375440034295e-06,2.9125438994045952e-05,1.8150548345965972e-05,2.156820296724241e-05,2.8002304840458453e-05,1.945910149055313,0.074349966349471996,0.8378929710007964,-0.12945412617741933,0,0,6
1479051210,0.0,42.331612575838655,-71.109950663588108,10.0,0.0,3.9821079237460518e-06,2.9125438994045952e-05,1.8813080762275598e-05,2.1075690621641503e-05,2.8130225599291164e-05,1.7917594692280547,0.074293850620193669,0.83688007793441033,-0.12942720177739434,0,0,6
1479051240,0.0,42.331612575838655,-71.109950663588108,10.0,0.0,4.1740997741741599e-06,3.1936605946725983e-05,1.8813080762275598e-05,2.0878712814342456e-05,2.6206056320059069e-05,1.945910149055313,0.074262388416062849,0.83673532249998517,-0.12943106768211138,0,0,6
1479051270,0.0,42.331612575838655,-71.109950663588108,10.0,0.0,4.0511654110919796e-06,3.1936605946725983e-05,1.859108995793829e-05,2.3564241312004125e-05,2.7788488966827273e-05,1.945910149055313,0.074298748580970089,0.83740395322975958,-0.12942454921648414,0,0,6
1479051300,0.0,42.331612575838655,-71.109950663588108,10.0,0.0,4.3689153518332434e-06,2.8531671773108673e-05,1.6639121798499459e-05,1.8832416477050619e-05,2.5801496404727822e-05,1.7917594692280547,0.074297631474977643,0.83793200098232312,-0.12937732168562985,0,0,6
1479051330,0.0,42.331612575838655,-71.109950663588108,10.0,0.0,5.0601920655290489e-06,3.0628804198231525e-05,1.56257512915486e-05,1.809775891644353e-05,2.5842647713035802e-05,1.945910149055313,0.07427809495619743,0.83796396970474718,-0.12939267253441025,0,0,6
1479051360,0.0,42.331612575838655,-71.109950663588108,10.0,0.0,4.8956403912029303e-06,3.0628804198231525e-05,1.56257512915486e-05,1.9948550783795071e-05,2.5985549654193311e-05,1.945910149055313,0.074317818050389936,0.83782276186104665,-0.12948251860317314,0,0,6
1479051390,0.0,42.331612575838655,-71.109950663588108,10.0,0.0,1.2291093448721305e-05,5.4593144009109078e-05,1.7227627733464696e-05,2.1948166977896347e-05,2.5459716907500759e-05,1.7917594692280547,0.074407349741966902,0.83743905348728831,-0.12943135974238848,0,0,6
1479051420,0.0,42.331612575838655,-71.109950663588108,10.0,0.0,1.1745121918941348e-05,5.4593144009109078e-05,1.7051574308027089e-05,2.2134969793625933e-05,3.0323182162416967e-05,1.945910149055313,0.074431016322214008,0.83717392658772771,-0.12933938840785181,0,0,6
1479051450,0.0,42.331612575838655,-71.109950663588108,10.0,0.0,5.5141607401264755e-06,3.451296324592873e-05,1.7051574308027089e-05,2.0271349367298512e-05,2.6356247040464789e-05,1.945910149055313,0.074453092985141092,0.83726053435106529,-0.12935016297587806,0,0,6
1479051480,0.0,42.331612575838655,-71.109950663588108,10.0,0.0,3.394269034781528e-06,2.657909300202438e-05,1.757928555205794e-05,1.9106221981034333e-05,2.5087877459793019e-05,1.7917594692280547,0.074512694501928364,0.83779237000718954,-0.12939486234661049,0,0,6
1479051510,0.0,42.331612575838655,-71.109950663588108,10.0,0.0,7.6327225191705127e-06,3.825760053612757e-05,1.8528059671993976e-05,2.32676993278336e-05,3.7117975699905219e-05,1.945910149055313,0.074532585158107317,0.83747683686484031,-0.12932780477918784,0,0,6
1479051540,0.0,42.331612575838655,-71.109950663588108,10.0,0.0,6.2588736210110227e-06,3.825760053612757e-05,1.9280327037527103e-05,2.9575512028904546e-05,3.7117975699905219e-05,1.945910149055313,0.074594424866072401,0.83668387680305867,-0.12925657972523727,0,0,6
1479051570,0.0,42.331612575838655,-71.109950663588108,10.0,0.0,7.9961257943490883e-06,3.6789446244369137e-05,1.4612693739207863e-05,1.8034423316686572e-05,3.0621927564919503e-05,1.7917594692280547,0.074639490189268645,0.83622722765394253,-0.12936047417572624,0,0,6
1479051600,0.0,42.331612575838655,-71.109950663588108,10.0,0.0,9.3538892841224827e-06,4.2302871982911701e-05,1.4612693739207863e-05,1.9502042461561374e-05,3.0423145292364392e-05,1.945910149055313,0.074519429420508043,0.83644678077805124,-0.12965192567904152,0,0,6
1479051630,0.0,42.331612575838655,-71.109950663588108,10.0,0.0,2.8495290901901703e-05,0.00010483568908717723,1.8653537676048371e-05,2.2503130961779644e-05,3.400602434037699e-05,1.945910149055313,0.074472508209575225,0.83678419525150538,-0.12973047531300727,0,0,6
1479051660,0.0,42.331612575838655,-71.109950663588108,10.0,0.0,3.1142238685159542e-05,0.00010483568908717723,1.7822687877506342e-05,1.9471640236392389e-05,2.5250036575279024e-05,1.7917594692280547,0.074468589008247529,0.83665708026845109,-0.12952260921666622,0,0,6
1479051690,0.0,42.331612575838655,-71.109950663588108,10.0,0.0,4.9695285198989173e-06,3.3798400405204128e-05,1.7822687877506342e-05,2.0707506511180929e-05,2.670520164083212e-05,1.945910149055313,0.074475787470896629,0.83632137171469345,-0.12947220165728784,0,0,6
1479051720,0.0,42.331612575838655,-71.109950663588108,10.0,0.0,6.574162700184972e-06,3.3798400405204128e-05,1.3704311580549549e-05,1.7355177505369736e-05,2.670520164083212e-05,1.945910149055313,0.074521060503880437,0.8364562948083758,-0.12951854674717156,0,0,6
1479051750,0.0,42.331612575838655,-71.109950663588108,10.0,0.0,5.3269409748764787e-06,2.6868349013869723e-05,1.3704311580549549e-05,1.7067643939796926e-05,2.6145842399296195e-05,1.7917594692280547,0.074553505304922857,0.83687415631603812,-0.12946979407479817,0,0,6
1479051780,0.0,42.331612575838655,-71.109950663588108,10.0,0.0,2.6566526180517094e-06,3.1948439593342711e-05,2.3186922007294848e-05,2.4423248542332765e-05,2.6591181394450038e-05,1.945910149055313,0.074525246443767151,0.83717631290346317,-0.129465235962922,0,0,6
1479051810,0.0,42.331612575838655,-71.109950663588108,10.0,0.0,3.9060308876502133e-06,3.4407567014234038e-05,2.3186922007294848e-05,2.4423248542332765e-05,3.0191257551729885e-05,1.945910149055313,0.074489905887276872,0.83712624707815775,-0.12952866419016137,0,0,6
1479051840,0.0,42.331612575838655,-71.109950663588108,10.0,0.0,4.6255019031861658e-06,3.4407567014234038e-05,1.9221664682338084e-05,2.7075418362818446e-05,3.0082896794728658e-05,1.7917594692280547,0.074491044610339577,0.83668245672601227,-0.12954495876333236,0,0,6
1479051870,0.0,42.331612575838655,-71.109950663588108,10.0,0.0,6.272930279795175e-06,3.7841228058647236e-05,1.9221664682338084e-05,2.3328243334173311e-05,3.2321076753125005e-05,1.945910149055313,0.074481409149611613,0.83680997912633592,-0.12951919887238522,0,0,6
1479051900,0.0,42.331612575838655,-71.109950663588108,10.0,0.0,6.6242323675193051e-06,3.7841228058647236e-05,2.04839756753089e-05,2.1008467623736851e-05,2.991981142851567e-05,1.945910149055313,0.074509384143646898,0.83701460747323675,-0.12957592716615635,0,0,6
1479051930,0.0,42.331612575838655,-71.109950663588108,10.0,0.0,3.6072820594972329e-06,3.0193997288091583e-05,1.9822028657122994e-05,2.0536475640142969e-05,2.4346302667871787e-05,1.7917594692280547,0.074579952568099336,0.83670770500937441,-0.12962930867046837,0,0,6
1479051960,0.0,42.331612575838655,-71.109950663588108,10.0,0.0,6.2549714043563064e-06,4.1335404820850869e-05,1.9822028657122994e-05,2.4683793437871083e-05,2.9968245826104385e-05,1.945910149055313,0.074600029419043423,0.83673137501378847,-0.1296165435524777,0,0,6
1479051990,0.0,42.331612575838655,-71.109950663588108,10.0,0.0,6.4000655501859615e-06,4.1335404820850869e-05,1.8570083477289734e-05,2.528904968449659e-05,2.9234784531180361e-05,1.945910149055313,0.074588701271851243,0.83711103529237074,-0.12966861162849733,0,0,6
1479052020,0.0,42.331612575838655,-71.109950663588108,10.0,0.0,5.1760445515048287e-06,3.0403072417617506e-05,1.6329605533832185e-05,1.9193439223725279e-05,2.7854032824623307e-05,1.7917594692280547,0.074566650703482701,0.83696515439969854,-0.1297432761324554,0,0,6
1479052050,0.0,42.331612575838655,-71.109950663588108,10.0,0.0,5.8316184595640735e-06,3.235450796586167e-05,1.6329605533832185e-05,1.8703260684132548e-05,2.7812280409527687e-05,1.945910149055313,0.074542028036053296,0.83628569707336631,-0.12973781690530742,0,0,6
1479052080,0.0,42.331612575838655,-71.109950663588108,10.0,0.0,4.461167676366079e-06,3.235450796586167e-05,1.6343014905233185e-05,2.3262657675369536e-05,2.640066324346116e-05,1.945910149055313,0.074535896880747729,0.83611418693388906,-0.12971630147604918,0,0,6
1479052110,0.0,42.331612575838655,-71.109950663588108,10.0,0.0,3.8433164342672256e-06,3.1349702013513104e-05,1.966000667351313e-05,2.4279458792533582e-05,2.9024437978561884e-05,1.7917594692280547,0.074591724974799115,0.83621149201471046,-0.1297293491452762,0,0,6
1479052140,0.0,42.331612575838655,-71.109950663588108,10.0,0.0,4.5545567152647895e-06,3.1349702013513104e-05,1.8666209987112104e-05,2.1990785710403712e-05,2.9184780421997815e-05,1.945910149055313,0.074573235856185471,0.83611747133611725,-0.12971566217434896,0,0,6
1479052170,0.0,42.331612575838655,-71.109950663588108,10.0,0.0,3.8808230876936604e-06,3.2215400224492744e-05,1.8666209987112104e-05,2.5406255054961076e-05,2.812806505130443e-05,1.945910149055313,0.074538492324392094,0.8361835331901456,-0.12973015712966091,0,0,6
1479052200,0.0,42.331612575838655,-71.109950663588108,10.0,0.0,3.6571364988297799e-06,3.3076753072603869e-05,2.3572386558619645e-05,2.479869249784566e-05,3.1074635079480542e-05,1.7917594692280547,0.07461623025002552,0.83634597871598559,-0.12974068797740393,0,0,6
1479052230,0.0,42.331612575838655,-71.109950663588108,10.0,0.0,4.2623878665906859e-06,3.3076753072603869e-05,2.0787968284608377e-05,2.2639706787273976e-05,2.9033685068020851e-05,1.945910149055313,0.074620819441933259,0.83637929611726292,-0.12973585050799494,0,0,6
1479052260,0.0,42.331612575838655,-71.109950663588108,10.0,0.0,4.802621674732864e-06,3.0251919208711106e-05,1.609883835864925e-05,2.124749765026834e-05,2.8490253965487122e-05,1.945910149055313,0.074580487703774651,0.83648632196395489,-0.12978281020409407,0,0,6
1479052290,0.0,42.331612575838655,-71.109950663588108,10.0,0.0,4.1454481210954324e-06,2.9165057003643646e-05,1.609883835864925e-05,2.2637138628198541e-05,2.616168837931736e-05,1.7917594692280547,0.074557722802290019,0.83652875801342752,-0.12981521470802718,0,0,6
1479052320,0.0,42.331612575838655,-71.109950663588108,10.0,0.0,3.7046332991471972e-06,3.3911165041074389e-05,2.1808700446102309e-05,2.5317073968130827e-05,2.9700755902990372e-05,1.945910149055313,0.074586745040599103,0.83644785750269091,-0.12974165692419196,0,0,6
1479052350,0.0,42.331612575838655,-71.109950663588108,10.0,0.0,2.8933006011982699e-06,3.3911165041074389e-05,2.4036144981237087e-05,2.7317934210322321e-05,3.0205813630935341e-05,1.945910149055313,0.074634299932622744,0.83658559833759949,-0.12972812647275242,0,0,6
1479052380,0.0,42.331612575838655,-71.109950663588108,10.0,0.0,3.0594612031807052e-06,2.9416009719801208e-05,2.0540505062620619e-05,2.2158558236897284e-05,2.6395326391691869e-05,1.7917594692280547,0.074606239743305047,0.83678557576713042,-0.12978042954470639,0,0,6
1479052410,0.0,42.331612575838655,-71.109950663588108,10.0,0.0,3.7618611031148009e-06,3.1130803864867543e-05,2.0540505062620619e-05,2.251509496631085e-05,2.8662905386930281e-05,1.945910149055313,0.074570115651893906,0.83634237326008531,-0.12975686319237933,0,0,6
1479052440,0.0,42.331612575838655,-71.109950663588108,10.0,0.0,4.0067237010433008e-06,3.1130803864867543e-05,1.815262604836692e-05,2.3790546219342402e-05,2.8662905386930281e-05,1.945910149055313,0.074566562871779235,0.8359172622228962,-0.12971306496026083,0,0,6
1479052470,0.0,42.331612575838655,-71.109950663588108,10.0,0.0,4.3031897739692079e-06,2.7577016659707444e-05,1.6462101908890349e-05,1.9643554626811168e-05,2.6508741808325217e-05,1.7917594692280547,0.074548530012419623,0.83551025271525015,-0.12968364475662092,0,0,6
1479052500,0.0,42.331612575838655,-71.109950663588108,10.0,0.0,6.7584456118683586e-06,3.7011108945911837e-05,1.6462101908890349e-05,2.2119590335258327e-05,2.9854364120099373e-05,1.945910149055313,0.074563575004317387,0.8351688997682768,-0.1297195425736111,0,0,6
1479052530,0.0,42.331612575838655,-71.109950663588108,10.0,0.0,5.8486171765872825e-06,3.7011108945911837e-05,1.7788826729242427e-05,2.6318315081945958e-05,3.3079405990409151e-05,1.945910149055313,0.074573217045274837,0.83507364558671493,-0.12972604373643185,0,0,6
1479052560,0.0,42.331612575838655,-71.109950663588108,10.0,0.0,4.3953704045659325e-06,3.4027100400327e-05,2.0148808505525304e-05,2.696083888087096e-05,3.0867339237850187e-05,1.7917594692280547,0.074598585183097976,0.8355146934478529,-0.12969787756754314,0,0,6
1479052590,0.0,42.331612575838655,-71.109950663588108,10.0,0.0,4.9676128765888262e-06,3.7953739828174906e-05,2.0148808505525304e-05,2.9112191175833243e-05,3.2097630898067988e-05,1.945910149055313,0.074622792227754892,0.83602967511315074,-0.12971162911012221,0,0,6
1479052620,0.0,42.331612575838655,-71.109950663588108,10.0,0.0,5.3733206772008216e-06,3.7953739828174906e-05,2.1619892130666675e-05,2.4877491028179315e-05,3.1138463163481207e-05,1.945910149055313,0.074613863412871947,0.83616975103175606,-0.12975124533083335,0,0,6
1479052650,0.0,42.331612575838655,-71.109950663588108,10.0,0.0,4.7772005753158864e-06,3.3733003081248192e-05,2.1619892130666675e-05,2.3407840918418305e-05,3.2037427986108615e-05,1.7917594692280547,0.074640049283475396,0.83605423137269907,-0.12980453134020262,0,0,6
1479052680,0.0,42.331612575838655,-71.109950663588108,10.0,0.0,5.8961534331343432e-06,4.0698265875847769e-05,2.0232706065519547e-05,2.8537814322457794e-05,3.3924459075702592e-05,1.945910149055313,0.074661688195373097,0.8360260348704518,-0.12976681090819647,0,0,6
1479052710,0.0,42.331612575838655,-71.109950663588108,10.0,0.0,6.540837975073948e-06,4.0698265875847769e-05,2.0232706065519547e-05,2.3938256187232127e-05,3.1168793056503589e-05,1.945910149055313,0.074633475397542268,0.83600702056640652,-0.12971445289522582,0,0,6
1479052740,3.146647606265547,42.331600950837448,-71.109943586467864,10.0,0.05244412677109245,2.8259388482550169e-06,3.1495732854819367e-05,2.3493156981748564e-05,2.3752901362733291e-05,2.4942778033557735e-05,1.7917594692280547,0.074617225652494484,0.83574605924527734,-0.12969243264245348,0,0,6
1479052770,3.146647606265547,42.331580436129435,-71.109931097432138,10.0,0.05244412677109245,5.1680168082244446e-06,3.2415824769701869e-05,1.8404821142810491e-05,2.0211891566604188e-05,2.7599149950711168e-05,1.945910149055313,0.074617744680979217,0.83539426715811971,-0.1297092905534806,0,0,6
1479052800,0.0,42.33157154642263,-71.109925685516657,10.0,0.0,7.1258703631442514e-06,3.9612955534509908e-05,1.8404821142810491e-05,2.0211891566604188e-05,2.9520049986597908e-05,1.945910149055313,0.07460696102766351,0.83502182008728565,-0.12973197556437047,0,0,6
1479052830,0.0,42.33157154642263,-71.109925685516657,10.0,0.0,6.3269208569625968e-06,3.9612955534509908e-05,1.8942584966288607e-05,2.4696024859952288e-05,2.9388252110110502e-05,1.7917594692280547,0.074631821549752925,0.83509054329617793,-0.12970660157331076,0,0,6
1479052860,0.0,42.33157154642263,-71.109925685516657,10.0,0.0,3.3207482945119673e-06,3.0231389520378452e-05,1.8942584966288607e-05,2.3731075851753752e-05,2.6927336501023543e-05,1.945910149055313,0.074691278814403558,0.83533829559581319,-0.12969631374630958,0,0,6
1479052890,0.0,42.33157154642263,-71.109925685516657,10.0,0.0,3.5500782388501269e-06,2.8656290675914346e-05,1.7178908787062958e-05,2.3731075851753752e-05,2.6955832407411153e-05,1.945910149055313,0.074687389563780446,0.83533416007201378,-0.12972029000207852,0,0,6
1479052920,0.0,42.33157154642263,-71.109925685516657,10.0,0.0,5.9577102746410798e-06,3.4827859700876071e-05,1.7178908787062958e-05,2.0262377238621265e-05,2.8221175929956228e-05,1.7917594692280547,0.074674252720446269,0.83543115411673252,-0.12969825859464354,0,0,6
1479052950,0.0,42.33157154642263,-71.109925685516657,10.0,0.0,6.5452087462366582e-06,3.4827859700876071e-05,1.7525121513391088e-05,2.1701782082983503e-05,3.3116087246650659e-05,1.945910149055313,0.074673021145295823,0.83571647490874068,-0.12966895989410904,0,0,6
1479052980,0.0,42.33157154642263,-71.109925685516657,10.0,0.0,5.799586699499362e-06,3.3393774736463226e-05,1.7525121513391088e-05,2.5600975351638599e-05,3.3125430508772666e-05,1.945910149055313,0.074666206270868979,0.83616018480711518,-0.12964662952435629,0,0,6
1479053010,0.0,42.33157154642263,-71.109925685516657,10.0,0.0,5.0980472480912157e-06,3.3204763502032297e-05,1.9311440232254031e-05,2.4358422603563969e-05,3.2254851169111213e-05,1.7917594692280547,0.074698720049783229,0.83620327061183453,-0.12967050404864577,0,0,6
1479053040,0.0,42.33157154642263,-71.109925685516657,10.0,0.0,3.4777528712244788e-06,2.988111212990573e-05,1.9311440232254031e-05,2.4092531313315622e-05,2.8521951519954802e-05,1.945910149055313,0.074713631764014063,0.83566606943279387,-0.12969754528280905,0,0,6
1479053070,0.0,42.33157154642263,-71.109925685516657,10.0,0.0,2.7833423194837562e-06,3.001574433873772e-05,2.1737380151307337e-05,2.3887945181939938e-05,2.7441316176115885e-05,1.945910149055313,0.07472721992191958,0.83534614391248951,-0.12969410154552771,0,0,6
1479053100,0.0,42.33157154642263,-71.109925685516657,10.0,0.0,3.5373789043011671e-06,3.0160593087911145e-05,2.1243194842342045e-05,2.2478357756691178e-05,2.8829593975210506e-05,1.7917594692280547,0.074700807145858389,0.83515026997500375,-0.12975572923426257,0,0,6
1479053130,0.0,42.33157154642263,-71.109925685516657,10.0,0.0,3.726951470915123e-06,3.1446507067098633e-05,2.1243194842342045e-05,2.3869891614886928e-05,3.0242000944856436e-05,1.945910149055313,0.07461429553203125,0.83516260641053208,-0.1297068005038155,0,0,6
1479053160,0.0,42.33157154642263,-71.109925685516657,10.0,0.0,5.2206123519158112e-06,3.8518757236612613e-05,2.2413224620195244e-05,2.4074160772960653e-05,3.0884957934450185e-05,1.945910149055313,0.074625152330430503,0.83502331629175275,-0.12967736537573835,0,0,6
1479053190,0.0,42.33157154642263,-71.109925685516657,10.0,0.0,5.3514881971227365e-06,3.8518757236612613e-05,2.2413224620195244e-05,2.5287577083795996e-05,3.1744776526993782e-05,1.7917594692280547,0.074708403362306164,0.83493985614639277,-0.12971914278450936,0,0,6
1479053220,0.0,42.33157154642263,-71.109925685516657,10.0,0.0,5.2150353289038107e-06,3.3686309191644458e-05,1.8909609310347885e-05,2.2481557280935988e-05,3.0313558902083552e-05,1.945910149055313,0.074704075284326363,0.83540774133091944,-0.12973382996095598,0,0,6
1479053250,0.0,42.33157154642263,-71.109925685516657,10.0,0.0,4.8110571802244837e-06,3.3686309191644458e-05,1.8909609310347885e-05,2.2481557280935988e-05,2.8970909377750018e-05,1.945910149055313,0.074710821452763893,0.83565810209795277,-0.12970226316150599,0,0,6
1479053280,0.0,42.33157154642263,-71.109925685516657,10.0,0.0,2.2159273872327987e-06,3.2913564387556148e-05,2.6434641399001122e-05,2.7387524762227589e-05,3.0472931187151282e-05,1.7917594692280547,0.074753954601031722,0.83553626653090263,-0.12962417450605412,0,0,6
