TIMESTAMP,DISTANCE,AVG_LAT,AVG_LNG,GPS_ACCURACY,AVG_SPEED_BY_GPS,ACCLERATOR_STD,MAX_ACCLERATOR,MIN_ACCLERATOR,PERCENTILE_25_ACCLERATOR,PERCENTILE_75_ACCLERATOR,ACCLERATOR_ENTROPY,AVG_ROLL,AVG_YAW,AVG_PITCH,WEEK_DAY,LABEL1,LABEL2
1480295520,0.8661286973395569,42.338751157260504,-71.088211406097145,65.0,0.014435478288992614,0.001640018779190846,0.0032807398138236989,7.02255442007071e-07,0.00082071164503743005,0.0024607304242282762,0.69314718055994529,-0.07082465170801619,-0.48548822196250052,0.17928047338098851,0,4,2
1480295550,0.3630480159523338,42.338743167586678,-71.088205268094939,65.0,0.006050800265872231,0.0012474144402758337,0.0032807398138236989,7.02255442007071e-07,5.397608543846306e-05,0.00064175942817400124,1.6094379124341005,-0.050086057352738335,0.46786171490668343,-0.18892290961910102,0,4,2
1480295580,8.582310728549958,42.33872750956121,-71.088184881088836,65.0,0.1430385121424993,0.00020968272312828345,0.00064175942817400124,1.990637073988488e-05,2.4335615548889221e-05,0.00010823395454897989,1.945910149055313,-0.023794003807245397,1.1612051204284897,-0.19868014275987433,0,4,2
1480295610,5.018540647011667,42.338711346750991,-71.088166576312673,65.0,0.08364234411686113,1.3053267498586826e-05,5.6347138785900972e-05,1.3436888738914891e-05,2.0398563276865289e-05,3.1999011289419096e-05,1.945910149055313,-0.014412092366091171,1.204940298205933,-0.021930501409444744,0,4,2
1480295640,9.350803839117356,42.338714753381851,-71.088172651446158,65.0,0.15584673065195592,8.5781737942532822e-06,3.6168386567749846e-05,1.3436888738914891e-05,1.6995737456322939e-05,3.083989980671138e-05,1.7917594692280547,-0.01438258047817295,1.2058627250968967,-0.021910158179104768,0,4,2
1480295670,0.6840478169200068,42.338715110078724,-71.088173283431217,65.0,0.01140079694866678,6.0116601544659093e-06,3.1843321071919058e-05,1.3790453670612723e-05,2.2437781164936216e-05,2.8967043748791586e-05,1.945910149055313,-0.014437916802408385,1.206291049830726,-0.021907738372206925,0,4,2
1480295700,0.8648524577299006,42.338715427830493,-71.088174084730198,65.0,0.014414207628831676,5.7388655928746445e-06,3.8033207590573278e-05,1.8597055098006339e-05,2.4054546379067279e-05,2.8967043748791586e-05,1.945910149055313,-0.014443609398339786,1.2065113293780787,-0.021951356909687667,0,4,2
1480295730,5.331634690770405,42.338719864550015,-71.088180298698234,65.0,0.08886057817950674,5.8548048827559548e-06,3.8033207590573278e-05,2.0431220690649594e-05,2.2049126119993984e-05,2.5926420792128361e-05,1.7917594692280547,-0.014270366701719531,1.2067312451858834,-0.021849218421285368,0,4,2
1480295760,0.6142601663191993,42.33872386158005,-71.088192973087402,65.0,0.010237669438653322,5.0922661052720159e-06,3.4613481493271695e-05,1.7721704456973341e-05,2.0421416210444615e-05,2.3787454687042853e-05,1.945910149055313,-0.014162320132066345,1.2016230927702984,-0.021568571369187443,0,4,2
1480295790,0.3315450004527804,42.338732829529263,-71.088203088713342,65.0,0.00552575000754634,9.2667610694231667e-06,4.5470014638967654e-05,1.7721704456973341e-05,2.0358563272196298e-05,3.1967269826090657e-05,1.945910149055313,-0.014335059819232585,1.1978096495917328,-0.021437054355069898,0,4,2
1480295820,0.6135023832740802,42.338730199454638,-71.088195555698164,65.0,0.010225039721234671,9.2700899369592753e-06,4.5470014638967654e-05,1.9693275017274751e-05,2.0018066600121065e-05,2.7477509894240255e-05,1.7917594692280547,-0.01454119805081755,1.1980885224350732,-0.021494638228193402,0,4,2
1480295850,4.056567337020957,42.338722853175682,-71.088186537226889,65.0,0.06760945561701595,8.7551062373328635e-06,4.1694281244360623e-05,1.9693275017274751e-05,2.0934557814504619e-05,3.7517526064701878e-05,1.945910149055313,-0.014582920115259428,1.19760530490248,-0.02105397989442916,0,4,2
1480295880,0.819393568319421,42.338708180420525,-71.08816994136069,65.0,0.01365655947199035,7.7486059392072396e-06,4.1694281244360623e-05,1.9902130358585529e-05,2.4556343540599329e-05,3.7517526064701878e-05,1.945910149055313,-0.014742767406681288,1.1968805970621328,-0.019719163346345929,0,4,2
1480295910,4.827425295828106,42.338717556984058,-71.088179534252575,65.0,0.08045708826380177,1.0271331586910933e-05,5.0404673131886535e-05,1.9902130358585529e-05,2.4098946606562394e-05,3.6104117713252481e-05,1.7917594692280547,-0.014915961740274533,1.1964620418914251,-0.018425078633077567,0,4,2
1480295940,9.565383331074694,42.3387206485801,-71.088181957444419,65.0,0.15942305551791155,9.3247736058531722e-06,5.0404673131886535e-05,2.107611251285006e-05,2.5975449621666709e-05,3.5317213131236442e-05,1.945910149055313,-0.014884114335728615,1.1965922257300172,-0.018395919942185174,0,4,2
1480295970,1.597420044669022,42.338695772236747,-71.088160176593249,65.0,0.026623667411150367,8.0977735868189914e-06,4.6335282963374821e-05,2.107611251285006e-05,2.6004295059448391e-05,3.4693744899484246e-05,1.945910149055313,-0.01482936046952117,1.1967894048619672,-0.01830251189056727,0,4,2
1480296000,6.107417774061622,42.338691483641327,-71.088152709949497,65.0,0.10179029623436037,9.1928205692850188e-06,4.6335282963374821e-05,1.8182891908314663e-05,2.4589095371791483e-05,3.5183338084515026e-05,1.7917594692280547,-0.014810497333849102,1.1970078521602365,-0.018272581170234399,0,4,2
1480296030,2.2164678808163827,42.338702074482605,-71.088154229947307,65.0,0.03694113134693971,6.4299606482813901e-06,4.0221279911606548e-05,1.8182891908314663e-05,2.3655133527766362e-05,2.8779667806907182e-05,1.945910149055313,-0.014661706561275014,1.1969581909264586,-0.018237489454617846,0,4,2
1480296060,2.610611364123019,42.338714868483365,-71.088166155114166,65.0,0.043510189402050314,5.8309406220926812e-06,4.0221279911606548e-05,2.0507161384719809e-05,2.5067440981000138e-05,2.9673403247579553e-05,1.945910149055313,-0.014509508595015328,1.1965523468509256,-0.018110628923400884,0,4,2
1480296090,1.8964610530156707,42.338725794242983,-71.088182513973038,65.0,0.03160768421692785,7.8024555150721892e-06,3.3779030232822047e-05,9.1994119602509849e-06,2.1227948288688403e-05,2.8748491976347739e-05,1.7917594692280547,-0.014966430501959999,1.196527523051645,-0.018398800286063,0,4,2
1480296120,6.651234861536259,42.338734517739574,-71.088190366835576,65.0,0.11085391435893764,8.5602566654120373e-06,3.4620917131128838e-05,9.1994119602509849e-06,2.267090960602994e-05,3.4139964560545774e-05,1.945910149055313,-0.014510629622613772,1.1969390867492085,-0.01819221549213907,0,4,2
1480296150,1.3175490685525337,42.338732639278518,-71.088187117750522,65.0,0.021959151142542228,4.9076967744121959e-06,3.4620917131128838e-05,2.1951510211465698e-05,2.367024811838062e-05,3.0165465189898582e-05,1.945910149055313,-0.013801117457157883,1.1971684511894001,-0.017765094976808126,0,4,2
1480296180,4.8325556597900645,42.338711678808465,-71.088175272305904,65.0,0.0805425943298344,4.1848761519948046e-06,3.1628568716233858e-05,1.8829794165573875e-05,2.3118779340955266e-05,2.8368068107361381e-05,1.7917594692280547,-0.013849458375827782,1.19672730594432,-0.017823696255105066,0,4,2
1480296210,1.7924910562377212,42.338696814842855,-71.088167040756403,65.0,0.029874850937295354,7.5351710155657408e-06,4.2240735410193146e-05,1.8829794165573875e-05,2.4694169155167742e-05,3.415489407873108e-05,1.945910149055313,-0.014114838555508344,1.1965208272106886,-0.018016702224208626,0,4,2
1480296240,2.3951450738039837,42.33868930845324,-71.088165155719864,65.0,0.03991908456339973,7.4985592771463809e-06,4.2240735410193146e-05,2.0894402011656417e-05,2.4694169155167742e-05,3.6167347315208387e-05,1.945910149055313,-0.014184521264582414,1.1966772563621757,-0.01807299873464176,0,4,2
1480296270,1.341995781684469,42.338697367513603,-71.088168185536475,65.0,0.022366596361407816,5.7475182361663921e-06,3.565347518918848e-05,2.0894402011656417e-05,2.3033549550202729e-05,3.3273251022236788e-05,1.7917594692280547,-0.014110110252422982,1.196135800164235,-0.018045960429692181,0,4,2
1480296300,4.419922272190998,42.338695722589449,-71.088165942167308,65.0,0.07366537120318331,6.3176606934968807e-06,4.206559186965028e-05,2.1360168169488736e-05,2.7126380334834045e-05,3.268465572285114e-05,1.945910149055313,-0.014191573104640557,1.1960446588838056,-0.018076057026109087,0,4,2
1480296330,7.5099392054458995,42.338709595300031,-71.088178754038935,65.0,0.12516565342409833,6.2297260103308722e-06,4.206559186965028e-05,2.4367137555257992e-05,2.7241070420432817e-05,3.7110423303078288e-05,1.945910149055313,-0.014245697657222786,1.1962530706591459,-0.018100015050187157,0,4,2
1480296360,8.32900846841694,42.338730871920497,-71.08819012481743,65.0,0.13881680780694902,7.002769636659574e-06,4.4215407280065016e-05,2.4367137555257992e-05,2.6780601563402737e-05,3.7135895732101999e-05,1.7917594692280547,-0.014277727683358117,1.1959567539526499,-0.018171584204461702,0,4,2
1480296390,8.42560581806879,42.338709344612468,-71.088175441402967,65.0,0.14042676363447984,1.1609763386746303e-05,5.3915474167606053e-05,2.0042660050668004e-05,2.3870787799253397e-05,3.9406840725912684e-05,1.945910149055313,-0.0144741908457502,1.1942577428136687,-0.018320313702660185,0,4,2
1480296420,6.155776840152831,42.338692200056201,-71.08816401467169,65.0,0.10259628066921385,1.0491070846195542e-05,5.3915474167606053e-05,2.0042660050668004e-05,2.3870787799253397e-05,3.2060255426168201e-05,1.945910149055313,-0.015431816963429644,1.192138800643417,-0.018892329262075996,0,4,2
1480296450,3.273990854458579,42.338689330811995,-71.088155580767349,65.0,0.05456651424097632,0.00031142251870446892,0.00086577725942891637,2.5865430131878378e-05,2.8546556059256316e-05,3.4232643401027138e-05,1.7917594692280547,-0.016608208283602103,1.1907553098292183,-0.019624190602086446,0,4,2
1480296480,1.2773817598171469,42.338684195213744,-71.088148431421956,65.0,0.02128969599695245,0.00029287364072219039,0.00086577725942891637,1.9022685356836216e-05,2.5718791014739255e-05,3.5368346758450754e-05,1.945910149055313,-0.016430615626135188,1.1908194369866916,-0.019557663903778087,0,4,2
1480296510,9.035540249680123,42.33869788788811,-71.088158442224568,65.0,0.15059233749466872,7.5856804967425544e-06,3.5486974856496294e-05,1.4334791564708918e-05,1.8940133059017355e-05,3.0418776248013167e-05,1.945910149055313,-0.015624753741863772,1.1910326115589613,-0.019108804401379971,0,4,2
1480296540,3.210815397635103,42.33871946034283,-71.088175273654699,65.0,0.05351358996058505,9.1329375500755692e-06,4.3171622437519736e-05,1.4334791564708918e-05,2.0540144029804152e-05,2.9553358739425593e-05,1.7917594692280547,-0.0150258626751575,1.1910351784643101,-0.0188260977811168,0,4,2
1480296570,7.162826017095232,42.338710742447567,-71.088164079090774,65.0,0.11938043361825386,1.1411868643541114e-05,4.9436353114200131e-05,1.1371164965330465e-05,2.9203519049762818e-05,4.1363386036377727e-05,1.945910149055313,-0.015384158803215073,1.1908615520228114,-0.019134725004551129,0,4,2
1480296600,3.1445091995378216,42.338688433368546,-71.088141531688237,65.0,0.05240848665896369,1.2070788903114189e-05,4.9436353114200131e-05,1.1371164965330465e-05,2.5587390908424534e-05,4.1377365667872454e-05,1.945910149055313,-0.015396166897999929,1.19069735371729,-0.019156322675298987,0,4,2
1480296630,2.6743145523231195,42.338677722912387,-71.088140655038885,65.0,0.04457190920538533,7.5014001126922439e-06,4.3199581700509184e-05,2.1620203787914932e-05,2.2937010359732309e-05,3.2586959183201835e-05,1.7917594692280547,-0.015053295668582581,1.1903781341227,-0.018931601790157866,0,4,2
1480296660,0.6274047823291616,42.338697556955211,-71.088153350674389,65.0,0.010456746372152693,9.2602747250303236e-06,4.6647072906798649e-05,1.7320331345751137e-05,2.1047400656284175e-05,3.1788155115592789e-05,1.945910149055313,-0.014369414174707201,1.1901258763742055,-0.018550413106178016,0,4,2
1480296690,3.664779578181,42.338714073176845,-71.088165196491033,65.0,0.06107965963635,1.0240734680228519e-05,4.6647072906798649e-05,1.3784683319435949e-05,1.8897464435202277e-05,3.1068841047883337e-05,1.945910149055313,-0.014173601820372301,1.190256074298403,-0.018411506918643385,0,4,2
1480296720,3.9076025369067966,42.338702389292223,-71.088154226621697,65.0,0.0651267089484466,6.5868342633581879e-06,3.4348892067608575e-05,1.3784683319435949e-05,2.814548904554694e-05,3.13834670604907e-05,1.7917594692280547,-0.014320975240967933,1.1903268115843033,-0.018510158040652838,0,4,2
1480296750,2.719333952694025,42.338698900828881,-71.088150421898391,65.0,0.045322232544900413,4.8899255942688354e-06,3.4348892067608575e-05,1.6965542920240792e-05,2.6183655448747944e-05,2.8613608073171736e-05,1.945910149055313,-0.014704359393784214,1.1897451173123199,-0.018834376896944831,0,4,2
1480296780,1.4457187575351542,42.338703902481235,-71.088162906123742,65.0,0.024095312625585903,4.0131760991214042e-06,3.0021281680242366e-05,1.6965542920240792e-05,2.393207085887264e-05,2.8099311537140299e-05,1.945910149055313,-0.0157486427321476,1.1851944805117529,-0.020040750450805715,0,4,2
1480296810,10.87996434382645,42.338702269865657,-71.088154088646917,65.0,0.18133273906377415,9.0323497938995062e-06,4.8329304968361143e-05,2.1540634479762837e-05,2.3605230062728425e-05,2.9025971107465195e-05,1.7917594692280547,-0.016914668395683667,1.1794867041269199,-0.021511517377905184,0,4,2
1480296840,2.67782803311471,42.338689283177096,-71.088135343142341,65.0,0.0446304672185785,9.1308276810693159e-06,4.8329304968361143e-05,1.7564204485332672e-05,2.3627453443392239e-05,2.8681949184347764e-05,1.945910149055313,-0.016746089261648552,1.1796372550889613,-0.021423861161073084,0,4,2
1480296870,13.154871998436724,42.338700367596793,-71.088149442586143,65.0,0.21924786664061205,8.2491886617245774e-06,4.1648101000848112e-05,1.7564204485332672e-05,2.2019181916922041e-05,3.3681725715215466e-05,1.945910149055313,-0.01563245414179083,1.1819137324207343,-0.020553776228383558,0,4,2
1480296900,1.4430533648591755,42.338711938140584,-71.088159223622071,65.0,0.02405088941431959,8.4525146950085826e-06,4.1648101000848112e-05,1.8324091426822438e-05,2.1652777200213775e-05,3.4967113946069525e-05,1.7917594692280547,-0.014006112864479531,1.1859130548061934,-0.019578419770660403,0,4,2
1480296930,0.5368445569095818,42.338721254958465,-71.088168578982419,65.0,0.008947409281826363,6.4934464991907151e-06,4.0153517624940272e-05,1.9500126653209665e-05,2.2029341134110579e-05,2.9269790819929138e-05,1.945910149055313,-0.014609908644382856,1.18630722698244,-0.020204228980025912,0,4,2
1480296960,5.77375332694776,42.338726276295219,-71.088187803040341,65.0,0.096229222115796,6.3070630048604256e-06,4.0153517624940272e-05,1.9500126653209665e-05,2.4909106528044688e-05,3.2418579449108169e-05,1.945910149055313,-0.015447824849441029,1.1858265678925815,-0.020686701247838842,0,4,2
1480296990,9.061104888922873,42.338720779641044,-71.088189007876366,65.0,0.15101841481538122,5.7898551576433411e-06,4.2063609001367599e-05,2.4409384728759074e-05,2.7593671951945676e-05,3.4438310405452486e-05,1.7917594692280547,-0.015167495241510049,1.1845024399638984,-0.02045043426851707,0,4,2
1480297020,0.0,nan,nan,nan,0.0,8.3484673491188673e-06,4.277837372888811e-05,1.9791848551506923e-05,2.4608761222057934e-05,3.8306407562012407e-05,1.945910149055313,-0.015076309465011914,1.1802446638550672,-0.020349676282162173,0,4,2
1480297050,0.0,42.338732413094696,-71.088201430283405,65.0,0.0,6.7693167691966411e-06,4.277837372888811e-05,1.9791848551506923e-05,2.4969980734268286e-05,2.9691604114961415e-05,1.945910149055313,-0.015281655213259771,1.1781698549501816,-0.02047069371601307,0,4,2
1480297080,4.268803004539039,42.338728753829457,-71.088187368937668,65.0,0.0711467167423173,4.4903070690220933e-06,3.6510086087243353e-05,2.1950416000157859e-05,2.7487453747858978e-05,3.1377094115010701e-05,1.7917594692280547,-0.015248780057739516,1.1782169654505465,-0.020420175222256833,0,4,2
1480297110,2.7591634579241284,42.338729887578396,-71.088184624482352,65.0,0.045986057632068804,7.9472912272145278e-06,3.6510086087243353e-05,1.6031999795914213e-05,1.9397758422490609e-05,3.3777394627312252e-05,1.945910149055313,-0.0153362590515994,1.1780436965673684,-0.020482152132067905,0,4,2
1480297140,3.033516941011272,42.338735997763166,-71.088189123950045,65.0,0.0505586156835212,6.6686852854248879e-06,3.5233719710351035e-05,1.6031999795914213e-05,1.9397758422490609e-05,2.9147591607345141e-05,1.945910149055313,-0.015481361281697758,1.1778781224980186,-0.020581836067371129,0,4,2
1480297170,1.8014095604234006,42.338727332024092,-71.088182771741771,65.0,0.030023492673723343,3.1729599056133286e-06,3.2018780455255921e-05,2.1441995354577047e-05,2.4773011737304584e-05,2.5985898937436847e-05,1.7917594692280547,-0.015137053650510532,1.1773607437619684,-0.020310273463412149,0,4,2
1480297200,2.758283029546589,42.338720960922657,-71.088180833430371,65.0,0.045971383825776486,9.3772255665407979e-06,5.1591170259908868e-05,2.4340551696127805e-05,2.4783386823823037e-05,3.0012204319221864e-05,1.945910149055313,-0.014808233197749213,1.1770644866161,-0.020067055565094898,0,4,2
1480297230,6.415782888197771,42.338717013660471,-71.088178781629438,65.0,0.10692971480329619,9.109171548832628e-06,5.1591170259908868e-05,2.4340551696127805e-05,2.5041247958862586e-05,3.2701363732560311e-05,1.945910149055313,-0.014619259033932427,1.1770770694047727,-0.019948590820808715,0,4,2
1480297260,1.2063258175340816,42.338709258554736,-71.088161985642699,65.0,0.020105430292234695,9.1640142513357859e-06,4.5039391953156204e-05,2.1531484164243319e-05,2.4804442987438017e-05,4.0165284645519068e-05,1.7917594692280547,-0.013912995057419218,1.177189863564565,-0.019599731285736766,0,4,2
1480297290,4.225435508998398,42.33871429844735,-71.088160301626658,65.0,0.0704239251499733,8.6238387812286272e-06,4.5039391953156204e-05,2.1531484164243319e-05,2.5230560976791279e-05,3.8248437946557888e-05,1.945910149055313,-0.014023881174390641,1.1773292251466871,-0.019769293676780458,0,4,2
1480297320,1.6132013231490039,42.338725611007504,-71.088172161534615,65.0,0.026886688719150065,5.034702379297919e-06,3.3266533645903349e-05,1.6750871006619742e-05,2.4433356740176057e-05,2.9494684544125119e-05,1.945910149055313,-0.014307964237162501,1.1772036120667972,-0.019980030668464429,0,4,2
1480297350,4.235198804952697,42.338733525518229,-71.088184423953237,65.0,0.07058664674921161,8.4418228432225911e-06,4.4727868591881478e-05,1.6750871006619742e-05,2.7186169366356904e-05,3.3813108766999743e-05,1.7917594692280547,-0.014540245571954167,1.177293504494765,-0.019914096580579018,0,4,2
1480297380,4.63396767855081,42.338738719997217,-71.088200815239404,65.0,0.07723279464251351,6.5499131637932287e-06,4.4727868591881478e-05,2.46637456237288e-05,2.60026269514918e-05,3.3494805655350804e-05,1.945910149055313,-0.015180881805312343,1.1776099782187257,-0.019935230566532156,0,4,2
1480297410,1.1483985105492491,42.338741172764699,-71.088204406407925,65.0,0.01913997517582082,2.842041679332727e-06,2.8581918696177447e-05,1.8792623456133612e-05,2.4757214630607765e-05,2.6400267743057825e-05,1.945910149055313,-0.015312364493405783,1.1776435871009858,-0.019879702487662958,0,4,2
1480297440,0.5358319871216588,42.338741117970883,-71.088199379496672,65.0,0.008930533118694314,5.2100406705605575e-06,3.2549358060577413e-05,1.7965284172967386e-05,1.8774089573312956e-05,2.5471115758747691e-05,1.7917594692280547,-0.015273482771400615,1.177669607605605,-0.0198513098001122,0,4,2
1480297470,3.9372864825964062,42.338731252188104,-71.088191675203092,65.0,0.06562144137660678,7.6023005912946143e-06,3.9509544790060304e-05,1.7965284172967386e-05,2.2924164647077825e-05,3.3924475856788824e-05,1.945910149055313,-0.015300114566891588,1.1779141784818716,-0.019872045014225872,0,4,2
1480297500,7.131830541553879,42.338727111380116,-71.088189902631541,65.0,0.11886384235923132,6.3134199762752942e-06,3.9509544790060304e-05,2.1482437303260957e-05,2.4289747923451834e-05,3.3924475856788824e-05,1.945910149055313,-0.015247272753430128,1.1779794864599673,-0.019851993238086098,0,4,2
1480297530,0.0,nan,nan,nan,0.0,1.0000172911868908e-05,4.5758866482975761e-05,1.8343658900707633e-05,2.1486597518725908e-05,3.6645943596456009e-05,1.7917594692280547,-0.015247620953159534,1.177724202829735,-0.019817216209105069,0,4,2
1480297560,0.0,nan,nan,nan,0.0,1.2061772936651349e-05,5.0405785579463239e-05,1.8343658900707633e-05,2.5386144182500368e-05,4.6821447400582691e-05,1.945910149055313,-0.015352158772976372,1.1773407125297286,-0.019804247329310156,0,4,2
1480297590,0.0,nan,nan,nan,0.0,1.0454118238162161e-05,5.0405785579463239e-05,2.1416887719745477e-05,2.7117152309356829e-05,4.3667766505822207e-05,1.945910149055313,-0.015287643101157272,1.1771872009113129,-0.019799651448815212,0,4,2
1480297620,0.0,nan,nan,nan,0.0,6.3724866311407454e-06,3.9451504693454799e-05,1.8500723316312528e-05,2.5038653736390054e-05,2.9949607812431158e-05,1.7917594692280547,-0.015309608717752769,1.177456715464805,-0.019839787445870019,0,4,2
1480297650,0.0,nan,nan,nan,0.0,6.8112995424079189e-06,3.4914598382049007e-05,1.3709432285439697e-05,1.8292141159541281e-05,2.7719380464658893e-05,1.945910149055313,-0.015324963960068242,1.1778523956237041,-0.019883614100755304,0,4,2
1480297680,0.0,nan,nan,nan,0.0,1.1315102022479656e-05,4.8105460371910882e-05,1.3709432285439697e-05,2.2111257507096286e-05,3.7898076276002924e-05,1.945910149055313,-0.01531729667533637,1.1778117862251187,-0.019862932135731402,0,4,2
1480297710,0.0,nan,nan,nan,0.0,1.5836511073694499e-05,4.8105460371910882e-05,6.8599786570956829e-06,1.6964596022345738e-05,4.2992229380293356e-05,1.7917594692280547,-0.015474750906589252,1.1774130606934883,-0.01992966075968975,0,4,2
1480297740,0.8465485454027643,42.338726017849105,-71.088185399333597,65.0,0.014109142423379404,1.2336659865515749e-05,4.3695787783738858e-05,6.8599786570956829e-06,1.8272488135979815e-05,3.5488256657258295e-05,1.945910149055313,-0.015562830452066813,1.1769628605943401,-0.020023875537989826,0,4,2
1480297770,1.3328343483487437,42.338723894230839,-71.088187534545966,65.0,0.022213905805812395,5.3865197639759097e-06,3.6676770444062666e-05,2.3685462658165042e-05,2.4955159662484718e-05,3.5488256657258295e-05,1.945910149055313,-0.015552894906385728,1.1772450715473586,-0.0199845714586325,0,4,2
1480297800,2.8625314494644303,42.338738181032078,-71.088199266286324,65.0,0.047708857491073835,4.1246458023139919e-06,3.6676770444062666e-05,2.3685462658165042e-05,2.6316096077457463e-05,3.0354632459657591e-05,1.7917594692280547,-0.015565250678458301,1.1777180770649467,-0.019942173230905049,0,4,2
1480297830,0.180131772190793,42.338751763220088,-71.088208226597871,65.0,0.003002196203179883,5.7151290281080437e-06,4.1953174271693074e-05,2.4578019904278367e-05,2.6162096983160758e-05,3.2957751852837817e-05,1.945910149055313,-0.015696992852575146,1.1776694656243156,-0.019984425925460101,0,4,2
1480297860,0.9455600358103536,42.338747042119969,-71.088205050583184,65.0,0.01575933393017256,6.889267552096175e-06,4.1953174271693074e-05,2.0906686897719998e-05,2.5503259180805228e-05,3.5119648401070039e-05,1.945910149055313,-0.015589364106121885,1.1774891486464816,-0.019883172586006585,0,4,2
1480297890,2.7995371450380904,42.338734309297884,-71.08819361968763,65.0,0.04665895241730151,1.2842564113636271e-05,3.47692956030736e-05,2.3456594235499905e-06,3.0312338501910547e-06,2.5138572370398164e-05,1.7917594692280547,-0.015217474022602666,1.109219797293165,-0.011159447683315891,0,4,2
1480297920,6.512873044709,42.338725778217075,-71.088184392790893,65.0,0.10854788407848333,1.2309505158280049e-06,6.3844635222397349e-06,2.3456594235499905e-06,2.9000495600680629e-06,3.9964031329622204e-06,1.945910149055313,-0.015414249851800873,1.0425584230213414,-0.0027482357488457314,0,4,2
1480297950,1.0719185559482973,42.338735805180967,-71.088192087666897,65.0,0.017865309265804954,1.9399922481605029e-06,8.1357312958990903e-06,2.1055592686564317e-06,3.4656940702542043e-06,6.0539197818793204e-06,1.945910149055313,-0.015802862170890813,1.0440393823413741,-0.0028937699251814419,0,4,2
1480297980,0.387532051124471,42.338735379854093,-71.088192630333353,65.0,0.006458867518741183,2.8739520251482679e-06,9.7408320798791211e-06,2.1055592686564317e-06,3.4945641218172485e-06,8.2611484185986775e-06,1.7917594692280547,-0.015982487461732864,1.04491102557618,-0.002901583507450877,0,4,2
1480298010,1.0246525993975921,42.338731920791659,-71.088191613105096,65.0,0.017077543323293202,2.7572101839928923e-06,1.0862752172274017e-05,2.7516268152500297e-06,4.7887413190825349e-06,9.0218931030221644e-06,1.945910149055313,-0.015810280104053456,1.0453405380469787,-0.002847196266027017,0,4,2
1480298040,0.27892735231760235,42.338727076909564,-71.088187989114971,65.0,0.004648789205293372,3.5104713951387717e-06,1.5231043783717422e-05,3.9741790544820215e-06,6.018262133940826e-06,9.9778199000896374e-06,1.945910149055313,-0.015742142880678399,1.0455308939071128,-0.0028872773857260398,0,4,2
1480298070,1.1014640868247887,42.338728087638479,-71.088188073894031,65.0,0.018357734780413144,4.2562182484027363e-06,1.5231043783717422e-05,2.0997385988193286e-06,4.502152069845695e-06,8.4279708919785949e-06,1.7917594692280547,-0.01583910190651935,1.0455650116876567,-0.0029264770405717029,0,4,2
1480298100,2.0979010162949017,42.338724003221607,-71.088188719726048,65.0,0.03496501693824836,3.2243570551289635e-06,1.1075591199565226e-05,2.0997385988193286e-06,3.2558897702499488e-06,7.0533931002598308e-06,1.945910149055313,-0.015814347815042599,1.0459525865229629,-0.0028705655311039788,0,4,2
1480298130,1.1648516060367464,42.338719242788983,-71.088186009709474,65.0,0.019414193433945775,2.870825450421226e-06,1.1075591199565226e-05,2.2705823225238742e-06,4.2948474686541972e-06,8.1147384026824305e-06,1.945910149055313,-0.015743076942277969,1.0459683256112529,-0.0028616064356983759,0,4,2
1480298160,1.6435420464156745,42.338730223792233,-71.088190406192808,65.0,0.02739236744026124,4.4741101748889788e-06,1.7630837719299442e-05,4.3484977193323696e-06,6.2772769020153299e-06,1.021309310013397e-05,1.7917594692280547,-0.015682024559831184,1.0456353919963381,-0.0028832357098079104,0,4,2
1480298190,0.5162329722878293,42.338738811471835,-71.088197083480694,65.0,0.008603882871463821,4.1467658780515538e-06,1.7630837719299442e-05,3.2898385365631383e-06,7.1640704932856824e-06,1.0420500540162312e-05,1.945910149055313,-0.015706463575671827,1.0454286512596185,-0.00291099213479554,0,4,2
1480298220,1.983328198730094,42.338734109361134,-71.088196094093334,65.0,0.0330554699788349,3.5226793523369571e-06,1.2197334706557843e-05,1.350408439205219e-06,5.4351766335138012e-06,9.5927490511244467e-06,1.945910149055313,-0.015732636767951187,1.0452945853348514,-0.0029337608210147784,0,4,2
1480298250,1.0973199734084018,42.338725681214569,-71.08818656660813,65.0,0.018288666223473363,3.3733160775186414e-06,1.2197334706557843e-05,1.350408439205219e-06,8.3917524135571875e-06,9.9005456309296153e-06,1.7917594692280547,-0.015706299742937715,1.0452801890912535,-0.0029050406597531182,0,4,2
1480298280,1.9265263976033413,42.338725283871604,-71.08818668242958,65.0,0.03210877329338902,2.9512004965070707e-06,1.0480768713788912e-05,2.7300893747710589e-06,5.3968664783489112e-06,9.2273376428914968e-06,1.945910149055313,-0.015226514995090068,1.0490432238510359,-0.0027099452982570047,0,4,2
1480298310,1.2720400059119639,42.338731578514121,-71.088196661257612,65.0,0.021200666765199397,3.0343472622291652e-06,1.0846360355064045e-05,2.7300893747710589e-06,5.3345459192260059e-06,9.2185034865190161e-06,1.945910149055313,-0.014600177216563188,1.0597661917968673,-0.0027060010682733058,0,4,2
1480298340,3.0831970157695148,42.338735664941403,-71.088195360031293,65.0,0.05138661692949191,2.1082994211030142e-06,1.0846360355064045e-05,4.1750615765641769e-06,5.7386133778695464e-06,7.8388843367759766e-06,1.7917594692280547,-0.014025170725700302,1.0699199970155717,-0.0028193842674769346,0,4,2
1480298370,1.402250630751259,42.338731422533549,-71.088185862013376,65.0,0.023370843845854316,7.8682950773740476e-06,2.5747566963675016e-05,3.6219439061604135e-06,4.4697455123146394e-06,1.1989753012915229e-05,1.945910149055313,-0.013809705183504172,1.0699175787844943,-0.0027464614304248897,0,4,2
1480298400,2.7129871836571273,42.338727780089286,-71.088185548858092,65.0,0.04521645306095212,7.2634609574733006e-06,2.5747566963675016e-05,3.6219439061604135e-06,6.6894201123700051e-06,1.6863256681345345e-05,1.945910149055313,-0.014007693960861172,1.0704307488691884,-0.0028223363335481062,0,4,2
1480298430,1.7503792490434453,42.338717536016468,-71.088181234947399,65.0,0.029172987484057424,3.7532845293815746e-06,1.6488645714054534e-05,6.8530827108535024e-06,8.9901759875079074e-06,1.5726080720634741e-05,1.7917594692280547,-0.014321252414684084,1.0705116075146017,-0.0029631928732146862,0,4,2
1480298460,0.05281799543058237,42.338719547747147,-71.088178512980875,65.0,0.0008802999238430395,7.938182609809099e-06,2.8084973755012991e-05,4.2652858384047819e-06,8.4852771654302038e-06,1.9921867640683164e-05,1.945910149055313,-0.014375242632524987,1.0704196521929572,-0.0030069953202082971,0,4,2
1480298490,3.716748062067132,42.338730850273627,-71.08818904162257,65.0,0.0619458010344522,8.0254730709713685e-06,2.8084973755012991e-05,4.2652858384047819e-06,8.2777290774960435e-06,1.9921867640683164e-05,1.945910149055313,-0.014427968444598599,1.07087600848103,-0.0029880154452273698,0,4,2
1480298520,0.6257379025989882,42.338740038254251,-71.088198593959362,65.0,0.01042896504331647,2.9770207239935861e-06,1.2605678516784459e-05,3.7739491967950511e-06,6.9135411841380709e-06,1.0921768992612714e-05,1.7917594692280547,-0.013592827326101118,1.06119200527737,-0.0032745844622077032,0,4,2
1480298550,0.7064259496603945,42.338742788405519,-71.088197867218668,65.0,0.011773765827673243,3.1316650949591473e-06,1.3960491467788216e-05,3.7739491967950511e-06,6.6550937915597982e-06,1.0660177808898247e-05,1.945910149055313,-0.012524488365148027,1.04005387624007,-0.0049785416733497305,0,4,2
1480298580,2.3072497984822538,42.338738423315704,-71.088197994326805,65.0,0.03845416330803756,7.2122406190235884e-06,2.6775343254684473e-05,6.4268710027964836e-06,7.0128903591476528e-06,1.7029895036891599e-05,1.945910149055313,-0.012447118520607843,1.0320599844097516,-0.005960806983184702,0,4,2
1480298610,1.7199634771550325,42.338742667539627,-71.08820442528696,65.0,0.028666057952583875,6.8032642234909802e-06,2.6775343254684473e-05,7.1424641379721919e-06,9.3851470534206514e-06,1.9038486931256502e-05,1.7917594692280547,-0.012722426006837968,1.0325070607493583,-0.0059601615642487912,0,4,2
1480298640,0.23563959407706306,42.338739295284313,-71.088204534080631,65.0,0.003927326567951051,4.5104629551361434e-06,2.1722590856317516e-05,7.2886085631649027e-06,9.6900417503293667e-06,1.4097617614080837e-05,1.945910149055313,-0.012849100728830816,1.0323999775760915,-0.0060138967280869565,0,4,2
1480298670,0.6132825621104342,42.338743205376993,-71.088211494667021,65.0,0.010221376035173903,4.5954648083697118e-06,2.1722590856317516e-05,7.2886085631649027e-06,9.5711729291419181e-06,1.5294224430171485e-05,1.945910149055313,-0.012664229388104815,1.0325213180020287,-0.0060200637288547326,0,4,2
1480298700,0.12848691300157525,42.338746802462843,-71.088216415433791,65.0,0.002141448550026254,3.7077494342381819e-06,1.7689595280916407e-05,8.1627306551457639e-06,8.9179472551955788e-06,1.556492521355957e-05,1.7917594692280547,-0.012352753625284117,1.0328804407949732,-0.0059335228063434929,0,4,2
1480298730,1.4321856406920657,42.338747543324097,-71.08821147007761,65.0,0.023869760678201093,3.6147155196982808e-06,1.7689595280916407e-05,7.5356447804290676e-06,9.5566305206035269e-06,1.5086346872869437e-05,1.945910149055313,-0.012352285177318085,1.0328954830137871,-0.0058856162764386582,0,4,2
1480298760,9.899612643380138,42.338726232937404,-71.088190977788798,65.0,0.16499354405633562,3.4321280691342774e-06,1.6788699539036963e-05,7.3820282494994971e-06,9.7599125884278464e-06,1.4646677893839416e-05,1.945910149055313,-0.012474464359828043,1.0326852883529059,-0.0059406211450635073,0,4,2
1480298790,1.2787641691398246,42.338691467666202,-71.088161761579471,65.0,0.02131273615233041,3.4910126494064997e-06,1.5909361580976921e-05,7.3820282494994971e-06,7.8438839091321223e-06,1.4347647179595078e-05,1.7917594692280547,-0.012494063164189535,1.0324753200754699,-0.0059622532532460082,0,4,2
1480298820,7.874338160654393,42.338703749828809,-71.08817234440545,65.0,0.13123896934423987,5.6243549555258873e-06,2.5280390658101244e-05,7.5737232872085585e-06,8.9347242052661748e-06,1.3295545331833751e-05,1.945910149055313,-0.012478409047700201,1.0326229992902543,-0.0059461028548292725,0,4,2
1480298850,2.277230382406425,42.338743256207188,-71.088207737543982,65.0,0.037953839706773754,5.8329418430121117e-06,2.5280390658101244e-05,6.4985647659142161e-06,9.961813795336374e-06,1.5845588138594773e-05,1.945910149055313,-0.012477957634520257,1.0329603943933898,-0.0059612221972061624,0,4,2
1480298880,0.98588046645311,42.338748422524041,-71.088207628484355,65.0,0.016431341107551834,4.3869678703082796e-06,1.816829429170699e-05,6.4985647659142161e-06,8.1880823431541731e-06,1.5520370488544188e-05,1.7917594692280547,-0.012521246220075966,1.0334917111096817,-0.0059969025341362345,0,4,2
1480298910,2.8585358932022986,42.338733011684013,-71.088194053497176,65.0,0.04764226488670498,3.6065607971796302e-06,1.6210126850177202e-05,7.5279245282376728e-06,8.2991554682315313e-06,1.5509445139705e-05,1.945910149055313,-0.012469791073042942,1.0329299060412271,-0.0059821561062904181,0,4,2
1480298940,3.0612408183692867,42.338726347464402,-71.088194785383635,65.0,0.05102068030615478,3.7416317256060674e-06,1.6435139086483678e-05,6.389453789686485e-06,9.3879931273896283e-06,1.5521408570011234e-05,1.945910149055313,-0.01239541857021643,1.0323738779339384,-0.0059452831737398749,0,4,2
1480298970,0.36491893030844896,42.338737619041837,-71.088204633804096,65.0,0.006081982171807483,5.0219227393157863e-06,2.062753473539817e-05,6.389453789686485e-06,8.408230302316312e-06,1.5143164427232564e-05,1.7917594692280547,-0.012460565409365999,1.0321816763771883,-0.0059800115874365685,0,4,2
1480299000,2.0185383348411303,42.338743709189949,-71.088208017429253,65.0,0.033642305580685504,4.5947063385461365e-06,2.062753473539817e-05,5.7335635700533184e-06,7.6697408807363406e-06,8.7550071803462427e-06,1.945910149055313,-0.012499516666107642,1.0313325549054915,-0.0059653726751246793,0,4,2
1480299030,1.0865478684662286,42.338732774837695,-71.088203686358852,65.0,0.01810913114110381,6.8111501586103244e-06,2.5919633114716435e-05,5.7335635700533184e-06,7.6697408807363406e-06,1.658715190225843e-05,1.945910149055313,-0.012441612238080673,1.0308607689301028,-0.005889016300000229,0,4,2
1480299060,1.9413104328454331,42.338726264784796,-71.08819979633887,65.0,0.03235517388075722,6.6330649884908358e-06,2.5919633114716435e-05,5.7529932173318405e-06,9.6719288554203061e-06,1.7455414364972765e-05,1.7917594692280547,-0.012465823028461267,1.0311430107485267,-0.0058684343915086463,0,4,2
1480299090,3.3263158992272643,42.338732605011103,-71.088198483010856,65.0,0.055438598320454405,3.1273299709777697e-06,1.5851134735598954e-05,5.7529932173318405e-06,6.956319154370258e-06,9.8622874710410561e-06,1.945910149055313,-0.012509019920102614,1.0312334486164443,-0.0058726692006104992,0,4,2
1480299120,0.28230578782093,42.338743998109763,-71.088207649557006,65.0,0.004705096463682167,3.1924202923376015e-06,1.5851134735598954e-05,6.5649564923914232e-06,6.9993544606273827e-06,1.0298208934036605e-05,1.945910149055313,-0.012478029798317899,1.0312119793743542,-0.0059038592292951705,0,4,2
1480299150,0.6652615324799872,42.338750207730023,-71.088220420667682,65.0,0.011087692207999787,2.4408856247314093e-06,1.2169343211322281e-05,5.6632339663608657e-06,6.4473355279039687e-06,1.0378070165665781e-05,1.7917594692280547,-0.012418432161979234,1.0312092776884783,-0.0059212918614619907,0,4,2
1480299180,2.491663877060566,42.338743135218053,-71.088211367248704,65.0,0.04152773128434276,4.0952449571063472e-06,1.8078606425906451e-05,5.3590794966166589e-06,6.0213361509654663e-06,1.0234541338269406e-05,1.945910149055313,-0.012494370420864114,1.0308607115719599,-0.0059969923366424418,0,4,2
1480299210,5.212360201491515,42.33873368068717,-71.088197420299124,65.0,0.08687267002485859,3.9578763109177793e-06,1.8078606425906451e-05,5.3590794966166589e-06,6.9941896890284299e-06,1.0420567867456114e-05,1.945910149055313,-0.012617891032628387,1.0310016815274357,-0.0060824068347673814,0,4,2
1480299240,1.8701068787346924,42.338729439928841,-71.088189969180902,65.0,0.03116844797891154,4.7019433742008754e-06,1.9075783899562005e-05,5.8348565366908465e-06,8.8842835619354274e-06,1.5868105185739657e-05,1.7917594692280547,-0.012504321187916168,1.0316070839336751,-0.005991547979959236,0,4,2
1480299270,7.192932364207907,42.33873678043993,-71.088198922463917,65.0,0.1198822060701318,6.1406138628547577e-06,2.5491036867389875e-05,7.7495339342459002e-06,9.1545211437608689e-06,1.8216552896883418e-05,1.945910149055313,-0.012277314940269684,1.0316900956841988,-0.0059064769718484888,0,4,2
1480299300,2.4991570262352716,42.338741093848775,-71.088209204219496,65.0,0.041652617103921194,6.0358732322452308e-06,2.5491036867389875e-05,7.7495339342459002e-06,8.2371608906403551e-06,1.4704007112375295e-05,1.945910149055313,-0.012430722704359843,1.0315643789466626,-0.0059066933444489444,0,4,2
1480299330,2.8900345075538056,42.338739741336681,-71.088208298139335,65.0,0.048167241792563424,4.2000865737996619e-06,1.6855120129859003e-05,4.4386678584070023e-06,8.8648320713037581e-06,1.4382434364590048e-05,1.7917594692280547,-0.01254818518428995,1.0312085888666582,-0.0058723080755265734,0,4,2
1480299360,6.040125062090698,42.338729948619786,-71.088192700225051,65.0,0.10066875103484496,3.9406662865210846e-06,1.4992281121156201e-05,4.4386678584070023e-06,6.8138425010914209e-06,1.3692378781533825e-05,1.945910149055313,-0.013543602196516112,1.0308855801346415,-0.0061357554475206079,0,4,2
1480299390,0.47290638282564657,42.338724866545206,-71.088184852305062,65.0,0.00788177304709411,3.8230106180272658e-06,1.428042936752123e-05,2.9123069218512169e-06,6.3030482264864034e-06,1.2072184804029942e-05,1.945910149055313,-0.013288298232988946,1.0311713804857157,-0.0060879832473501845,0,4,2
1480299420,3.743757083379371,42.338733113294431,-71.088189435951904,65.0,0.06239595138965618,3.8311493548625613e-06,1.3516200211012795e-05,2.9123069218512169e-06,7.6926047611446288e-06,1.268814342807422e-05,1.7917594692280547,-0.01216621845572345,1.0315514011351234,-0.0059048549934144273,0,4,2
1480299450,4.9443609993468485,42.338741943021247,-71.088197757022186,65.0,0.0824060166557808,6.0525455082174676e-06,2.3414507244207622e-05,2.6406562850418177e-06,7.7162503411664711e-06,1.3193906321786437e-05,1.945910149055313,-0.012949058426951385,1.0313404648011042,-0.006155761836539324,0,4,2
1480299480,4.556843846763904,42.338726009013854,-71.088185330978121,65.0,0.07594739744606507,6.0887655072389111e-06,2.3414507244207622e-05,2.6406562850418177e-06,7.7162503411664711e-06,1.3406782366772773e-05,1.945910149055313,-0.013228179232097171,1.0313379968946712,-0.0062527768344256924,0,4,2
1480299510,2.2422121362538188,42.338704588970607,-71.088154520171869,65.0,0.03737020227089698,4.6448093182131128e-06,2.0930442705522914e-05,5.3503270821126249e-06,1.0915457712197767e-05,1.3826241854792291e-05,1.7917594692280547,-0.012491861073581733,1.0312610929398982,-0.0062338371579837119,0,4,2
1480299540,4.3781024322768705,42.338705062272226,-71.088149672327489,65.0,0.07296837387128118,5.5123089366316248e-06,2.0930442705522914e-05,4.9704448861510093e-06,6.0649383710280644e-06,1.4226664344002213e-05,1.945910149055313,-0.012110375065248171,1.0309302805237688,-0.0062880971108588866,0,4,2
1480299570,0.7479434593906741,42.338698202722391,-71.08815245113874,65.0,0.012465724323177902,4.3441639757218594e-06,1.6044344088531005e-05,4.7304451840203509e-06,5.8749972730472562e-06,1.3650952451188404e-05,1.945910149055313,-0.012073760505588199,1.0309562925174887,-0.0063844347398679452,0,4,2
1480299600,8.469078060178852,42.338690868489323,-71.088156473389731,65.0,0.14115130100298087,4.8566223136674469e-06,1.7177599548457632e-05,4.338621926639279e-06,6.441955738307443e-06,1.4473814956935845e-05,1.7917594692280547,-0.011700290113315651,1.0310925988201534,-0.0063360134782075141,0,4,2
1480299630,6.058349480847434,42.338700438310312,-71.088160550518097,65.0,0.10097249134745723,4.5381967630441468e-06,1.7177599548457632e-05,4.338621926639279e-06,5.710521465943671e-06,1.3053847329360505e-05,1.945910149055313,-0.011727449623437842,1.0309299769758531,-0.0062953492519492744,0,4,2
1480299660,2.0825591663418948,42.338717780419863,-71.088159120654851,65.0,0.03470931943903158,7.465906024069697e-06,2.8685988852076466e-05,5.4582552027417025e-06,6.9603328268925884e-06,1.3308356296047745e-05,1.945910149055313,-0.011758988833440872,1.03068314057373,-0.0063099212860459235,0,4,2
1480299690,8.048130409050687,42.338712697672825,-71.088159311381347,65.0,0.13413550681751146,7.1948865756925219e-06,2.8685988852076466e-05,7.9578779246395383e-06,8.9535412075887938e-06,1.1565871064214267e-05,1.7917594692280547,-0.011869048547645018,1.0302485488996351,-0.006274620201067122,0,4,2
1480299720,2.382576028311195,42.338714740328179,-71.088165111906676,65.0,0.03970960047185325,6.8885263932367073e-06,2.4826861690713438e-05,6.6530978676129688e-06,9.1917309743698725e-06,1.8831963674388975e-05,1.945910149055313,-0.011956656032256414,1.0300997251749529,-0.0062095903968460032,0,4,2
1480299750,5.729749251057206,42.338728458042631,-71.088169952510171,65.0,0.09549582085095344,6.2641593736534419e-06,2.4826861690713438e-05,6.6530978676129688e-06,1.1651959048003453e-05,1.8831963674388975e-05,1.945910149055313,-0.011939808815060527,1.0300944179399314,-0.0062265900236142388,0,4,2
1480299780,3.179202930082216,42.338718021684805,-71.088164224791214,65.0,0.05298671550137027,2.2314710708379968e-06,1.5648034879757533e-05,8.6948692464836829e-06,1.0902143715571956e-05,1.3419389659890581e-05,1.7917594692280547,-0.011945911504648367,1.0301681934416367,-0.0062389573687143237,0,4,2
1480299810,3.041298686475245,42.338717826637676,-71.088172185156978,65.0,0.05068831144125408,3.3357186043982895e-06,1.5648034879757533e-05,5.0107030250875938e-06,8.5111902843576544e-06,1.1797684321309887e-05,1.7917594692280547,-0.01199896422860245,1.030661711165245,-0.0062156396666318827,0,4,2
1480299840,2.0066379161827212,42.338727806195386,-71.088184520285537,65.0,0.03344396526971202,3.8425758383632934e-06,1.8436152880064881e-05,5.0107030250875938e-06,9.1788573921290581e-06,1.2008323993929576e-05,1.945910149055313,-0.01209099541432407,1.0310132902512987,-0.0062505138701329718,0,4,2
1480299870,1.3517206536922437,42.338729997394978,-71.088173630286903,65.0,0.022528677561537393,3.5244343897965957e-06,1.8436152880064881e-05,8.6041897554949213e-06,1.0000939112364929e-05,1.5042239571412749e-05,1.945910149055313,-0.012180801235210115,1.0311146823282686,-0.006284854139068422,0,4,2
1480299900,2.954169020365949,42.338723616956337,-71.088163124752541,65.0,0.04923615033943249,6.7143739624798965e-06,2.8703065253040658e-05,8.6041897554949213e-06,1.0422590524009962e-05,1.6575547024195289e-05,1.7917594692280547,-0.012169201994267033,1.0311342152166068,-0.0062577592020340569,0,4,2
1480299930,6.608335707186545,42.33872029303371,-71.088175446282136,65.0,0.11013892845310909,6.0724196642975744e-06,2.8703065253040658e-05,9.9330621060045649e-06,1.100828514155743e-05,1.5423106385618872e-05,1.945910149055313,-0.0120492495882403,1.0310359969789302,-0.0062109561351540998,0,4,2
1480299960,4.00826273223875,42.338714706964865,-71.088179723330498,65.0,0.06680437887064583,2.4044886544132675e-06,1.6144933064346042e-05,9.9330621060045649e-06,1.0974636280144655e-05,1.5126149702024107e-05,1.945910149055313,-0.012008619607057128,1.0310265931456415,-0.0062197115414174458,0,4,2
1480299990,6.273883103882854,42.338695576939358,-71.088158156820612,65.0,0.10456471839804757,3.2329683305868103e-06,1.6091557786394336e-05,6.273658758596868e-06,1.2045697025052569e-05,1.4447385675995888e-05,1.7917594692280547,-0.01190430247550575,1.0310705478630233,-0.0062543316857790049,0,4,2
1480300020,9.46059554669899,42.338701100059943,-71.088160783788894,65.0,0.15767659244498317,5.9054990087853811e-06,2.3014368602896446e-05,3.7179013399406973e-06,7.748760766903993e-06,1.4428162972073961e-05,1.945910149055313,-0.011656613844052385,1.0308670795441615,-0.0063207197293849663,0,4,2
1480300050,6.659822756526178,42.338708258906706,-71.088172318493335,65.0,0.11099704594210297,5.5814017133042062e-06,2.3014368602896446e-05,3.7179013399406973e-06,9.7603910678710604e-06,1.5168166829944334e-05,1.945910149055313,-0.011599798436793299,1.0305791317736799,-0.0063633775545711016,0,4,2
1480300080,0.0,nan,nan,nan,0.0,2.2529455179042952e-06,1.5583099473011814e-05,9.3397985479797146e-06,1.058038394790619e-05,1.4040306010004997e-05,1.7917594692280547,-0.011844249732525618,1.0303988073819548,-0.0063615912157801756,0,4,2
1480300110,0.0,nan,nan,nan,0.0,4.8622614489122612e-06,2.1605779035742986e-05,8.0715303481150196e-06,9.7666846279652858e-06,1.5931340768964371e-05,1.945910149055313,-0.011845855408321487,1.0305740264486787,-0.0063030308445345936,0,4,2
1480300140,0.0,nan,nan,nan,0.0,5.3304062230769674e-06,2.1605779035742986e-05,7.7641025254534545e-06,9.0543210500308445e-06,1.8842742709689899e-05,1.945910149055313,-0.011687167267340899,1.0307117456420802,-0.0062669752764005762,0,4,2
1480300170,0.152612736680287,42.3387478410447,-71.088211589565333,65.0,0.0025435456113381163,7.9130379461940337e-06,2.8388801244807725e-05,4.3688058657615317e-06,8.3323548320767587e-06,1.6326672731296382e-05,1.7917594692280547,-0.011697156377030416,1.0306418055063384,-0.006238491723134891,0,4,2
1480300200,0.923122352673627,42.338744762868686,-71.088212609876393,65.0,0.01538537254456045,7.2772491597785144e-06,2.8388801244807725e-05,4.3688058657615317e-06,8.0927047793072816e-06,1.2750099952273026e-05,1.945910149055313,-0.011808012991901229,1.0303848785235341,-0.006225434677022185,0,4,2
1480300230,5.969806265985307,42.338731129517605,-71.088196474274341,65.0,0.09949677109975512,2.9143013551271525e-06,1.4317924900276537e-05,5.6745592822762972e-06,8.0927047793072816e-06,1.2138039306291808e-05,1.945910149055313,-0.011769852863465186,1.0301660678771956,-0.0062377019730991473,0,4,2
1480300260,1.9872482341898767,42.338710944232005,-71.088175133490864,65.0,0.03312080390316461,2.8538994680548395e-06,1.3739802151837341e-05,5.6745592822762972e-06,8.8961023440375188e-06,1.2803332604585508e-05,1.7917594692280547,-0.011868770490857284,1.0300375928279735,-0.0062703014347056732,0,4,2
1480300290,6.337817679435353,42.338715403061734,-71.088189357385559,65.0,0.10563029465725587,3.0866262049788118e-06,1.8309238221313807e-05,8.3493776384679336e-06,1.1466394062645709e-05,1.4608733570901636e-05,1.945910149055313,-0.012041255279758615,1.0302151043043399,-0.0063338904756214259,0,4,2
1480300320,2.954003351262145,42.338735150742252,-71.088209407623694,65.0,0.04923338918770241,4.819704743280393e-06,1.8309238221313807e-05,2.5406046225320205e-06,1.1466394062645709e-05,1.618334579224103e-05,1.945910149055313,-0.011967239161468943,1.0304975121015871,-0.0063245327882877709,0,4,2
1480300350,1.6844747025727846,42.338741573255291,-71.088211771025271,65.0,0.028074578376213077,5.4387360894712816e-06,1.9091868964024753e-05,2.5406046225320205e-06,8.2190621402239565e-06,1.5172115070487294e-05,1.7917594692280547,-0.011845634736337851,1.0307633474943152,-0.0062826589459645497,0,4,2
1480300380,1.454525088843107,42.338735445540692,-71.088202192781409,65.0,0.02424208481405178,6.0840223842003974e-06,2.4042729032811226e-05,7.2864098720261441e-06,7.9729985690441244e-06,1.5054443954421072e-05,1.945910149055313,-0.011783537438722942,1.0310419947978628,-0.0062802221612392878,0,4,2
1480300410,1.0228946472922982,42.338739789459389,-71.08820454161895,65.0,0.017048244121538304,5.3089569449524487e-06,2.4042729032811226e-05,7.3111282550439168e-06,8.8857227262945353e-06,1.3696688544669413e-05,1.945910149055313,-0.011728564572013586,1.0309993835551643,-0.0062562117335614826,0,4,2
1480300440,0.6169705376415378,42.338744261746356,-71.088208614414825,65.0,0.010282842294025629,2.7487795293305737e-06,1.5102966701622579e-05,6.6325070270512368e-06,1.0928667842954137e-05,1.3692254112520438e-05,1.7917594692280547,-0.011744073960216034,1.0302164024055482,-0.0062286253410567911,0,4,2
1480300470,1.3996847593482604,42.338740519315721,-71.088207159251297,65.0,0.023328079322471006,3.6937878944155065e-06,1.6373954141384311e-05,6.6325070270512368e-06,9.9093610266100571e-06,1.5194719937103833e-05,1.945910149055313,-0.012152469155253958,1.0294986508307944,-0.0063346427620908372,0,4,2
1480300500,5.401349040073485,42.338735053505587,-71.088201983052599,65.0,0.09002248400122474,4.1423806627845404e-06,1.6373954141384311e-05,6.5343964858306457e-06,7.0870693010848572e-06,1.5194719937103833e-05,1.945910149055313,-0.012880840874113616,1.0294424611687942,-0.0062737210639499785,0,4,2
1480300530,0.24778250816412095,42.338733651929488,-71.088196615297036,65.0,0.004129708469402016,9.8219932014362626e-07,8.655503285776428e-06,5.6669489968581106e-06,6.0108740383692161e-06,6.9977552680377092e-06,1.7917594692280547,-0.013644413136652316,1.0298000692997233,-0.0060133657858139041,0,4,2
1480300560,3.188618172144825,42.338730268706527,-71.088196292356869,65.0,0.05314363620241375,5.3097190687472875e-06,2.0032225132931023e-05,5.6669489968581106e-06,6.3083734213378184e-06,1.4684158736853e-05,1.945910149055313,-0.013328707948353601,1.0306784633042372,-0.0057076660001346372,0,4,2
1480300590,0.49989035352692973,42.338734623618194,-71.088201326043432,65.0,0.008331505892115496,4.3389233019654979e-06,2.0032225132931023e-05,6.6590123711201476e-06,1.1047578412880016e-05,1.7150314757942207e-05,1.945910149055313,-0.0131080474953197,1.0309553030546443,-0.0055820640993194783,0,4,2
1480300620,1.9473521945986614,42.338746843348439,-71.08820792272202,65.0,0.03245586990997769,3.333990467158258e-06,1.6867784390411771e-05,6.6590123711201476e-06,1.1717216870382124e-05,1.5315781574066715e-05,1.7917594692280547,-0.013280833079481765,1.0303291761372968,-0.0056833246865597431,0,4,2
1480300650,3.06440585251595,42.338749640338449,-71.088213728035299,65.0,0.051073430875265835,4.703824451481515e-06,2.378436623230876e-05,7.2669129956155063e-06,1.1667490759232557e-05,1.3526756333154748e-05,1.945910149055313,-0.013395763066666328,1.0298142184276415,-0.0057167720316131836,0,4,2
1480300680,3.7931309250995295,42.338746412594183,-71.088213381423486,65.0,0.06321884875165883,5.3614566157093377e-06,2.378436623230876e-05,7.2669129956155063e-06,1.2038523425126054e-05,1.8378254224362244e-05,1.945910149055313,-0.013271820310842843,1.0298280854706601,-0.0056832839722176804,0,4,2
1480300710,2.3695256379585397,42.338743368252153,-71.088205946019428,65.0,0.03949209396597566,6.4723820308926358e-06,2.1560788856846958e-05,7.8945169849993678e-07,1.3512769909899898e-05,1.7384994285084985e-05,1.7917594692280547,-0.013503367750473151,1.0304118971711402,-0.0058132039936643681,0,4,2
1480300740,4.829063976455302,42.338744869359111,-71.08820830761816,65.0,0.08048439960758837,7.1304888630492928e-06,2.0885402289193132e-05,7.8945169849993678e-07,9.6473401005709961e-06,1.8622430236489243e-05,1.945910149055313,-0.013936656629650901,1.0306365746572572,-0.0059737592020521011,0,4,2
1480300770,0.27656322453587534,42.338750685870153,-71.088215508175239,65.0,0.004609387075597922,5.3581228043707384e-06,2.1036830038176839e-05,4.5568324103090143e-06,1.3839485624844952e-05,2.0007755123008742e-05,1.945910149055313,-0.014070092194232598,1.0308135732847956,-0.0060249020155619384,0,4,2
1480300800,1.5273890844987694,42.338748100139313,-71.088210420190791,65.0,0.025456484741646156,5.608773568489127e-06,2.1036830038176839e-05,2.7199435740328563e-06,1.1281984102367361e-05,1.5823499118821964e-05,1.7917594692280547,-0.014454251222114115,1.03116858486732,-0.006202900634767472,0,4,2
1480300830,1.7896764788673476,42.338741930470036,-71.088203818507949,65.0,0.029827941314455795,1.4373737478402625e-05,4.8600786562733717e-05,2.7199435740328563e-06,7.3489974172470275e-06,1.8847057548316946e-05,1.945910149055313,-0.013903702536287912,1.0192752168864083,-0.005670898238476647,0,4,2
1480300860,1.379838925524041,42.338742044099845,-71.088206631399785,65.0,0.022997315425400684,1.4403142684034671e-05,4.8600786562733717e-05,5.6809179776677461e-06,6.8306396368146285e-06,1.7005679771747698e-05,1.945910149055313,-0.013070177716712586,0.98422226136266677,-0.0045261850976151289,0,4,2
1480300890,3.2850434404128097,42.338761052532682,-71.088215870629497,65.0,0.054750724006880164,2.2580718459872761e-06,1.2406436768658646e-05,5.6809179776677461e-06,6.2330773412814728e-06,8.1730920052486409e-06,1.7917594692280547,-0.012421931217053298,0.94901226870682631,-0.003400368117321318,0,4,2
1480300920,4.08822198619119,42.338770253138691,-71.088209682762482,65.0,0.0681370331031865,2.8053411976116377e-06,1.3962294838307243e-05,4.0861994581923589e-06,6.7891454224601436e-06,8.4899698299199953e-06,1.945910149055313,-0.012168484613982716,0.94626911907572497,-0.0028185163640963131,0,4,2
1480300950,10.394828647134633,42.338747579939579,-71.088170627053074,65.0,0.17324714411891054,3.5055996695693284e-06,1.5428943239944181e-05,4.0861994581923589e-06,8.3276169897286154e-06,1.2086394772367535e-05,1.945910149055313,-0.012304285853032129,0.94144509456525494,-0.0025323793176278034,0,4,2
1480300980,2.8048794498324168,42.33873934283482,-71.088162352740326,65.0,0.04674799083054028,2.8204566290921064e-06,1.7015262620366824e-05,9.6416300357260978e-06,1.0632639352011572e-05,1.5427534964998054e-05,1.7917594692280547,-0.012600074388690314,0.93190548009356633,-0.0025425694043241169,0,4,2
1480301010,15.468311618543378,42.338762961589808,-71.088197687730343,65.0,0.25780519364238963,3.9209992581826998e-06,1.7015262620366824e-05,4.7593923298314087e-06,8.9801123919493532e-06,1.4200804526485726e-05,1.945910149055313,-0.012513491987387571,0.92580244868268136,-0.0025538960894056781,0,4,2
1480301040,0.5287526318676556,42.338774894864578,-71.088216364876558,65.0,0.008812543864460927,4.1071940409244228e-06,1.713059548010161e-05,4.7593923298314087e-06,8.9801123919493532e-06,1.5024936945848278e-05,1.945910149055313,-0.012372504761073657,0.92549317827674737,-0.0025088642900983312,0,4,2
1480301070,2.342409522384684,42.338769479178239,-71.088214917633621,65.0,0.0390401587064114,1.2104677762779129e-06,1.713059548010161e-05,1.3130696524057242e-05,1.4510120575784491e-05,1.5453165409591056e-05,1.7917594692280547,-0.012407341517683933,0.92571892833552827,-0.0024524759655903815,0,4,2
1480301100,1.2282791886591264,42.338765370198168,-71.088211238713015,65.0,0.02047131981098544,3.4677867087564988e-06,1.8597541850766738e-05,7.9681156217909134e-06,1.2538165030509211e-05,1.6783548899025314e-05,1.945910149055313,-0.012497163805598843,0.92594886850065961,-0.002465475512162587,0,4,2
1480301130,0.800868744732241,42.338763220287753,-71.088209649701056,65.0,0.013347812412204016,6.1506030950318094e-06,2.6063788786896884e-05,7.9681156217909134e-06,9.594641488787806e-06,1.857293437760558e-05,1.945910149055313,-0.012829383493619857,0.92453658433021979,-0.0025679359530451388,0,4,2
1480301160,2.107135172531316,42.338756272751553,-71.088215580078952,65.0,0.0351189195421886,6.3885491672755628e-06,2.6063788786896884e-05,7.3957090422033707e-06,9.0450285426930121e-06,1.3861212922549512e-05,1.7917594692280547,-0.013185846772855501,0.91992872108942692,-0.0026581454148704568,0,4,2
1480301190,2.451598462489523,42.338756695825978,-71.088216463678975,65.0,0.04085997437482538,4.0838500690086728e-06,1.7733491409839562e-05,7.3957090422033707e-06,8.6105052564568485e-06,1.5890659413398521e-05,1.945910149055313,-0.012745099496596943,0.91634052345749961,-0.0026057651943588445,0,4,2
1480301220,1.7545590923723542,42.338759224788475,-71.088206575564016,65.0,0.029242651539539238,3.5289124521157501e-06,1.7733491409839562e-05,8.3686519692093058e-06,9.2453323080610941e-06,1.5537782317369435e-05,1.945910149055313,-0.012620188688366715,0.91440944523100653,-0.0025190372514427442,0,4,2
1480301250,3.108656018366822,42.33876351971621,-71.088207136007782,65.0,0.051810933639447034,3.4944510088732002e-06,2.009891988278366e-05,9.6383060724178004e-06,1.1389501186853629e-05,1.5935899079050571e-05,1.7917594692280547,-0.012804334462856582,0.91261985276486968,-0.0024621971391479234,0,4,2
1480301280,0.499856665943267,42.338762558590297,-71.088213803763608,65.0,0.008330944432387783,3.3968241134189772e-06,2.009891988278366e-05,1.0454478980350268e-05,1.1018149373477575e-05,1.4159921019145063e-05,1.945910149055313,-0.012759331594644485,0.91215265833344739,-0.0024668558572132761,0,4,2
1480301310,3.4692227298625986,42.338754237461437,-71.088205755630625,65.0,0.05782037883104331,1.8410126802849803e-06,1.4510738909131855e-05,8.13397341071251e-06,1.0827957722021524e-05,1.2384632995320546e-05,1.945910149055313,-0.012756155682189071,0.91202802065632704,-0.0024905317210358901,0,4,2
1480301340,1.9358862554565894,42.338748650190801,-71.088193406123281,65.0,0.032264770924276494,2.5661367234526466e-06,1.5443317088261387e-05,8.13397341071251e-06,1.1361725316315911e-05,1.4729102805778192e-05,1.7917594692280547,-0.012711270342006732,0.91170242020039038,-0.0025510085628657783,0,4,2
1480301370,0.7429230504089755,42.338744336444215,-71.088185535284822,65.0,0.012382050840149593,2.8652420355518646e-06,1.5997232441598808e-05,7.6578833412337011e-06,1.2124420174276351e-05,1.5550376032497192e-05,1.945910149055313,-0.012759175380589441,0.91119560673793121,-0.0025223254894311603,0,4,2
1480301400,2.1051611672126893,42.338746702946381,-71.088189213963886,65.0,0.03508601945354482,3.3854154658270242e-06,1.7120884199905065e-05,7.6578833412337011e-06,1.0306669921539831e-05,1.5827333709165901e-05,1.945910149055313,-0.013516763839939586,0.91117811247427383,-0.0025621267275772529,0,4,2
1480301430,1.6942334742031795,42.338755715912001,-71.088199968623343,65.0,0.028237224570052993,3.4914845300349286e-06,1.8597175079100067e-05,8.8859740290166296e-06,1.1638343296352919e-05,1.6912995430748233e-05,1.7917594692280547,-0.014135126536239698,0.91143203295257624,-0.0026275316538618052,0,4,2
1480301460,0.9970009694654555,42.338756248290935,-71.088203509327698,65.0,0.01661668282442426,4.2334006547309488e-06,1.8597175079100067e-05,7.044265330111798e-06,9.2647107036299562e-06,1.6510422825718099e-05,1.945910149055313,-0.013823053286508086,0.91143195627433482,-0.0026259281690136985,0,4,2
1480301490,0.6260535288076986,42.338749084045432,-71.08819779119689,65.0,0.01043422548012831,4.6872933249932884e-06,1.826339069041142e-05,4.8781508356449646e-06,7.3831790860908515e-06,1.4943741074853917e-05,1.945910149055313,-0.013915047659201084,0.91164812578850196,-0.0026215543222443301,0,4,2
1480301520,2.0805038602021795,42.338743467861164,-71.088191059417881,65.0,0.03467506433670299,5.7432589193168601e-06,1.826339069041142e-05,4.5177696636997872e-06,5.2647426305044086e-06,1.6306197355580743e-05,1.7917594692280547,-0.013690855820786834,0.91122722220290442,-0.0024961695530146231,0,4,2
1480301550,2.239521951713868,42.338750103400351,-71.088200429426891,65.0,0.0373253658618978,7.9565848352963628e-06,3.0521663025899626e-05,4.5177696636997872e-06,1.128662629799845e-05,1.7868630039278486e-05,1.945910149055313,-0.013654253743476702,0.90857047010622227,-0.002518259906256697,0,4,2
1480301580,2.2005080864498314,42.338757798645354,-71.088207615243178,65.0,0.036675134774163856,7.3152037960153276e-06,3.0521663025899626e-05,6.2441147746026331e-06,1.2374281354520442e-05,1.8690562201333026e-05,1.945910149055313,-0.013478110957435016,0.90586720873319249,-0.0025759910469271658,0,4,2
1480301610,0.0,nan,nan,nan,0.0,4.7729272851558077e-06,1.9000138924366956e-05,5.9146882256024711e-06,6.7398276012548924e-06,1.3076159440226216e-05,1.7917594692280547,-0.013003438724963632,0.90435170578423818,-0.00253920046893378,0,4,2
