TIMESTAMP,DISTANCE,AVG_LAT,AVG_LNG,GPS_ACCURACY,AVG_SPEED_BY_GPS,ACCLERATOR_STD,MAX_ACCLERATOR,MIN_ACCLERATOR,PERCENTILE_25_ACCLERATOR,PERCENTILE_75_ACCLERATOR,ACCLERATOR_ENTROPY,AVG_ROLL,AVG_YAW,AVG_PITCH,WEEK_DAY
1479307680,11.292618292060556,42.331512479586443,-71.109966439246037,12.12962962962963,0.18821030486767593,0.0052419803915647297,0.014105114288217056,2.9806621224463823e-05,3.3448829233506224e-05,4.8156453488301331e-05,1.7105600837579242,0.030924416652112,-0.4518263160004044,0.039341756802056531,3
1479307710,0.0,42.331508304963208,-71.109971785984101,10.0,0.0,8.5018477209682094e-06,4.8383037675690151e-05,2.7357013413056723e-05,2.9070190647910718e-05,4.5200661203923401e-05,1.945910149055313,0.013407596565119187,-0.56631442064025739,0.021061647568681247,3
1479307740,0.0,42.331508304963208,-71.109971785984101,10.0,0.0,5.0678268415718085e-06,4.2924621481711936e-05,2.7357013413056723e-05,2.8583575122317748e-05,3.4385269049276555e-05,1.945910149055313,0.0135922457307466,-0.56568107245698118,0.021033815612886669,3
1479307770,0.0,42.331508304963208,-71.109971785984101,10.0,0.0,3.8072068939232876e-06,3.809246085831119e-05,2.695927196541097e-05,2.9161605008246942e-05,3.4143278073030403e-05,1.7917594692280547,0.013766578580338302,-0.56537738411008553,0.021026525366687965,3
1479307800,0.0,42.331508304963208,-71.109971785984101,10.0,0.0,3.3374555413530109e-06,3.809246085831119e-05,2.695927196541097e-05,3.0447320595523851e-05,3.3462851109355539e-05,1.945910149055313,0.013893922241304656,-0.56604346443917641,0.020991147465392102,3
1479307830,0.0,42.331508304963208,-71.109971785984101,10.0,0.0,2.5250360476655663e-06,3.5015485654257928e-05,2.691790040415337e-05,3.0468468729658752e-05,3.3570841726939497e-05,1.945910149055313,0.013962252985008056,-0.56623731836685043,0.020960967471734444,3
1479307860,0.0,42.331508304963208,-71.109971785984101,10.0,0.0,3.8310949126582943e-06,3.7394449784109658e-05,2.691790040415337e-05,2.935327746946179e-05,3.5303477735243052e-05,1.7917594692280547,0.014066553387742951,-0.56620804351510856,0.020947111837539733,3
1479307890,0.0,42.331508304963208,-71.109971785984101,10.0,0.0,3.6956568614804957e-06,3.7394449784109658e-05,2.8056181418150393e-05,2.8151134761788868e-05,3.349433572662793e-05,1.945910149055313,0.014151754013616099,-0.56651830203793818,0.020924225141172814,3
1479307920,0.0,42.331508304963208,-71.109971785984101,10.0,0.0,2.8543054790760492e-06,3.1993547003390029e-05,2.3197034652279495e-05,2.8151134761788868e-05,3.1488837383175734e-05,1.945910149055313,0.014192128115756314,-0.5665758582580237,0.020918368769928482,3
1479307950,0.0,42.331508304963208,-71.109971785984101,10.0,0.0,4.5621267980364655e-06,3.744958638585256e-05,2.3197034652279495e-05,2.71283724770979e-05,3.1935477173357195e-05,1.7917594692280547,0.014209862479864518,-0.56633463584957766,0.020923424247549199,3
1479307980,0.0,42.331508304963208,-71.109971785984101,10.0,0.0,5.1250059435332667e-06,4.0705663527587506e-05,2.6009547392950728e-05,2.7501911452630187e-05,3.422815109823646e-05,1.945910149055313,0.014280114575862545,-0.56618690145449013,0.020906129192825758,3
1479308010,0.0,42.331508304963208,-71.109971785984101,10.0,0.0,5.7070865979516021e-06,4.0705663527587506e-05,2.2767488401574355e-05,2.7501911452630187e-05,3.4162971882091138e-05,1.945910149055313,0.014505488875958941,-0.56673862208225534,0.020932503972510116,3
1479308040,0.0,42.331508304963208,-71.109971785984101,10.0,0.0,8.8612117816699482e-06,4.9396532710549459e-05,2.2767488401574355e-05,2.6044245073324966e-05,3.5857286067365033e-05,1.7917594692280547,0.014822557500415501,-0.56750800494973508,0.020966377578360649,3
1479308070,0.0,42.331508304963208,-71.109971785984101,10.0,0.0,9.0362426746780782e-06,4.9396532710549459e-05,2.2732327888145019e-05,2.6142271642871521e-05,3.7523521750601517e-05,1.945910149055313,0.01495921978946123,-0.56766932041949836,0.020923328079519816,3
1479308100,0.0,42.331508304963208,-71.109971785984101,10.0,0.0,6.5087224950700861e-06,4.2826021856313152e-05,2.2732327888145019e-05,2.4132910277687508e-05,3.1660822818528622e-05,1.945910149055313,0.0149220177357019,-0.56744098447909408,0.02089273013255381,3
1479308130,0.0,42.331508304963208,-71.109971785984101,10.0,0.0,6.8786654955828177e-06,3.6548936681929438e-05,1.4465489831400282e-05,2.3618535822924567e-05,3.0425148791626041e-05,1.7917594692280547,0.014852187649946251,-0.56722667683139372,0.020876450492177467,3
1479308160,0.0,42.331508304963208,-71.109971785984101,10.0,0.0,6.3449984041536263e-06,3.6548936681929438e-05,1.4465489831400282e-05,2.145835331910141e-05,2.7144738641909535e-05,1.945910149055313,0.014884331191161228,-0.56748818996286099,0.020915034736744519,3
1479308190,0.0,42.331508304963208,-71.109971785984101,10.0,0.0,2.1530395143858057e-06,2.6477643638088211e-05,2.0927858721144988e-05,2.145835331910141e-05,2.5468662655546596e-05,1.945910149055313,0.014917635828380241,-0.56756695122655987,0.020899569386857383,3
1479308220,0.0,42.331508304963208,-71.109971785984101,10.0,0.0,3.1113787270205676e-06,2.7757973289404904e-05,1.9849789108515154e-05,2.0287377370603066e-05,2.5819987222545362e-05,1.7917594692280547,0.01495430089856465,-0.56781738582829766,0.020819745860906871,3
1479308250,3.5592454821046466,42.331512252839595,-71.109968852317991,10.0,0.05932075803507744,5.1680845450243953e-06,2.8861440898748812e-05,1.2097404364503063e-05,1.9961836347802124e-05,2.4619846048651313e-05,1.945910149055313,0.0149850055648213,-0.56845498791461535,0.020800240072944742,3
1479308280,3.5592454821046466,42.331531992221556,-71.109954183987441,10.0,0.05932075803507744,5.6408876249221475e-06,3.0085050753545779e-05,1.2097404364503063e-05,2.1147496371475294e-05,2.764338703418187e-05,1.945910149055313,0.015001691516106684,-0.56848801934197302,0.020833489867811413,3
1479308310,0.0,42.331547783727117,-71.109942449323,10.0,0.0,5.9172199579368508e-06,3.0085050753545779e-05,1.3867850595710311e-05,1.6421973368834272e-05,2.5742332789765361e-05,1.7917594692280547,0.014989415362314499,-0.56827506811469652,0.020866595048885866,3
1479308340,0.0,42.331547783727117,-71.109942449323,10.0,0.0,5.1702066149903616e-06,2.9555501363829153e-05,1.3867850595710311e-05,1.6640149570779237e-05,2.3798626594037776e-05,1.945910149055313,0.014993398815593901,-0.5684685746794037,0.020836094196207158,3
1479308370,0.0,42.331547783727117,-71.109942449323,10.0,0.0,6.2009223009032914e-06,3.5379837234698184e-05,1.688151769811574e-05,1.9326518942498685e-05,2.6729711450844022e-05,1.945910149055313,0.015027765884472757,-0.56857752547120444,0.02084170336717233,3
1479308400,0.0,42.331547783727117,-71.109942449323,10.0,0.0,6.9832265045146512e-06,3.5379837234698184e-05,1.6775346257534883e-05,1.7671037771698855e-05,2.9272961572008921e-05,1.7917594692280547,0.015009801874515666,-0.56895609818037629,0.020841103664149097,3
1479308430,0.0,42.331547783727117,-71.109942449323,10.0,0.0,5.6826691692064237e-06,3.0051265637001589e-05,1.5377077595529552e-05,1.8872179069487989e-05,2.8691937463626377e-05,1.945910149055313,0.015025530723883426,-0.56936378924837083,0.020785302817027444,3
1479308460,0.0,42.331547783727117,-71.109942449323,10.0,0.0,4.9365596609212662e-06,2.942330010814216e-05,1.5377077595529552e-05,1.9288046902781791e-05,2.7233521602476443e-05,1.945910149055313,0.015100272344423486,-0.5694699076270705,0.020723394075043398,3
1479308490,0.0,42.331547783727117,-71.109942449323,10.0,0.0,2.9981911667654195e-06,2.6506468385842295e-05,1.7607081924122491e-05,2.065450989707924e-05,2.4583615244803547e-05,1.7917594692280547,0.015205848169291034,-0.56978281366219929,0.020726128642974066,3
1479308520,0.0,42.331547783727117,-71.109942449323,10.0,0.0,2.802713947592443e-06,2.6294866414832717e-05,1.8072664676664124e-05,1.95914234290712e-05,2.3244879113755069e-05,1.945910149055313,0.015245206708228373,-0.57009828600123513,0.020753297339778327,3
1479308550,0.0,42.331547783727117,-71.109942449323,10.0,0.0,3.0692674685739065e-06,2.6294866414832717e-05,1.8072664676664124e-05,1.8721462190845301e-05,2.3331658949639284e-05,1.945910149055313,0.015182712892698373,-0.57005915845463451,0.020704136613871299,3
1479308580,0.0,42.331547783727117,-71.109942449323,10.0,0.0,2.1498375192632964e-06,2.4913969606548358e-05,1.8850498473430143e-05,1.9051675350250791e-05,2.1626341491860383e-05,1.7917594692280547,0.015188358906674934,-0.56998407312793897,0.020721507854099583,3
1479308610,0.0,42.331547783727117,-71.109942449323,10.0,0.0,2.3989935047160664e-06,2.4800731617136624e-05,1.6464654245270956e-05,1.9671840097410517e-05,2.180876957694614e-05,1.945910149055313,0.015264408437119755,-0.57001979301345829,0.020722865503829627,3
1479308640,0.0,42.331547783727117,-71.109942449323,10.0,0.0,5.1182813590018326e-06,3.1545676564043942e-05,1.6259580366376015e-05,1.6857777822916825e-05,2.3243349941997781e-05,1.945910149055313,0.015251156461829871,-0.57016925700811238,0.020670844022708714,3
1479308670,0.0,42.331547783727117,-71.109942449323,10.0,0.0,5.0342693270459893e-06,3.1545676564043942e-05,1.6259580366376015e-05,1.789555441374424e-05,2.1950128248902548e-05,1.7917594692280547,0.015286650114679468,-0.57060412218990586,0.020660960221028413,3
1479308700,0.0,42.331547783727117,-71.109942449323,10.0,0.0,5.2479059763943623e-06,2.4534686967188947e-05,8.2246277863650235e-06,1.6346858082981937e-05,2.1323965667176281e-05,1.945910149055313,0.015377033019886743,-0.57071461251139977,0.02065171916208286,3
1479308730,0.0,42.331547783727117,-71.109942449323,10.0,0.0,5.7852042292280824e-06,2.5461436699825538e-05,8.2246277863650235e-06,1.476082627652086e-05,2.3037996284674392e-05,1.945910149055313,0.015388614087334371,-0.5707658251020844,0.020649592351898803,3
1479308760,0.0,42.331547783727117,-71.109942449323,10.0,0.0,3.1690195089359237e-06,2.5461436699825538e-05,1.6415856579385548e-05,1.7932074486401548e-05,2.2657538207181713e-05,1.7917594692280547,0.01543866092240965,-0.57099034138222537,0.020724270478616066,3
1479308790,0.0,42.331547783727117,-71.109942449323,10.0,0.0,2.8059079480204013e-06,2.5405158068579562e-05,1.6920022980628011e-05,1.813932637447341e-05,2.2021604001976372e-05,1.945910149055313,0.015452832791775187,-0.57019220560759309,0.020701126179355583,3
1479308820,0.0,42.331547783727117,-71.109942449323,10.0,0.0,2.3940557992974385e-06,2.5405158068579562e-05,1.6920022980628011e-05,2.0059830711383937e-05,2.1940373388148715e-05,1.945910149055313,0.015416405869071342,-0.56957737018272681,0.020647810145173286,3
1479308850,0.0,42.331547783727117,-71.109942449323,10.0,0.0,3.7403141165759341e-06,2.2463102975438271e-05,1.2482200862001656e-05,1.4673010879669217e-05,2.106988205952191e-05,1.7917594692280547,0.015461137040642217,-0.56961545690947302,0.020648932850128199,3
1479308880,0.0,42.331547783727117,-71.109942449323,10.0,0.0,4.1004902593177308e-06,2.6008458316818612e-05,1.2482200862001656e-05,1.5147265327001387e-05,1.910881278177313e-05,1.945910149055313,0.015550701482704302,-0.56923055521890531,0.020662726687714874,3
1479308910,0.0,42.331547783727117,-71.109942449323,10.0,0.0,6.0926530209699937e-06,3.4471633862267689e-05,1.6250990450268522e-05,1.7640175138396746e-05,2.5684283104512818e-05,1.945910149055313,0.015586774907585917,-0.56927897487252654,0.02064573200444747,3
1479308940,0.0,42.331547783727117,-71.109942449323,10.0,0.0,5.773018192025912e-06,3.4471633862267689e-05,1.6719490540967039e-05,1.9783672060651643e-05,2.4285695854877756e-05,1.7917594692280547,0.0156117875831013,-0.56990517090411474,0.020637821595574334,3
1479308970,0.0,42.331547783727117,-71.109942449323,10.0,0.0,3.5498972779776741e-06,2.106245974288995e-05,1.0454326838478086e-05,1.547605074558791e-05,1.9992589617573093e-05,1.945910149055313,0.015622025994900269,-0.57031382187825497,0.020633281306528899,3
1479309000,0.0,42.331547783727117,-71.109942449323,10.0,0.0,4.3871201329334156e-06,2.4738603181365724e-05,1.0454326838478086e-05,1.5160100878837453e-05,2.0545953409095251e-05,1.945910149055313,0.015581128365551656,-0.57041556320037357,0.020588794707756271,3
1479309030,0.0,42.331547783727117,-71.109942449323,10.0,0.0,4.5560558902380562e-06,2.6617253255342081e-05,1.4310943807226508e-05,1.6074130266176022e-05,2.3840229401119366e-05,1.7917594692280547,0.015608398421572934,-0.57046501806088823,0.020610962554780551,3
1479309060,0.0,42.331547783727117,-71.109942449323,10.0,0.0,3.7433930706561783e-06,2.6617253255342081e-05,1.4310943807226508e-05,1.6167236204134708e-05,1.8834360319648707e-05,1.945910149055313,0.015681161251164359,-0.57101693153338429,0.02062548844770077,3
1479309090,0.0,42.331547783727117,-71.109942449323,10.0,0.0,3.8897486375923246e-06,2.6675997152313853e-05,1.4665159837502898e-05,1.5053873025681024e-05,1.8609721582025686e-05,1.945910149055313,0.015681763575790701,-0.57134672059195324,0.0205918267640662,3
1479309120,0.0,42.331547783727117,-71.109942449323,10.0,0.0,6.5106635986273114e-06,3.3121102297515419e-05,1.4665159837502898e-05,1.6206983971639784e-05,2.5132694750430745e-05,1.7917594692280547,0.015719853776210185,-0.57168389607058956,0.020598308626452216,3
1479309150,0.0,42.331547783727117,-71.109942449323,10.0,0.0,6.1332388082157886e-06,3.3121102297515419e-05,1.3999888314755924e-05,1.479617326764643e-05,2.0526340979467433e-05,1.945910149055313,0.015731182872886516,-0.57176705482208501,0.020598537513841102,3
1479309180,0.0,42.331547783727117,-71.109942449323,10.0,0.0,2.6542968291007524e-06,2.0549894414153441e-05,1.3438657524197483e-05,1.4003878263869348e-05,1.8721344597414574e-05,1.945910149055313,0.015717082880998101,-0.57162105543274333,0.020563508077486727,3
1479309210,0.0,42.331547783727117,-71.109942449323,10.0,0.0,5.5336866236256231e-06,2.8935635383199894e-05,1.293556602834403e-05,1.3562676854482562e-05,1.8947125331364326e-05,1.7917594692280547,0.015723616825383365,-0.57168380216519077,0.020530188404466999,3
1479309240,0.0,42.331547783727117,-71.109942449323,10.0,0.0,5.931418904714128e-06,2.8935635383199894e-05,1.1529450566647962e-05,1.2298874752131393e-05,2.0061600986347022e-05,1.945910149055313,0.01577653644253136,-0.57184093794502344,0.020527478361671816,3
1479309270,0.0,42.331547783727117,-71.109942449323,10.0,0.0,9.3742281322705448e-06,4.1064594581649539e-05,1.1529450566647962e-05,1.3369775332878048e-05,2.1522487427910474e-05,1.945910149055313,0.017208472021020441,-0.64152992973679157,0.018951673083264765,3
1479309300,0.0,42.331547783727117,-71.109942449323,10.0,0.0,0.0003159493038833119,0.00087502381778759367,1.5077367189837338e-05,2.3574842914538171e-05,3.8770317176032661e-05,1.7917594692280547,0.066211946892662452,-0.97447471905101979,0.048975611086802512,3
1479309330,0.0,42.331547783727117,-71.109942449323,10.0,0.0,0.00029802313742062454,0.00087502381778759367,1.5251472608807456e-05,2.1225921368808771e-05,2.9526661625572019e-05,1.945910149055313,0.032112570472660466,-1.29847139789299,-0.04303673285189457,3
1479309360,0.0,42.331547783727117,-71.109942449323,10.0,0.0,4.7079802779180558e-06,2.4021965644644967e-05,9.7084007367909604e-06,1.4198846077676848e-05,2.1225921368808771e-05,1.945910149055313,-0.028840181419242859,-1.3615831471338744,-0.13616205443506771,3
1479309390,0.0,42.331547783727117,-71.109942449323,10.0,0.0,2.9456089851091145e-06,1.7178757671412898e-05,9.4641563693303576e-06,1.0195035190589969e-05,1.5351466826370152e-05,1.7917594692280547,-0.029579449423638094,-1.3615246167060266,-0.13554743660005916,3
1479309420,0.0,42.331547783727117,-71.109942449323,10.0,0.0,1.6178422373785046e-05,4.99685411976639e-05,9.4641563693303576e-06,1.387074390248256e-05,3.360810690813948e-05,1.945910149055313,-0.030404694629671988,-1.3608290734840516,-0.13479424104701873,3
1479309450,0.0,42.331547783727117,-71.109942449323,10.0,0.0,1.4499807870616478e-05,4.99685411976639e-05,1.4789500269971416e-05,1.7527386588197825e-05,3.5616356444835662e-05,1.945910149055313,-0.030534797926168842,-1.3607938562111574,-0.13475436638833099,3
1479309480,0.0,42.331547783727117,-71.109942449323,10.0,0.0,3.7936790310407288e-06,2.3960874508281546e-05,1.3320396459862459e-05,1.5575268679793287e-05,2.1520492900515431e-05,1.7917594692280547,-0.029585602999955014,-1.3614658229361651,-0.13532342917769635,3
1479309510,0.0,42.331547783727117,-71.109942449323,10.0,0.0,5.9229216335126892e-06,2.553272666828716e-05,8.9804891099078542e-06,1.2522173668939076e-05,2.2403613139789519e-05,1.945910149055313,-0.028503667158608158,-1.3615205387811098,-0.13612321248955656,3
1479309540,0.0,42.331547783727117,-71.109942449323,10.0,0.0,5.2805119118179791e-06,2.553272666828716e-05,8.9804891099078542e-06,1.1379490143319165e-05,1.7425542484066491e-05,1.945910149055313,-0.022461414865634129,-1.3242761936927785,-0.13887633903173216,3
1479309570,0.0,42.331547783727117,-71.109942449323,10.0,0.0,6.4343505082285136e-06,3.1838042481106729e-05,1.1035029408622639e-05,1.5609722892269861e-05,1.989124687485166e-05,1.7917594692280547,-0.00060083765516346678,-1.1881061128830632,-0.14807322401469217,3
1479309600,0.0,42.331547783727117,-71.109942449323,10.0,0.0,6.9860871641235628e-05,0.00022247483796872776,1.7023068866741414e-05,2.0077121443133535e-05,2.9349622444440106e-05,1.945910149055313,0.013094158262075528,-1.1011840765130201,-0.15373090052273855,3
1479309630,0.0,42.331547783727117,-71.109942449323,10.0,0.0,6.8694815650102936e-05,0.00022247483796872776,2.0203406186693851e-05,2.42916118222931e-05,3.2212950277477363e-05,1.945910149055313,0.012577998930256271,-1.1009161827230742,-0.15353823206565928,3
1479309660,0.0,42.331547783727117,-71.109942449323,10.0,0.0,6.1440036215334311e-06,3.7564698147181235e-05,1.8950404750509032e-05,2.094568353772332e-05,2.6364817727294969e-05,1.7917594692280547,0.012059776738505701,-1.1007374693904717,-0.15339455191710186,3
1479309690,0.0,42.331547783727117,-71.109942449323,10.0,0.0,2.4601673149672392e-06,2.1905776416983838e-05,1.4227271973593912e-05,1.9300931437012224e-05,2.1367460196774826e-05,1.945910149055313,0.011982989814587158,-1.1009248258048283,-0.15333957024067971,3
1479309720,0.0,42.331547783727117,-71.109942449323,10.0,0.0,2.6815685505275884e-06,2.1903319769486149e-05,1.4227271973593912e-05,1.6198796029632378e-05,2.0367959107808781e-05,1.945910149055313,0.011922325604658343,-1.1008889046965356,-0.15338964914989456,3
1479309750,0.0,42.331547783727117,-71.109942449323,10.0,0.0,9.3437541528354988e-06,3.5841074663715861e-05,7.3786287917667384e-06,1.5808240319879206e-05,2.6988623299952412e-05,1.7917594692280547,0.0092249094007615575,-1.1002635276317949,-0.15194578085518151,3
1479309780,0.0,42.331547783727117,-71.109942449323,10.0,0.0,8.1882983704765414e-06,3.5841074663715861e-05,7.3786287917667384e-06,2.255828112358628e-05,2.8536597281654002e-05,1.945910149055313,0.0065186970957543449,-1.0999684523012385,-0.15038582499774397,3
1479309810,0.0,42.331547783727117,-71.109942449323,10.0,0.0,4.2549527894646032e-06,2.8969610598496213e-05,1.5206295567381237e-05,2.1863714722226959e-05,2.6306215592401596e-05,1.945910149055313,0.0065075055480469535,-1.1003655504197216,-0.15034200544095658,3
1479309840,0.0,42.331547783727117,-71.109942449323,10.0,0.0,5.1102170399202296e-06,2.8969610598496213e-05,1.5206295567381237e-05,1.8090793869868895e-05,2.6755186138637372e-05,1.7917594692280547,0.0065458309577973994,-1.1007621440638367,-0.15032982572057668,3
1479309870,0.0,42.331547783727117,-71.109942449323,10.0,0.0,4.0209153829108247e-06,2.8031315873005235e-05,1.7068642115865209e-05,1.8044450849966588e-05,2.5119105572895587e-05,1.945910149055313,0.0065036288735864358,-1.1009194853336344,-0.15028762797554457,3
1479309900,0.0,42.331547783727117,-71.109942449323,10.0,0.0,4.0731633331871961e-06,2.6917261639403177e-05,1.5855823227507376e-05,1.8044450849966588e-05,2.5119105572895587e-05,1.945910149055313,0.0064814960763383486,-1.1008110720046445,-0.15028811821756113,3
1479309930,0.0,42.331547783727117,-71.109942449323,10.0,0.0,5.5440156571459261e-06,2.7056789681888751e-05,1.187267572460799e-05,1.6434799288959745e-05,2.5058316625826879e-05,1.7917594692280547,0.0064614531664494088,-1.1007099073335183,-0.15031307335172603,3
1479309960,0.0,42.331547783727117,-71.109942449323,10.0,0.0,6.88642261980152e-06,3.2282667894550003e-05,1.187267572460799e-05,1.7014108578475878e-05,2.7564467249926442e-05,1.945910149055313,0.0063823362758984713,-1.1005978660802243,-0.15030258102538543,3
1479309990,0.0,42.331547783727117,-71.109942449323,10.0,0.0,4.9964886214288092e-06,3.2282667894550003e-05,1.5856489683634897e-05,2.2587225871268194e-05,2.8490793417402511e-05,1.945910149055313,0.0063601468183150109,-1.1004261155133672,-0.1503111272361343,3
1479310020,0.0,42.331547783727117,-71.109942449323,10.0,0.0,5.1801936309464635e-06,2.8909442016840885e-05,1.373110874194169e-05,1.6242888539690255e-05,2.3035098726469266e-05,1.7917594692280547,0.0063586099841485095,-1.1005573778422635,-0.15031173083282767,3
1479310050,0.0,42.331547783727117,-71.109942449323,10.0,0.0,3.0547770860017149e-06,2.2509851685373225e-05,1.373110874194169e-05,1.6302851086622511e-05,2.1282289243892439e-05,1.945910149055313,0.0063723988348626586,-1.10079845683329,-0.15034833263165756,3
1479310080,0.0,42.331547783727117,-71.109942449323,10.0,0.0,1.1889177708626404e-06,2.2509851685373225e-05,1.8899621650574035e-05,1.9985836136495117e-05,2.1737679539529456e-05,1.945910149055313,0.0063307881265594473,-1.1011311171521341,-0.15037876305719886,3
1479310110,0.0,42.331547783727117,-71.109942449323,10.0,0.0,2.2697694500964955e-06,2.5024856378228605e-05,1.8899621650574035e-05,2.057474658178062e-05,2.4156460495323735e-05,1.7917594692280547,0.0062793051181825208,-1.1013453302899083,-0.15037285446527082,3
1479310140,0.0,42.331547783727117,-71.109942449323,10.0,0.0,4.5246267107871549e-06,2.706612985870495e-05,1.3397649505806705e-05,1.8097273363116221e-05,2.4994710585217618e-05,1.945910149055313,0.0062551067828425112,-1.1009478130196828,-0.15037490580983201,3
1479310170,0.0,42.331547783727117,-71.109942449323,10.0,0.0,4.3572211242109683e-06,2.706612985870495e-05,1.3397649505806705e-05,1.4589856865075273e-05,1.9086609058215174e-05,1.945910149055313,0.0061932652409669563,-1.1006891871381286,-0.15037636694810744,3
1479310200,0.0,42.331547783727117,-71.109942449323,10.0,0.0,4.6418174533413338e-06,2.5068737836427204e-05,1.2445338055946836e-05,1.4087194436142396e-05,2.179720940894934e-05,1.7917594692280547,0.0061484131054978007,-1.1005983274671716,-0.15035562242806347,3
1479310230,0.0,42.331547783727117,-71.109942449323,10.0,0.0,4.9570150975376061e-06,2.630451977653325e-05,1.2445338055946836e-05,1.5226652741600449e-05,2.3723317619754573e-05,1.945910149055313,0.0062103695046659708,-1.1002910607233571,-0.15035728626459186,3
1479310260,0.0,42.331547783727117,-71.109942449323,10.0,0.0,5.8660631697800353e-06,3.1480194313045157e-05,1.507776142249249e-05,1.6793629678808661e-05,2.6309454735477993e-05,1.945910149055313,0.0061901209005514671,-1.1003399074737701,-0.15036033862983528,3
1479310290,0.0,42.331547783727117,-71.109942449323,10.0,0.0,5.2889489004214408e-05,0.00016300143712838088,1.3666420898155151e-05,1.8637699958139319e-05,3.0188743158389549e-05,1.7917594692280547,0.0022413799921120257,-1.0314108685265659,-0.14908702811747684,3
1479310320,0.0,42.331547783727117,-71.109942449323,10.0,0.0,5.0332084187877053e-05,0.00016300143712838088,1.3666420898155151e-05,1.6621207788070234e-05,2.6822713940762156e-05,1.945910149055313,-0.0090447760813649764,-0.80360221483994265,-0.14537028391100412,3
1479310350,0.0,42.331547783727117,-71.109942449323,10.0,0.0,6.2308471637721034e-06,3.2340650679685919e-05,1.1112640829974463e-05,1.6469441565453748e-05,2.1846048620620002e-05,1.945910149055313,-0.014558683217476715,-0.68441056793023647,-0.14352403390136928,3
1479310380,0.0,42.331547783727117,-71.109942449323,10.0,0.0,3.4855390869427841e-06,2.2387320039401604e-05,1.1112640829974463e-05,1.7955584805556526e-05,1.9842491128064311e-05,1.7917594692280547,-0.014433687230209916,-0.68423806392005238,-0.14357274568209719,3
1479310410,0.0,42.331547783727117,-71.109942449323,10.0,0.0,2.4954526740625251e-06,2.5102078452505859e-05,1.7587369820827498e-05,1.8752929155029446e-05,2.206275849552246e-05,1.945910149055313,-0.014417626133486199,-0.68475137773166384,-0.14360630598844373,3
1479310440,0.0,42.331547783727117,-71.109942449323,10.0,0.0,3.6074847703028848e-06,2.5102078452505859e-05,1.4879056635442331e-05,1.6422753614022348e-05,2.206275849552246e-05,1.945910149055313,-0.014429729844549459,-0.68455331797697561,-0.14360560983748011,3
1479310470,0.0,42.331547783727117,-71.109942449323,10.0,0.0,2.5396429081078125e-06,2.1203628462753281e-05,1.4270573791574524e-05,1.4973826828386047e-05,1.8950483008940481e-05,1.7917594692280547,-0.014336929325214685,-0.68389917863975247,-0.14365674553563149,3
1479310500,0.0,42.331547783727117,-71.109942449323,10.0,0.0,3.8854148143517625e-06,2.5378586814171091e-05,1.3693477277334942e-05,1.489710900220667e-05,2.0311569404914274e-05,1.945910149055313,-0.014228187670055941,-0.6841589878739508,-0.14364998047908314,3
1479310530,0.0,42.331547783727117,-71.109942449323,10.0,0.0,4.0823998300436126e-06,2.5378586814171091e-05,1.3693477277334942e-05,1.542303621869031e-05,2.2199096363258927e-05,1.945910149055313,-0.014219473799422287,-0.68457092832254018,-0.14359773790719127,3
1479310560,0.0,42.331547783727117,-71.109942449323,10.0,0.0,4.1325699887267839e-06,2.3012940805593169e-05,1.0096784881019046e-05,1.6077860801457368e-05,2.0202839441291178e-05,1.7917594692280547,-0.014224040744211,-0.68494862855719241,-0.1435690552456225,3
1479310590,0.0,42.331547783727117,-71.109942449323,10.0,0.0,3.9521963078690764e-06,2.0512629376783474e-05,9.2473152778291985e-06,1.2356556347780746e-05,1.8056287850179596e-05,1.945910149055313,-0.014218264761447844,-0.68519065451211514,-0.14359345282401673,3
1479310620,0.0,42.331547783727117,-71.109942449323,10.0,0.0,4.4974311914383147e-06,2.2980503722482003e-05,8.9522910763612461e-06,1.1931821546185824e-05,1.6985336055466096e-05,1.945910149055313,-0.014190608846788586,-0.68525680460513583,-0.14359024710699056,3
1479310650,0.0,42.331547783727117,-71.109942449323,10.0,0.0,4.7238053301054091e-06,2.2980503722482003e-05,8.9522910763612461e-06,1.5022502977368735e-05,2.1023879868742222e-05,1.7917594692280547,-0.014123423227357415,-0.68486363609018064,-0.14359193384479083,3
1479310680,0.0,42.331547783727117,-71.109942449323,10.0,0.0,3.0560862869060562e-06,2.1463984771836706e-05,1.1626363100814678e-05,1.553149646019048e-05,1.905327643701079e-05,1.945910149055313,-0.014127408404238987,-0.68468778281686327,-0.14364870810719457,3
1479310710,0.0,42.331547783727117,-71.109942449323,10.0,0.0,3.1682757253386689e-06,2.2946604467073628e-05,1.1626363100814678e-05,1.7022537655897425e-05,1.9078034964300507e-05,1.945910149055313,-0.014141050608166001,-0.68470877528751672,-0.14370547581455101,3
1479310740,0.0,42.331547783727117,-71.109942449323,10.0,0.0,4.4886459355840165e-06,2.2946604467073628e-05,8.563949760564392e-06,1.4828759385263726e-05,1.9169474234054765e-05,1.7917594692280547,-0.014169899224770481,-0.68467897039194847,-0.14376716805292866,3
1479310770,0.0,42.331547783727117,-71.109942449323,10.0,0.0,5.0023671821071788e-06,2.6588030472998603e-05,8.563949760564392e-06,1.4613737524251891e-05,1.6370497660434432e-05,1.945910149055313,-0.014182959717194443,-0.68456197896966908,-0.14374419697021298,3
1479310800,0.0,42.331547783727117,-71.109942449323,10.0,0.0,4.5359212462411497e-06,2.6588030472998603e-05,1.19584407233793e-05,1.3763116155564003e-05,1.6348588440444578e-05,1.945910149055313,-0.014160024488910444,-0.68454957942327876,-0.14374878335418631,3
1479310830,0.0,42.331547783727117,-71.109942449323,10.0,0.0,1.4906611379882722e-06,1.539328170223803e-05,1.1143966473399618e-05,1.2126337094053612e-05,1.43174564485673e-05,1.7917594692280547,-0.014137362363646716,-0.68509808484446533,-0.14377291107596715,3
1479310860,0.0,42.331547783727117,-71.109942449323,10.0,0.0,5.296350192060808e-06,2.6434080801038953e-05,1.1143966473399618e-05,1.401165395415729e-05,2.0509670491721412e-05,1.945910149055313,-0.014089601056721001,-0.68543242805583182,-0.14374666980141973,3
1479310890,0.0,42.331547783727117,-71.109942449323,10.0,0.0,5.4089475461077666e-06,2.731539342382639e-05,1.2668712178404526e-05,1.6451970204277075e-05,2.5592947922981698e-05,1.945910149055313,-0.015018566447529028,-0.68529699782666398,-0.14326703776466915,3
1479310920,0.0,42.331547783727117,-71.109942449323,10.0,0.0,5.2501464690470423e-06,2.731539342382639e-05,1.2668712178404526e-05,1.558578231233746e-05,2.2904178150668394e-05,1.7917594692280547,-0.016308928103603352,-0.6849970731755809,-0.142644286613583,3
1479310950,0.0,42.331547783727117,-71.109942449323,10.0,0.0,1.7504515750452326e-06,1.7361267467900264e-05,1.2099346311306792e-05,1.3296602000727948e-05,1.5851483397421593e-05,1.945910149055313,-0.016294284348303857,-0.685469571049102,-0.14264557427767402,3
1479310980,0.0,42.331547783727117,-71.109942449323,10.0,0.0,1.6792803332285253e-06,1.7471994486817067e-05,1.2099346311306792e-05,1.3296602000727948e-05,1.5253187985001886e-05,1.945910149055313,-0.0162951653363256,-0.68568119812673489,-0.142632195907718,3
1479311010,0.0,42.331547783727117,-71.109942449323,10.0,0.0,2.9725274209262524e-06,2.2727779806443493e-05,1.4608667069771755e-05,1.6291280296878282e-05,2.1268105601341514e-05,1.7917594692280547,-0.0163067243135924,-0.68544523407781632,-0.14261895056475749,3
1479311040,6.469033035065096,42.331553301813372,-71.109918281502217,10.0,0.10781721725108494,2.6548257790683691e-06,2.2727779806443493e-05,1.5556019907651904e-05,1.6553591538569798e-05,2.0877692104546281e-05,1.945910149055313,-0.016312585724661727,-0.68565730693329541,-0.14258523516516902,3
1479311070,6.469033035065096,42.33155992351687,-71.109889280117258,10.0,0.10781721725108494,1.8791104699846837e-06,2.0237801124576345e-05,1.342549098562799e-05,1.5897768351373998e-05,1.6887163336440374e-05,1.945910149055313,-0.016313344772655142,-0.68583351659806957,-0.14256342848011255,3
1479311100,0.0,42.331561027134121,-71.109884446553096,10.0,0.0,3.3344585605401589e-06,2.0237801124576345e-05,1.0027075729570988e-05,1.1920252995268982e-05,1.5733483239169271e-05,1.7917594692280547,-0.016287371828757797,-0.68549347707514918,-0.14259042079833353,3
1479311130,0.0,42.331561027134121,-71.109884446553096,10.0,0.0,2.7190527008110691e-06,1.9313267959533529e-05,1.0027075729570988e-05,1.2331891875774701e-05,1.4372349237198365e-05,1.945910149055313,-0.016297581268495773,-0.68518101819174049,-0.14260928252499386,3
1479311160,0.0,42.331561027134121,-71.109884446553096,10.0,0.0,2.1773345859219906e-06,1.9313267959533529e-05,1.3245276753066759e-05,1.4033305484528415e-05,1.7216553496403183e-05,1.945910149055313,-0.016327345298917516,-0.68531338224307792,-0.14256590905146954,3
1479311190,0.0,42.331561027134121,-71.109884446553096,10.0,0.0,3.7832737678423519e-06,2.5786723181102794e-05,1.5204156665946821e-05,1.6137700673515788e-05,2.1153194517477963e-05,1.7917594692280547,-0.016333992616522467,-0.68508625410458157,-0.14256291756950382,3
1479311220,0.0,42.331561027134121,-71.109884446553096,10.0,0.0,4.5460298974116619e-06,2.5786723181102794e-05,1.2009539342020704e-05,1.4687408073506261e-05,2.1053089638598461e-05,1.945910149055313,-0.01627827511252147,-0.6845930977977096,-0.14260710848759042,3
1479311250,0.0,42.331561027134121,-71.109884446553096,10.0,0.0,3.5717879967260105e-06,2.2198126638980816e-05,1.2009539342020704e-05,1.3073319718515495e-05,1.7951821295105822e-05,1.945910149055313,-0.016392743492405402,-0.6852434771088296,-0.14261057479435016,3
1479311280,5.893583271371644,42.331554947460354,-71.109870454362735,10.0,0.09822638785619406,4.0499992664686852e-06,2.2198126638980816e-05,1.1743726918478928e-05,1.3195074716104941e-05,2.0559783622075941e-05,1.7917594692280547,-0.016932483752957264,-0.68773423418741075,-0.14262782543809016,3
1479311310,5.893583271371644,42.331543548072055,-71.10984421900578,10.0,0.09822638785619406,4.1165903662687903e-06,2.128082758158684e-05,8.6733775179870317e-06,1.205342221257215e-05,1.8285472876597771e-05,1.945910149055313,-0.017365790161328672,-0.6887271030436446,-0.1426846797221,3
1479311340,0.0,42.331538228357509,-71.109831975839199,10.0,0.0,3.424427448121746e-06,1.8626162814170008e-05,8.6733775179870317e-06,1.2160829745729343e-05,1.7554937425891268e-05,1.945910149055313,-0.017410696303740886,-0.68856152505915902,-0.14266405790763287,3
1479311370,0.0,42.331538228357509,-71.109831975839199,10.0,0.0,4.0429663824116524e-06,2.4019535055791108e-05,1.1958541984793315e-05,1.3641277050020092e-05,1.8453007505567891e-05,1.7917594692280547,-0.017380443030738768,-0.68889289310489088,-0.14264151417644499,3
1479311400,0.0,42.331538228357509,-71.109831975839199,10.0,0.0,4.9629211104161203e-06,2.6023229999177491e-05,1.1857075640983682e-05,1.4945568369882348e-05,2.22812523967634e-05,1.945910149055313,-0.017398217038438645,-0.68896256347942153,-0.14270919248142444,3
1479311430,0.0,42.331538228357509,-71.109831975839199,10.0,0.0,5.8417847541470543e-06,2.6023229999177491e-05,6.7868472073130361e-06,1.2308740059161141e-05,1.922517863299257e-05,1.945910149055313,-0.017409608900777387,-0.68890276571276243,-0.14274892233622985,3
1479311460,0.0,42.331538228357509,-71.109831975839199,10.0,0.0,5.2807970974562232e-06,2.4280123492652927e-05,6.7868472073130361e-06,1.3533029323972044e-05,1.7568001771484572e-05,1.7917594692280547,-0.017447883134961737,-0.68863022293243115,-0.1428034955761085,3
1479311490,0.0,42.331538228357509,-71.109831975839199,10.0,0.0,4.3166568325931372e-06,2.4280123492652927e-05,1.2421264005369153e-05,1.2667332563325469e-05,1.8947557259122812e-05,1.945910149055313,-0.017452289585900015,-0.68826580834068984,-0.14284952262794731,3
1479311520,5.599671907035408,42.331534724721983,-71.109825359723629,10.0,0.09332786511725681,3.9762472768946854e-06,2.1345270017055684e-05,9.1757835021345088e-06,1.2536316082683754e-05,1.8075395424135705e-05,1.945910149055313,-0.01747433063753814,-0.68831563700234466,-0.14285727830061359,3
1479311550,5.599671907035408,42.33152158608879,-71.109800549290227,10.0,0.09332786511725681,3.6111722066652178e-06,1.8966625392410152e-05,9.1757835021345088e-06,1.279954059542309e-05,1.8179946378794768e-05,1.7917594692280547,-0.01754114507359297,-0.68871245853804297,-0.14282172310103466,3
1479311580,0.0,42.331511951091109,-71.109782354972396,10.0,0.0,3.9220687603974891e-06,2.1861696922542902e-05,1.0337350723586391e-05,1.2810892200303137e-05,1.9213635799418607e-05,1.945910149055313,-0.017491877845088589,-0.68901842725747409,-0.14281841829741815,3
1479311610,0.0,42.331511951091109,-71.109782354972396,10.0,0.0,3.4999094844411951e-06,2.1861696922542902e-05,1.0337350723586391e-05,1.4283366590435417e-05,1.838463502190337e-05,1.945910149055313,-0.017454668877065999,-0.68936474024741723,-0.14283868348709169,3
1479311640,0.0,42.331511951091109,-71.109782354972396,10.0,0.0,3.7107559068265962e-06,2.4812994230518778e-05,1.4062121724941835e-05,1.4509402745014513e-05,1.7048550335322473e-05,1.7917594692280547,-0.017451088814603517,-0.68938150710661716,-0.14287430649712585,3
1479311670,0.0,42.331511951091109,-71.109782354972396,10.0,0.0,3.9910412552151767e-06,2.4812994230518778e-05,1.4300004538857573e-05,1.5327835442707741e-05,2.2164837803604582e-05,1.945910149055313,-0.017464903384926227,-0.68925197499227198,-0.14291531992105,3
1479311700,0.0,42.331511951091109,-71.109782354972396,10.0,0.0,4.6566957859537677e-06,2.7319946591806618e-05,1.3502318210636389e-05,1.5215949406001e-05,2.2164837803604582e-05,1.945910149055313,-0.017475778002781297,-0.68960496499446478,-0.1429264012115683,3
1479311730,5.936255541986151,42.331510478670118,-71.109778828985128,10.0,0.09893759236643586,5.400489904014253e-06,2.7319946591806618e-05,1.0635036245179247e-05,1.460483893634008e-05,2.1001552177746314e-05,1.7917594692280547,-0.017497169907375248,-0.6897774936756198,-0.14295816203193365,3
1479311760,5.936255541986151,42.331499435512661,-71.109752384080636,10.0,0.09893759236643586,4.1493678303884993e-06,2.1615995412285675e-05,1.0041292738056675e-05,1.0887245851159637e-05,1.6781047268791624e-05,1.945910149055313,-0.017522883512818044,-0.68976053228601641,-0.14295681585927728,3
1479311790,0.0,42.331489864776209,-71.109729465163412,10.0,0.0,3.0973762136120239e-06,1.9758345483322312e-05,1.0041292738056675e-05,1.079868654314209e-05,1.4283088540284197e-05,1.945910149055313,-0.017528618435044416,-0.68997561878075753,-0.14290673218013686,3
1479311820,0.0,42.331489864776209,-71.109729465163412,10.0,0.0,4.0668479104329314e-06,1.9758345483322312e-05,6.4237570979638802e-06,1.1075463763699943e-05,1.4479169522733129e-05,1.7917594692280547,-0.017556519741622967,-0.69024043080612463,-0.14289369791425582,3
1479311850,0.0,42.331489864776209,-71.109729465163412,10.0,0.0,4.8487549131183181e-06,2.3838761732098843e-05,6.4237570979638802e-06,1.3756446595986847e-05,1.6954908495816707e-05,1.945910149055313,-0.017545094196408286,-0.69059127851886692,-0.142950634307978,3
1479311880,0.0,42.331489864776209,-71.109729465163412,10.0,0.0,3.1784504562745454e-06,2.3838761732098843e-05,1.4399655567635878e-05,1.5724745382798392e-05,2.0601654053440051e-05,1.945910149055313,-0.017510280507515026,-0.69072305513424215,-0.14295414279714327,3
1479311910,0.0,42.331489864776209,-71.109729465163412,10.0,0.0,4.8955339063680002e-06,2.7673157798550618e-05,1.2763243482105437e-05,1.5849094209655238e-05,2.1143557089431285e-05,1.7917594692280547,-0.017511389328626351,-0.6907429468039884,-0.14291518709311049,3
1479311940,0.0,42.331489864776209,-71.109729465163412,10.0,0.0,5.3835728593578718e-06,2.7673157798550618e-05,1.063206701263841e-05,1.3838299249135898e-05,2.0289247952347065e-05,1.945910149055313,-0.017509259278514013,-0.69100824987600773,-0.14289609682934828,3
1479311970,0.0,42.331489864776209,-71.109729465163412,10.0,0.0,3.0944394420720674e-06,1.9905566781653454e-05,1.063206701263841e-05,1.4979438280450611e-05,1.9318521051469061e-05,1.945910149055313,-0.017480458386380997,-0.6910362919432893,-0.1429068669469947,3
1479312000,0.0,42.331489864776209,-71.109729465163412,10.0,0.0,5.0469632620480073e-06,2.8733838467478093e-05,1.3637346164612418e-05,1.476357641471315e-05,1.9741172501347621e-05,1.7917594692280547,-0.017446108332343547,-0.69107064850692268,-0.14295219402331252,3
1479312030,0.0,42.331489864776209,-71.109729465163412,10.0,0.0,6.1881154471708592e-06,2.8733838467478093e-05,1.144413661633446e-05,1.3783890038751111e-05,2.4528469315125268e-05,1.945910149055313,-0.017455026783326028,-0.69127565948842673,-0.14293303644120756,3
1479312060,0.0,42.331489864776209,-71.109729465163412,10.0,0.0,5.2186212100854902e-06,2.4841338163859421e-05,1.144413661633446e-05,1.2385966374592176e-05,2.1129452507714995e-05,1.945910149055313,-0.017477896997428199,-0.69102921019794261,-0.14291206125757444,3
1479312090,0.0,42.331489864776209,-71.109729465163412,10.0,0.0,2.9305021475629317e-06,1.8052255742307007e-05,9.6123813880476798e-06,1.0982277808301656e-05,1.5130208496771615e-05,1.7917594692280547,-0.0174706804796564,-0.69096153374166847,-0.14292904565766851,3
1479312120,0.0,42.331489864776209,-71.109729465163412,10.0,0.0,3.8462883033860577e-06,1.8052255742307007e-05,7.0443294285920075e-06,1.0187351050555952e-05,1.6457063054036861e-05,1.945910149055313,-0.017482917596184956,-0.69115322700229087,-0.14293010363047515,3
1479312150,0.0,42.331489864776209,-71.109729465163412,10.0,0.0,3.8655680660851529e-06,2.0313289292183352e-05,7.0443294285920075e-06,1.4074367143220076e-05,1.7281239417079528e-05,1.945910149055313,-0.017504220062877499,-0.69105533408404818,-0.14294645251213903,3
1479312180,0.0,42.331489864776209,-71.109729465163412,10.0,0.0,4.4120592687437556e-06,2.5971095864988832e-05,1.3754378066601381e-05,1.6583901591745049e-05,2.3622901210007223e-05,1.7917594692280547,-0.017502300075723967,-0.69085357160500871,-0.14293076155968867,3
1479312210,0.0,42.331489864776209,-71.109729465163412,10.0,0.0,5.3152011403122467e-06,2.6362673362123174e-05,1.1670356887160302e-05,1.6229221837250667e-05,2.5348600523802007e-05,1.945910149055313,-0.017515338222224775,-0.69105868249756308,-0.14292687977596344,3
1479312240,0.0,42.331489864776209,-71.109729465163412,10.0,0.0,6.0899787998500958e-06,2.8342792381520621e-05,1.1670356887160302e-05,1.3802343434130785e-05,2.2576807743929166e-05,1.945910149055313,-0.017491159846118157,-0.69194161515188046,-0.14297471262968239,3
1479312270,0.0,42.331489864776209,-71.109729465163412,10.0,0.0,7.4257937960495354e-06,2.8342792381520621e-05,8.2528362759603409e-06,1.3032724404208056e-05,2.4873301552514828e-05,1.7917594692280547,-0.017480311616357266,-0.6923962942227071,-0.14298753435644782,3
1479312300,0.0,42.331489864776209,-71.109729465163412,10.0,0.0,3.2763578603265097e-05,0.00011021308746957834,8.2528362759603409e-06,1.6674601026313025e-05,3.6196554114842983e-05,1.945910149055313,-0.017414811282655242,-0.69190974172146746,-0.14290774016099231,3
1479312330,0.0,42.331489864776209,-71.109729465163412,10.0,0.0,3.1425178652334718e-05,0.00011021308746957834,1.302787933104372e-05,1.6674601026313025e-05,4.0909513080521982e-05,1.945910149055313,-0.017354799151300011,-0.69177726691216157,-0.14286699268005371,3
1479312360,0.0,42.331489864776209,-71.109729465163412,10.0,0.0,8.5325912158057946e-06,3.6833017679238571e-05,1.302787933104372e-05,1.8093748190730929e-05,3.0477102784998974e-05,1.7917594692280547,-0.020170119344821252,-0.69194152414773191,-0.14146310639771567,3
1479312390,0.0,42.331489864776209,-71.109729465163412,10.0,0.0,3.2497393233774472e-05,0.00011512703346967781,1.5025777372553582e-05,1.9388509732036607e-05,2.9921989382663698e-05,1.945910149055313,-0.028763669436132733,-0.69225371069460073,-0.13750268134691729,3
1479312420,0.0,42.331489864776209,-71.109729465163412,10.0,0.0,3.3159359523232398e-05,0.00011512703346967781,1.756481202457593e-05,1.8865344589288357e-05,2.4810612293650123e-05,1.945910149055313,-0.035078098175946072,-0.69234733821574912,-0.13467396908940457,3
1479312450,0.0,42.331489864776209,-71.109729465163412,10.0,0.0,2.026511643984359e-06,2.0304559205215127e-05,1.5069406932378476e-05,1.5902946848263428e-05,1.9363512671435311e-05,1.7917594692280547,-0.037741605553002495,-0.69239335382160139,-0.13340103061951916,3
1479312480,0.0,42.331489864776209,-71.109729465163412,10.0,0.0,2.56624794156626e-06,2.1825900836280529e-05,1.5069406932378476e-05,1.5953782073295635e-05,2.0573850575449003e-05,1.945910149055313,-0.037811005669771212,-0.69267393201303307,-0.13330747037326215,3
1479312510,0.0,42.331489864776209,-71.109729465163412,10.0,0.0,3.473264505282287e-06,2.1825900836280529e-05,1.0597608751163717e-05,1.7749485832464518e-05,2.0573850575449003e-05,1.945910149055313,-0.037798678341400008,-0.69278826349918798,-0.13328446175455627,3
1479312540,0.0,42.331489864776209,-71.109729465163412,10.0,0.0,3.5745917853351004e-06,1.8887846516319773e-05,9.730090972590111e-06,1.1978520378169361e-05,1.7857835755099653e-05,1.7917594692280547,-0.037769700235102004,-0.69267905873662716,-0.13328068989300015,3
1479312570,0.0,42.331489864776209,-71.109729465163412,10.0,0.0,2.846060025882463e-06,1.8101733123044187e-05,9.730090972590111e-06,1.1862506279438904e-05,1.6261435150413711e-05,1.945910149055313,-0.037825742251300698,-0.69258889785129241,-0.13325130019885686,3
1479312600,0.0,42.331489864776209,-71.109729465163412,10.0,0.0,3.7281433528947358e-06,2.2226874481181441e-05,1.1134031530633151e-05,1.2364064299100672e-05,1.7232705706556445e-05,1.945910149055313,-0.037831435271440186,-0.6928637992219725,-0.13321540671172957,3
1479312630,0.0,42.331489864776209,-71.109729465163412,10.0,0.0,4.0518683156390419e-06,2.2226874481181441e-05,1.2137147569956686e-05,1.3608686954802063e-05,2.0725256436584565e-05,1.7917594692280547,-0.037863706582063318,-0.69346417576845376,-0.13319700804274448,3
1479312660,0.0,42.331489864776209,-71.109729465163412,10.0,0.0,4.5571808828969665e-06,2.2179115818756518e-05,9.2494215132185103e-06,1.2387175588503325e-05,1.7886998855493063e-05,1.945910149055313,-0.037902890162373533,-0.69328971546143781,-0.13320630584570956,3
1479312690,0.0,42.331489864776209,-71.109729465163412,10.0,0.0,4.6736655629374275e-06,2.2265940125761278e-05,9.2494215132185103e-06,1.2228707266437401e-05,1.9469154323490564e-05,1.945910149055313,-0.037835297376397507,-0.6932218085919184,-0.13316009447373073,3
1479312720,0.0,42.331489864776209,-71.109729465163412,10.0,0.0,2.9514871597556645e-06,2.2265940125761278e-05,1.2758586417418946e-05,1.6396826607452297e-05,1.9164529357998877e-05,1.7917594692280547,-0.037789937883905118,-0.6935135460881332,-0.1331302774900345,3
1479312750,0.0,42.331489864776209,-71.109729465163412,10.0,0.0,2.9166572464885873e-06,2.3771371357141652e-05,1.4573706454746665e-05,1.6573263218369795e-05,2.0445191976739672e-05,1.945910149055313,-0.037828341121869377,-0.69383837245513735,-0.13321372259053557,3
1479312780,0.0,42.331489864776209,-71.109729465163412,10.0,0.0,2.6816410399698737e-06,2.3771371357141652e-05,1.4573706454746665e-05,1.7749320740276971e-05,2.0302709945798052e-05,1.945910149055313,-0.03780766877884699,-0.69418954481582329,-0.13323162248056827,3
1479312810,0.0,42.331489864776209,-71.109729465163412,10.0,0.0,3.9719591205006653e-06,1.9474893937443529e-05,7.9397738957116132e-06,1.4046290103484459e-05,1.8783903108653581e-05,1.7917594692280547,-0.037743353676049231,-0.69415361295774691,-0.133157032133806,3
1479312840,0.0,42.331489864776209,-71.109729465163412,10.0,0.0,3.5202845558287468e-06,1.796821338043297e-05,7.9397738957116132e-06,9.7547820031962595e-06,1.5590131929862412e-05,1.945910149055313,-0.03773245315162703,-0.69380034616802155,-0.13315854104351771,3
1479312870,0.0,42.331489864776209,-71.109729465163412,10.0,0.0,4.3421345441756004e-06,1.9863500807616744e-05,8.8035940777926919e-06,1.0201793529831382e-05,1.8477158072191803e-05,1.945910149055313,-0.037727847400841175,-0.69354978356328278,-0.13318422913832587,3
1479312900,0.0,42.331489864776209,-71.109729465163412,10.0,0.0,5.0244319359725497e-06,2.3483799472596555e-05,9.6976171310629376e-06,1.2808654574714144e-05,1.9700579588068888e-05,1.7917594692280547,-0.037672543663219114,-0.6933007781935282,-0.13320258120121733,3
1479312930,0.0,42.331489864776209,-71.109729465163412,10.0,0.0,4.8319347908757504e-06,2.3483799472596555e-05,8.9941908171850211e-06,1.4704793546468808e-05,1.9409122043716658e-05,1.945910149055313,-0.037685686483630687,-0.69348432691491735,-0.13322075415991344,3
1479312960,0.0,42.331489864776209,-71.109729465163412,10.0,0.0,3.6999671589848759e-06,1.9606428158007992e-05,8.9941908171850211e-06,1.3507057064518072e-05,1.8811661399152006e-05,1.945910149055313,-0.037742938275716238,-0.69372883853169198,-0.13318687449421271,3
1479312990,0.0,42.331489864776209,-71.109729465163412,10.0,0.0,2.2526122975116903e-06,1.7432851376122168e-05,1.1008478298020632e-05,1.1499295574516017e-05,1.4632714372372985e-05,1.7917594692280547,-0.037742483927255113,-0.69343922999695329,-0.13312109680227383,3
1479313020,0.0,42.331489864776209,-71.109729465163412,10.0,0.0,4.2474759583985805e-06,1.99864486370885e-05,7.3311113887407255e-06,1.1144523554508439e-05,1.6694981321232329e-05,1.945910149055313,-0.037727252396480546,-0.69261617868871916,-0.13310439439951313,3
1479313050,0.0,42.331489864776209,-71.109729465163412,10.0,0.0,4.4060165086145368e-06,2.0121702037995502e-05,7.3311113887407255e-06,1.3975630200101084e-05,1.971073429097183e-05,1.945910149055313,-0.037747535288477851,-0.69210633317049819,-0.13318290653912984,3
1479313080,0.0,42.331489864776209,-71.109729465163412,10.0,0.0,3.9468899876120978e-06,2.0121702037995502e-05,9.0366974843720262e-06,1.2685687306890978e-05,1.8572766292328329e-05,1.7917594692280547,-0.037742269309245569,-0.69235556206088711,-0.13326793230856601,3
1479313110,0.0,42.331489864776209,-71.109729465163412,10.0,0.0,3.2417466467930289e-06,1.8421791100301988e-05,9.0366974843720262e-06,1.2536984423341848e-05,1.7477871339499375e-05,1.945910149055313,-0.037764531858940277,-0.69304743377035061,-0.13324828154734716,3
1479313140,6.609481222892126,42.331490181891546,-71.10973144329256,10.0,0.11015802038153542,2.632016351770698e-06,1.8421791100301988e-05,1.0693469529238402e-05,1.3197305179488359e-05,1.713670565361467e-05,1.945910149055313,-0.037762564888506281,-0.69303974024335313,-0.1332531521304767,3
1479313170,6.609481222892126,42.331494938621596,-71.109761115229801,10.0,0.11015802038153542,5.3638715116875207e-06,2.8512025984901247e-05,1.0693469529238402e-05,1.6822370654021442e-05,2.0777513172721813e-05,1.7917594692280547,-0.037757546034473982,-0.69271522860392887,-0.1332600780237875,3
1479313200,0.0,42.331499378236309,-71.109788809037909,10.0,0.0,4.965548423934546e-06,2.8512025984901247e-05,1.3541914837517738e-05,1.4376806450014436e-05,2.0542988600747252e-05,1.945910149055313,-0.037754046388666765,-0.69284653499599058,-0.13324272771136414,3
1479313230,0.0,42.331499378236309,-71.109788809037909,10.0,0.0,4.0354569687826783e-06,2.6064137059854561e-05,1.3541914837517738e-05,1.4376806450014436e-05,1.8043247022446806e-05,1.945910149055313,-0.03770832507572399,-0.69305507558247847,-0.13326619515186772,3
1479313260,0.0,42.331499378236309,-71.109788809037909,10.0,0.0,4.2070441406882407e-06,2.6064137059854561e-05,1.2084702688040801e-05,1.6972404897300386e-05,2.012443301810579e-05,1.7917594692280547,-0.037674741889728282,-0.69312668952090484,-0.13325404865193283,3
1479313290,0.0,42.331499378236309,-71.109788809037909,10.0,0.0,4.5417729418107574e-06,2.2738078245672963e-05,9.8536544250425909e-06,1.4709271402076595e-05,2.1225387447484233e-05,1.945910149055313,-0.037706274041229081,-0.69360987589831902,-0.13323183395836344,3
1479313320,0.0,42.331499378236309,-71.109788809037909,10.0,0.0,5.1708155336172533e-06,2.8019631403514685e-05,9.8536544250425909e-06,1.8156829043781881e-05,2.2399198273963762e-05,1.945910149055313,-0.037726059399346069,-0.69411972019478685,-0.13323257413535769,3
1479313350,0.0,42.331499378236309,-71.109788809037909,10.0,0.0,6.1061214272111583e-06,2.8019631403514685e-05,8.9068709090211856e-06,1.7771724727476741e-05,2.3857726269986329e-05,1.7917594692280547,-0.037694176696443919,-0.69415390626401063,-0.13321622602019015,3
1479313380,0.0,42.331499378236309,-71.109788809037909,10.0,0.0,4.8138215837233386e-06,2.5352307818857095e-05,8.9068709090211856e-06,1.3318739910245663e-05,1.7826424293136394e-05,1.945910149055313,-0.037761942111802525,-0.69409963197946534,-0.13327155547623371,3
1479313410,0.0,42.331499378236309,-71.109788809037909,10.0,0.0,2.2023250899201932e-06,1.8283821606787597e-05,1.0651048687955181e-05,1.3318739910245663e-05,1.5076728234520271e-05,1.945910149055313,-0.037789717877994913,-0.69414225174730415,-0.13329042864843801,3
1479313440,0.0,42.331499378236309,-71.109788809037909,10.0,0.0,4.2940797033430262e-06,2.4126816482021244e-05,1.0651048687955181e-05,1.2755977928128705e-05,1.523595062664976e-05,1.7917594692280547,-0.037746161914874905,-0.69435672063484766,-0.13330367092655368,3
1479313470,0.0,42.331499378236309,-71.109788809037909,10.0,0.0,5.3619137559907417e-06,2.4126816482021244e-05,7.1216436844287513e-06,1.3154362826504098e-05,1.9704620409173549e-05,1.945910149055313,-0.037788189062306785,-0.69429959889929005,-0.13331773570246658,3
1479313500,0.0,42.331499378236309,-71.109788809037909,10.0,0.0,4.422370036310022e-06,2.2110879726138491e-05,7.1216436844287513e-06,1.2021562904524451e-05,1.661829876290055e-05,1.945910149055313,-0.037763103392898283,-0.69394087759271794,-0.13329561527233658,3
1479313530,0.0,42.331499378236309,-71.109788809037909,10.0,0.0,1.7288418394107048e-06,1.6273517672379584e-05,1.1378453033316063e-05,1.2993198459334105e-05,1.5601182461355698e-05,1.7917594692280547,-0.037699313863236744,-0.69376196955576364,-0.13328499771936533,3
1479313560,0.0,42.331499378236309,-71.109788809037909,10.0,0.0,2.720450313246139e-06,2.278097835657892e-05,1.3978775510137906e-05,1.4872107017025039e-05,1.6988034837915969e-05,1.945910149055313,-0.037739800893968202,-0.6936418631574649,-0.13330446722485473,3
1479313590,0.0,42.331499378236309,-71.109788809037909,10.0,0.0,3.3767971576878083e-06,2.3944281981345832e-05,1.4647606471383508e-05,1.6988034837915969e-05,2.2876480766661791e-05,1.945910149055313,-0.037734428626273457,-0.69347190764987343,-0.13331405022574372,3
1479313620,0.0,42.331499378236309,-71.109788809037909,10.0,0.0,5.1227730651414769e-06,2.3944281981345832e-05,1.0062386012975578e-05,1.4223748717874672e-05,2.2439478194243497e-05,1.7917594692280547,-0.037738103835906346,-0.6933968443168862,-0.13329860148473516,3
1479313650,0.0,42.331499378236309,-71.109788809037909,10.0,0.0,3.2495499297832714e-06,1.9929857313646373e-05,1.0062386012975578e-05,1.277031842203164e-05,1.7701012458224324e-05,1.945910149055313,-0.037754322146769971,-0.69366177769644732,-0.13329400478785128,3
1479313680,0.0,42.331499378236309,-71.109788809037909,10.0,0.0,3.3358688900561313e-06,1.9929857313646373e-05,9.4260996035880397e-06,1.4084104836645485e-05,1.7947470449568465e-05,1.945910149055313,-0.037703275100886488,-0.69385894456700825,-0.13330437412270471,3
1479313710,0.0,42.331499378236309,-71.109788809037909,10.0,0.0,3.0014317635156761e-06,1.8798928304780917e-05,9.4260996035880397e-06,1.2987634088424446e-05,1.6423954060205934e-05,1.7917594692280547,-0.037727780787201397,-0.6941627442263657,-0.13330503735669649,3
1479313740,0.0,42.331499378236309,-71.109788809037909,10.0,0.0,1.9487817343018816e-06,1.6666747683228897e-05,1.1350053286285874e-05,1.2185268924626467e-05,1.5642640325319867e-05,1.945910149055313,-0.037756148033819006,-0.69455363157723038,-0.13328908281557025,3
1479313770,0.0,42.331499378236309,-71.109788809037909,10.0,0.0,3.6162024849157319e-06,2.1013887163190228e-05,9.0784390358848924e-06,1.1556387442874598e-05,1.5642640325319867e-05,1.945910149055313,-0.037731230249176483,-0.69481908129357739,-0.13329321235209671,3
1479313800,0.0,42.331499378236309,-71.109788809037909,10.0,0.0,4.1221828107988336e-06,2.1013887163190228e-05,9.0784390358848924e-06,1.4467203093618499e-05,1.9107383622498682e-05,1.7917594692280547,-0.037734068169044004,-0.6951440989418104,-0.1332686966265515,3
1479313830,0.0,42.331499378236309,-71.109788809037909,10.0,0.0,2.4669154159919414e-06,2.0352108943433824e-05,1.2343818105807491e-05,1.7116618234708602e-05,1.9031252231511679e-05,1.945910149055313,-0.037728107460139014,-0.69558513523570398,-0.13321313656032058,3
1479313860,0.0,42.331499378236309,-71.109788809037909,10.0,0.0,2.3600271284737972e-06,2.0352108943433824e-05,1.2343818105807491e-05,1.5698396017341076e-05,1.8126266690015621e-05,1.945910149055313,-0.037713062107419142,-0.69572755439021539,-0.13323748798109616,3
1479313890,0.0,42.331499378236309,-71.109788809037909,10.0,0.0,5.3177039915248679e-06,2.9898796085806374e-05,1.4217658789859117e-05,1.5547253291291345e-05,1.7547141402012142e-05,1.7917594692280547,-0.037687387125129798,-0.69527858981474744,-0.13326313655049651,3
1479313920,0.0,42.331499378236309,-71.109788809037909,10.0,0.0,4.8810535858876967e-06,2.9898796085806374e-05,1.4217658789859117e-05,1.591439812866778e-05,2.05393046380529e-05,1.945910149055313,-0.037677222399604471,-0.69519335892981782,-0.13325803641824699,3
1479313950,0.0,42.331499378236309,-71.109788809037909,10.0,0.0,5.1801802111587521e-06,2.773940013402843e-05,9.6240226464287417e-06,1.713738635830333e-05,2.1505705123249908e-05,1.945910149055313,-0.037655499932974387,-0.69555871182253004,-0.13326435512335041,3
1479313980,0.0,42.331499378236309,-71.109788809037909,10.0,0.0,5.359432653976095e-06,2.773940013402843e-05,9.6240226464287417e-06,1.8033818707002422e-05,2.1036235589836817e-05,1.7917594692280547,-0.037674503078185463,-0.69604599997398742,-0.13327482520745784,3
1479314010,0.0,42.331499378236309,-71.109788809037909,10.0,0.0,2.1348216277295796e-06,2.1404391429116584e-05,1.5321101676277543e-05,1.6941437576782652e-05,2.0302519995409436e-05,1.945910149055313,-0.037742857610729187,-0.69627317721815185,-0.13331689454306889,3
1479314040,0.0,42.331499378236309,-71.109788809037909,10.0,0.0,3.9854316485634374e-06,2.1404391429116584e-05,1.0405847376265728e-05,1.3084602193393916e-05,1.8528772219104836e-05,1.945910149055313,-0.037753395629143982,-0.69614678226354498,-0.13331917299518986,3
1479314070,0.0,42.331499378236309,-71.109788809037909,10.0,0.0,3.776783914367087e-06,1.7685350352333168e-05,7.2250870334820612e-06,1.0516411209826869e-05,1.6094495068965483e-05,1.7917594692280547,-0.037738777219248822,-0.69586661184967291,-0.13332145837770351,3
1479314100,0.0,42.331499378236309,-71.109788809037909,10.0,0.0,3.889684526744272e-06,1.8722559987007551e-05,7.2250870334820612e-06,1.2617850007310653e-05,1.7684397737365198e-05,1.945910149055313,-0.037747002623882427,-0.695682667440358,-0.13332510490965546,3
1479314130,0.0,42.331499378236309,-71.109788809037909,10.0,0.0,4.1117020787913127e-06,2.2044762311950595e-05,1.0293745472436957e-05,1.2617850007310653e-05,1.9001792203828633e-05,1.945910149055313,-0.037761465782629344,-0.69548368880699818,-0.13334246129986457,3
1479314160,0.0,42.331499378236309,-71.109788809037909,10.0,0.0,3.9521643792646297e-06,2.2044762311950595e-05,1.0293745472436957e-05,1.4330142637159769e-05,1.9469483057044204e-05,1.7917594692280547,-0.037752718748824077,-0.69561528302466114,-0.13334767452473484,3
1479314190,0.0,42.331499378236309,-71.109788809037909,10.0,0.0,2.0344062634850749e-06,1.9532302602509035e-05,1.3055307752719414e-05,1.4223543991979761e-05,1.6235608591700723e-05,1.945910149055313,-0.037764239615925933,-0.69606478570679708,-0.13330916924726427,3
1479314220,0.0,42.331499378236309,-71.109788809037909,10.0,0.0,2.3911916304737845e-06,1.7285180666708432e-05,9.6358260056991066e-06,1.2850374155756537e-05,1.5814131649086135e-05,1.945910149055313,-0.037738296831384528,-0.69557350084060732,-0.13330268920460114,3
1479314250,0.0,42.331499378236309,-71.109788809037909,10.0,0.0,2.1550138410376661e-06,1.6442226781479252e-05,9.6358260056991066e-06,1.2913043815665419e-05,1.5004284003818242e-05,1.7917594692280547,-0.037686440326842645,-0.69497265848144185,-0.13328603928761082,3
1479314280,0.0,42.331499378236309,-71.109788809037909,10.0,0.0,3.2172820587491265e-06,2.401760941564256e-05,1.3715853586280697e-05,1.4707505702980779e-05,1.6961470079612049e-05,1.945910149055313,-0.037700511823116602,-0.69503669390272127,-0.13334016222447445,3
1479314310,0.0,42.331499378236309,-71.109788809037909,10.0,0.0,4.4188646199481566e-06,2.401760941564256e-05,1.0882764721469913e-05,1.3949363687097456e-05,1.954773476084959e-05,1.945910149055313,-0.037685715429701283,-0.69511566318140006,-0.13335270203681945,3
1479314340,0.0,42.331499378236309,-71.109788809037909,10.0,0.0,5.1065827781636971e-06,2.209982551196917e-05,6.516579314654032e-06,8.718961704531098e-06,1.4226515075507952e-05,1.7917594692280547,-0.037687259816307918,-0.69552033074231956,-0.13334285638998233,3
1479314370,0.0,42.331499378236309,-71.109788809037909,10.0,0.0,5.571378056828093e-06,2.3337269568938007e-05,6.516579314654032e-06,1.0138560122330252e-05,1.8246218410650362e-05,1.945910149055313,-0.03773314765509047,-0.6958902271116989,-0.13337019972132116,3
1479314400,0.0,42.331499378236309,-71.109788809037909,10.0,0.0,4.9751390106898684e-06,2.3337269568938007e-05,8.131882658616958e-06,1.3441289245453925e-05,2.0140442392279277e-05,1.945910149055313,-0.037738863166975611,-0.69598854329504134,-0.133382604508333,3
1479314430,0.0,42.331499378236309,-71.109788809037909,10.0,0.0,4.4519665398961343e-06,2.1900549934922891e-05,8.131882658616958e-06,1.1948050270769692e-05,1.7218380735702172e-05,1.7917594692280547,-0.037710430349910201,-0.69610145090471631,-0.13340156868835534,3
1479314460,0.0,42.331499378236309,-71.109788809037909,10.0,0.0,3.3511357233917566e-06,2.1501698234686157e-05,1.1220186299789654e-05,1.3339016655771254e-05,1.8050365742142896e-05,1.945910149055313,-0.037707344915444654,-0.69620028282370694,-0.13336954771192902,3
