TIMESTAMP,DISTANCE,AVG_LAT,AVG_LNG,GPS_ACCURACY,AVG_SPEED_BY_GPS,ACCLERATOR_STD,MAX_ACCLERATOR,MIN_ACCLERATOR,PERCENTILE_25_ACCLERATOR,PERCENTILE_75_ACCLERATOR,ACCLERATOR_ENTROPY,AVG_ROLL,AVG_YAW,AVG_PITCH,WEEK_DAY
1480024680,1.2686932504416075,42.338758186284757,-71.088211894295938,79.235758903888708,0.021144887507360124,0.005369636360113306,0.013651021738840868,4.9815764296017368e-05,7.0543395379831758e-05,0.00075200770363717528,1.5284657100610246,-1.2330209795379128,0.10202797090211761,-0.030185033860605316,4
1480024710,0.877116455641938,42.338759173695678,-71.088205107542535,74.059119302474627,0.0146186075940323,0.0047181162553171473,0.013651021738840868,4.9815764296017368e-05,6.5697278940951762e-05,0.00042597694988058933,1.8675843750169276,-2.2101737871657385,0.42112540559665002,-0.034726562391101605,4
1480024740,1.5093190311973883,42.338756174638903,-71.088202536546603,65.0,0.025155317186623137,6.3716297424465446e-06,8.2334040644644485e-05,6.3042537109098514e-05,6.6481808573305956e-05,7.3284486761752797e-05,1.7917594692280547,-3.1047593068029049,0.33315872454174017,-0.030378426462517833,4
1480024770,0.7202905688732533,42.338768143336466,-71.088202348020971,65.0,0.012004842814554221,1.0571447246498829e-05,8.2334040644644485e-05,4.8195508902656603e-05,6.6742286977319301e-05,7.7500556608902835e-05,1.945910149055313,-3.1047450136265087,0.332077719267523,-0.030230874825278687,4
1480024800,0.5855546566190301,42.338770313942945,-71.088207082340077,65.0,0.009759244276983834,2.2429976117552267e-05,0.00010512764116584989,2.9283079597224669e-05,5.7910839175244464e-05,7.8014981796531947e-05,1.945910149055313,-3.104708991842172,0.33215461795114642,-0.030191410142871213,4
1480024830,1.163437463580843,42.338769426533283,-71.08821144543306,65.0,0.01939062439301405,2.66842985679271e-05,0.00010512764116584989,2.9283079597224669e-05,6.0195289514002943e-05,9.7527927279160794e-05,1.7917594692280547,-3.1046901787854062,0.33209150826411604,-0.030183328275095067,4
1480024860,1.6997981685360783,42.33876447616295,-71.08819873042485,65.0,0.028329969475601305,1.4096956138061602e-05,0.00010487443768121897,5.9757745393435212e-05,6.7880957270922219e-05,8.2507703811330628e-05,1.945910149055313,-3.1047188095083209,0.332067713064577,-0.030168591068498399,4
1480024890,1.3521931331842632,42.338761866029238,-71.088195340138967,65.0,0.02253655221973772,4.521302059841275e-06,8.471589494315179e-05,7.1661808757984605e-05,7.6381992817835037e-05,8.3027245373201673e-05,1.945910149055313,-3.1047799135917842,0.33245350426058717,-0.030138725498794011,4
1480024920,1.613927197798264,42.338769399692751,-71.088203145230253,65.0,0.02689878662997107,1.2752131596101594e-05,9.8531030553355062e-05,5.6894324951080957e-05,7.4369278101131661e-05,8.3535722105111307e-05,1.7917594692280547,-3.1041758314247314,0.3330729352037875,-0.030112444897550647,4
1480024950,3.1835930677177466,42.338767251343157,-71.088200087981107,65.0,0.05305988446196244,1.5784808631108139e-05,9.8531030553355062e-05,5.524470697206886e-05,5.8162082401408278e-05,8.5744040343663859e-05,1.945910149055313,-3.1027890347009595,0.3335891984879592,-0.030045612040926626,4
1480024980,2.3442483538737053,42.338758852658216,-71.088191012746137,65.0,0.03907080589789509,1.0210798250162685e-05,8.8033606114374025e-05,5.524470697206886e-05,6.3042611256581725e-05,7.5102474230424394e-05,1.945910149055313,-3.1021208711260515,0.3334461367827341,-0.029983814647468542,4
1480025010,2.6997898724731813,42.338763989889223,-71.088200427746713,65.0,0.044996497874553024,9.2272253027955088e-06,7.8646500097616874e-05,5.0821135532093957e-05,6.6780902405601396e-05,7.5809193089582401e-05,1.7917594692280547,-3.10208771918591,0.33297577618943869,-0.030035537336316979,4
1480025040,1.1022157515634132,42.338771687322783,-71.088204161828116,65.0,0.018370262526056887,1.9173733411657202e-05,0.00011526670095323754,5.0821135532093957e-05,6.2952105960865126e-05,7.8164159201260172e-05,1.945910149055313,-3.1022143938482216,0.33213900488177089,-0.030023037732573945,4
1480025070,1.488582081519428,42.338768209603593,-71.088208504669709,65.0,0.024809701358657132,2.5481754497356142e-05,0.00011526670095323754,2.1867205580518509e-05,6.4188016295943804e-05,7.4005169877132306e-05,1.945910149055313,-3.1021928507285899,0.3315463223671119,-0.029960707440994886,4
1480025100,5.091781988016548,42.338761082427155,-71.088212630198072,65.0,0.08486303313360913,6.1453915161336072e-05,0.00021836270977354061,2.1867205580518509e-05,6.7684382203323011e-05,7.2683359486566053e-05,1.7917594692280547,-3.1022137730714014,0.33136552369115319,-0.029938950547923865,4
1480025130,3.161652124583392,42.338760070219884,-71.088205398099063,65.0,0.05269420207638987,5.50218420557637e-05,0.00021836270977354061,5.0285350244842478e-05,6.0645797533099186e-05,7.0252193833652624e-05,1.945910149055313,-3.1022131226830929,0.33206701296371161,-0.029996945539620685,4
1480025160,5.085884471223138,42.338757998552659,-71.088189100234061,65.0,0.0847647411870523,1.1821253158215862e-05,8.5917579519672875e-05,4.5849120818870216e-05,5.5253274465662716e-05,6.2965795273933463e-05,1.945910149055313,-3.1021473749953157,0.33282173161812506,-0.030012551077365415,4
1480025190,3.607300386976795,42.338760860516494,-71.08819562474369,65.0,0.06012167311627992,1.3911059988121903e-05,8.5917579519672875e-05,4.3967967692447672e-05,4.9359057993816766e-05,6.4368238088759297e-05,1.7917594692280547,-3.1020910306998979,0.33305286272350804,-0.029986901092169827,4
1480025220,3.7295590600437043,42.33877024738409,-71.08820368805759,65.0,0.06215931766739507,1.1069667906015368e-05,7.5760375752523856e-05,4.3967967692447672e-05,5.8315625137131852e-05,7.5156132472691423e-05,1.945910149055313,-3.1020698923739718,0.33302007740643985,-0.029990082911497469,4
1480025250,2.75320699650396,42.338764229351511,-71.088189969232786,65.0,0.045886783275066,2.0523955950868547e-05,0.00012074517457345051,5.3244278703644893e-05,6.5739724050470556e-05,7.9992104600422293e-05,1.945910149055313,-3.1021034434913792,0.33319022000198756,-0.029988807492471212,4
1480025280,2.0457472602146005,42.338753359913049,-71.088181949654611,65.0,0.03409578767024334,2.2002032223362573e-05,0.00012074517457345051,5.3244278703644893e-05,6.2271777755276659e-05,8.2610780688831313e-05,1.7917594692280547,-3.1021025339108932,0.33340891905421516,-0.029969551789080413,4
1480025310,2.4807361785794635,42.338756332391739,-71.088199490733402,65.0,0.04134560297632439,1.3521443595672042e-05,8.0609417622116712e-05,4.1615390926834978e-05,5.6176413468201706e-05,7.7375071352577571e-05,1.945910149055313,-3.1020692330628639,0.33341272836299218,-0.029948667561236351,4
1480025340,0.4294426169688958,42.338761010029451,-71.088216606432738,65.0,0.007157376949481597,1.3165837341092827e-05,8.0609417622116712e-05,4.1615390926834978e-05,5.4235601489174913e-05,7.3989289082241095e-05,1.945910149055313,-3.1020102940407668,0.33346647243378319,-0.029949763605304297,4
1480025370,0.7794263076055139,42.338765411361301,-71.088216455684204,65.0,0.012990438460091899,1.1421175324298809e-05,7.7773838611781067e-05,4.958041565278578e-05,5.4652611345197249e-05,7.5727233971079356e-05,1.7917594692280547,-3.1019389395522121,0.33345855799346702,-0.029942381310593704,4
1480025400,5.431348273678903,42.338768906845317,-71.088209200807711,65.0,0.09052247122798172,1.6174448618096056e-05,9.5846579763111695e-05,4.4823924714499235e-05,5.3985309947025638e-05,7.4935602832640699e-05,1.945910149055313,-3.1018017695023006,0.33334333916273035,-0.029995036086430945,4
1480025430,5.353890142493506,42.338762319050758,-71.088192249145067,65.0,0.08923150237489176,2.5552270229113451e-05,9.5846579763111695e-05,1.0506617209398163e-05,4.9831995888264823e-05,7.5173058688576765e-05,1.945910149055313,-3.1017101768342283,0.33315970143704038,-0.029963367908784674,4
1480025460,2.5593923601490802,42.33875934488686,-71.088193072157509,65.0,0.042656539335818006,3.2609104499587666e-05,0.00011841119191759098,1.0506617209398163e-05,5.3630512227575927e-05,7.8340392813595994e-05,1.7917594692280547,-3.1017286955603818,0.33277847104716551,-0.029897887458227416,4
1480025490,5.943218135478994,42.338766087474099,-71.08820965205939,65.0,0.09905363559131657,3.0227940656105831e-05,0.00011841119191759098,1.0520498992321205e-05,4.8943563278454935e-05,6.9602012582560443e-05,1.945910149055313,-3.1016654201578171,0.33261699355147645,-0.029912139935712727,4
1480025520,1.3144925756780006,42.338776263967596,-71.088218965460342,65.0,0.021908209594633344,2.9858004771043547e-05,0.00010400697741502528,1.0520498992321205e-05,3.3249553974572574e-05,7.1473943392775071e-05,1.945910149055313,-3.1016438488160865,0.33247644429051898,-0.029923305401063385,4
1480025550,0.7635301319506095,42.33877210257311,-71.088218424593663,65.0,0.012725502199176824,3.0327338108964809e-05,0.00010400697741502528,1.5172648428610449e-05,2.4400796639602243e-05,6.3082400571959463e-05,1.7917594692280547,-3.1016436243330046,0.33232377851477402,-0.029993499741872154,4
1480025580,1.3732798835268618,42.338765316752983,-71.08821360201469,65.0,0.022887998058781032,2.188610577774813e-05,7.4464585906501658e-05,7.605379000898305e-07,2.5712194691379758e-05,4.5833735913665584e-05,1.945910149055313,-3.1016366611314603,0.33229032302711431,-0.02992564358077987,4
1480025610,2.8368549717592026,42.338750995007658,-71.088196050106575,65.0,0.04728091619598671,2.6001767015499573e-05,7.4464585906501658e-05,7.605379000898305e-07,2.0086594998775368e-05,5.827837425423352e-05,1.945910149055313,-3.1016982201512682,0.33190125302559842,-0.029821959771383227,4
1480025640,1.2551234735934769,42.33874472314897,-71.088193000089262,65.0,0.020918724559891282,2.4133985427084409e-05,6.3275342777823371e-05,3.9214490434016702e-06,2.0004380470380502e-05,5.8927518646757086e-05,1.7917594692280547,-3.1018039715994328,0.33149034657223037,-0.029790789984811231,4
1480025670,2.8443342320425984,42.33875274868943,-71.088205518019578,65.0,0.047405570534043304,2.4309158029582222e-05,8.594936015639444e-05,1.015722495059505e-05,4.3622359710253422e-05,7.2883386327008903e-05,1.945910149055313,-3.1017285194372342,0.33183962681772705,-0.029807880328715612,4
1480025700,1.616057299449533,42.338762150867936,-71.088210289411975,65.0,0.026934288324158884,2.0073028506611611e-05,8.594936015639444e-05,2.9762017071201397e-05,4.0629828307357267e-05,7.2883386327008903e-05,1.945910149055313,-3.1016431765115016,0.33195084764429861,-0.029854094077124655,4
1480025730,0.7578765145531158,42.338767940012659,-71.088210471941025,65.0,0.012631275242551929,1.079293989959056e-05,6.3148675044912193e-05,2.9762017071201397e-05,4.4634564098515972e-05,5.6618085484799231e-05,1.7917594692280547,-3.1016679621362599,0.3319889945861455,-0.029878370125654464,4
1480025760,1.6541011186106647,42.338771461153058,-71.088214072248704,65.0,0.027568351976844412,1.1082456574822122e-05,8.5365444848316217e-05,4.7855903722230244e-05,5.9789109038888249e-05,7.0718721868289275e-05,1.945910149055313,-3.1016900649070185,0.33237128112530473,-0.029849149952353798,4
1480025790,5.6373944640799545,42.338771373686448,-71.088198093597128,65.0,0.09395657440133258,1.5124270469286659e-05,8.5365444848316217e-05,3.4230002777567817e-05,5.5516191357848101e-05,7.0718721868289275e-05,1.945910149055313,-3.101716897373997,0.33195439665266896,-0.029894520740857061,4
1480025820,5.969128038095979,42.338750522152381,-71.088168102979608,65.0,0.09948546730159966,1.2669757333270549e-05,6.1311114485505558e-05,2.7292021761406488e-05,3.8769299544787243e-05,5.7462031005608576e-05,1.7917594692280547,-3.1017133660414338,0.33137433440315683,-0.029944899796913865,4
1480025850,1.5479376555269966,42.338750312500686,-71.088183271325931,65.0,0.02579896092544994,1.1572292603148827e-05,6.1311114485505558e-05,2.7292021761406488e-05,4.7659790940156779e-05,5.9224322605229966e-05,1.945910149055313,-3.1015464260030217,0.33224922761852466,-0.029879396751574784,4
1480025880,4.985677226744545,42.338762675354019,-71.088210136046001,65.0,0.08309462044574241,6.0055435588441244e-06,5.9267413420729434e-05,4.1407036465631254e-05,5.5120189713035186e-05,5.9200818643644141e-05,1.945910149055313,-3.1014549339160515,0.33300757442207385,-0.02987493115205277,4
1480025910,0.39635067651302636,42.338763327015961,-71.088213296545234,65.0,0.00660584460855044,4.3293234008400953e-06,5.9836793604836511e-05,4.7414788932801165e-05,5.4488084895305294e-05,5.8920572535306028e-05,1.7917594692280547,-3.1014391676582282,0.33287154911354616,-0.029957383308865247,4
1480025940,3.8930232383367387,42.338759633002454,-71.088200140817406,65.0,0.06488372063894564,7.7264770481858494e-06,7.0930597195862735e-05,4.7414788932801165e-05,5.417608267850272e-05,6.3590523648717208e-05,1.945910149055313,-3.1013954768954042,0.33243828437867251,-0.029962136706496018,4
1480025970,0.5828547493993848,42.33876417787782,-71.088195914869473,65.0,0.00971424582332308,1.0428171988511893e-05,8.761445206614059e-05,5.0644235929471521e-05,6.2798276553100222e-05,6.9100115483748499e-05,1.945910149055313,-3.1013949777622298,0.33247498311603957,-0.029929564878332256,4
1480026000,4.580536556409752,42.338772676516022,-71.088209506593529,65.0,0.07634227594016255,9.993364521541865e-06,8.761445206614059e-05,5.5252907714680959e-05,6.2600829411126209e-05,6.5768154645647726e-05,1.7917594692280547,-3.1014566775968135,0.33216238601589765,-0.029873660174677769,4
1480026030,0.975909999001994,42.338771237529713,-71.088203499569104,65.0,0.016265166650033233,3.6931565205959536e-06,6.3711150415003492e-05,5.5006381629172675e-05,5.5818532941405281e-05,6.2871696543462057e-05,1.945910149055313,-3.1014269932726415,0.3318822670401676,-0.029844854801504558,4
1480026060,4.574684707131239,42.338769437980723,-71.088198954417621,65.0,0.07624474511885398,1.2320821763158791e-05,6.3080742354605616e-05,2.7131179952791693e-05,4.716322416854028e-05,5.961008673916615e-05,1.945910149055313,-3.101386115227347,0.33194655542971147,-0.029864185713406186,4
1480026090,1.2810575167698108,42.338772779711363,-71.088211025541995,65.0,0.021350958612830182,1.1923398099124599e-05,6.4295873213309691e-05,2.7131179952791693e-05,4.1705050623163831e-05,5.4872788309507866e-05,1.7917594692280547,-3.1013772450809989,0.33186717547073491,-0.029869970097123638,4
1480026120,6.9636410691657105,42.338771635817317,-71.088216220921055,65.0,0.11606068448609518,1.0933975674772359e-05,6.4295873213309691e-05,2.8156585420638055e-05,4.7662438251598984e-05,5.7751463933262978e-05,1.945910149055313,-3.1013726572514355,0.33157807059190159,-0.029882011527215258,4
1480026150,0.4670826962495791,42.338768004138501,-71.088208475449761,65.0,0.007784711604159652,1.4893741223269008e-05,7.9836382486052311e-05,2.8156585420638055e-05,4.4507141486070377e-05,5.7751463933262978e-05,1.945910149055313,-3.1013555580907659,0.33150837520113896,-0.029893379263550485,4
1480026180,4.101493187893453,42.338767426731692,-71.088208155561034,65.0,0.06835821979822422,1.446812532702538e-05,7.9836382486052311e-05,4.2549408837874466e-05,4.8013376445886137e-05,7.1072951197785386e-05,1.7917594692280547,-3.1013454750042335,0.33142719117247832,-0.029893864265045481,4
1480026210,0.6559851846683927,42.338765854049427,-71.088210995103566,65.0,0.010933086411139879,1.1590275731903993e-05,7.6859406328508482e-05,3.7038891048902171e-05,4.6944523211349906e-05,5.7779483981642168e-05,1.945910149055313,-3.1014110566118767,0.33056467517972843,-0.029879613674090803,4
1480026240,1.1003302493374918,42.338770758811449,-71.088217088834284,65.0,0.018338837488958197,8.8667422967024574e-06,6.4806594627142097e-05,3.7038891048902171e-05,4.5387159261570739e-05,5.7779483981642168e-05,1.945910149055313,-3.1014130971042531,0.33014281136376133,-0.029890182775146119,4
1480026270,2.354207773025388,42.338762889267727,-71.088207945042228,65.0,0.039236796217089795,9.09930334118175e-06,6.8788853811185496e-05,4.3819771165278074e-05,4.7791042417996189e-05,6.1966609573515846e-05,1.7917594692280547,-3.1013982582721482,0.33074291163112984,-0.029930502754184213,4
1480026300,1.8117293326192514,42.338759351413529,-71.08820201663093,65.0,0.030195488876987524,6.9569039548847073e-06,6.8788853811185496e-05,4.6387831525526747e-05,5.3144206868338084e-05,6.143192587516457e-05,1.945910149055313,-3.1013962588862634,0.3311093102360646,-0.029944098700802828,4
1480026330,1.2421831148461984,42.338771230289332,-71.088211471726893,65.0,0.020703051914103307,6.1324911652801834e-06,6.4099316769885344e-05,4.5440347288816078e-05,5.0383090483488373e-05,5.773111885418199e-05,1.945910149055313,-3.1013932343539659,0.33151442365785072,-0.029934701492140867,4
1480026360,1.815109516271243,42.33876514265507,-71.088208059635733,65.0,0.03025182527118738,1.1280111363231618e-05,7.810369465988389e-05,4.5440347288816078e-05,4.9033257426258861e-05,6.4724433304326039e-05,1.7917594692280547,-3.1014048095229931,0.33206334513910279,-0.029887364513726502,4
1480026390,1.9257626430369017,42.338755786638828,-71.088208533276273,65.0,0.03209604405061503,8.9868398111217167e-06,7.810369465988389e-05,4.8801948501647568e-05,6.1303066957558983e-05,7.0582757157663887e-05,1.945910149055313,-3.1014312387050347,0.33150784861433358,-0.029871897824720488,4
1480026420,1.9237209445886276,42.338761891035048,-71.088209124540811,65.0,0.032062015743143796,9.1839360727280433e-06,7.5117084419524586e-05,4.8801948501647568e-05,5.5307705386594951e-05,6.8506934784897476e-05,1.945910149055313,-3.1014556851706927,0.33150179881752712,-0.029847354306054747,4
1480026450,6.730873454203174,42.338758057864304,-71.088187719244758,65.0,0.11218122423671956,8.979617845361588e-06,7.0965439673991763e-05,4.4380870262696567e-05,5.0544538574065373e-05,6.291462740811548e-05,1.7917594692280547,-3.1014293362348333,0.33264904734669615,-0.029859968331767212,4
1480026480,1.3205707970064988,42.338750369611233,-71.088183605211668,65.0,0.022009513283441647,1.7869791500485814e-05,9.1652684172100819e-05,4.4380870262696567e-05,4.876604775834822e-05,7.545585229372926e-05,1.945910149055313,-3.1013786382505559,0.33327448581477903,-0.029898116739624041,4
1480026510,1.5904803187019085,42.338754386292351,-71.088201210712811,65.0,0.026508005311698477,1.6419413417720508e-05,9.1652684172100819e-05,4.5243810048949034e-05,5.9382246558358747e-05,8.673076209448007e-05,1.945910149055313,-3.1013706724321009,0.33301415689323538,-0.029929754526516528,4
1480026540,0.7228536289380012,42.338753121273299,-71.08820181238643,65.0,0.01204756048230002,9.3334577637865902e-06,8.6218615757760529e-05,5.9051241106116816e-05,6.0675098038123936e-05,7.1302648285582961e-05,1.7917594692280547,-3.1014167324444846,0.33285176689544765,-0.029976473563486764,4
1480026570,0.9651060564811578,42.338757864869159,-71.088210029829042,65.0,0.01608510094135263,1.0008056498387093e-05,7.2376028056391709e-05,4.1529664187118399e-05,5.3243019992754338e-05,6.5336077557190473e-05,1.945910149055313,-3.1014215449700373,0.33292034646922669,-0.029945286728048338,4
1480026600,0.043282815177857106,42.338759990883048,-71.088209247882901,65.0,0.0007213802529642851,1.4648564583375589e-05,7.0705716543062293e-05,2.7643740454203549e-05,4.6066282249769329e-05,6.6964881603562781e-05,1.945910149055313,-3.1014206273258687,0.3323259639212246,-0.029957180524793143,4
1480026630,0.47748946354650645,42.33875706847364,-71.088208237785878,65.0,0.007958157725775107,2.0276755700089298e-05,9.4690337812623499e-05,2.7643740454203549e-05,5.2735191085789352e-05,6.8634837590138503e-05,1.7917594692280547,-3.101450275552013,0.3316654697854895,-0.029924182121279588,4
1480026660,0.6469232148135937,42.338757505780116,-71.088214003766012,65.0,0.010782053580226563,1.4185738623318931e-05,9.4690337812623499e-05,4.9491880654621253e-05,5.3020017237265947e-05,6.4781842992733807e-05,1.945910149055313,-3.1013900675912631,0.33228380045939659,-0.029849571240970672,4
1480026690,0.41169808128538427,42.338759317698027,-71.08821360144853,65.0,0.006861634688089738,6.4694629536201359e-06,6.9653317593316031e-05,4.9491880654621253e-05,6.0925964912561849e-05,6.7784833254404007e-05,1.945910149055313,-3.1013646420641416,0.3327130754182876,-0.029838791196078743,4
1480026720,0.5717389167299674,42.338757033326367,-71.088206915356182,65.0,0.009528981945499455,9.5441921048554103e-06,7.7432170113141997e-05,4.7784509031369995e-05,5.9018299565024231e-05,6.9639817775029987e-05,1.7917594692280547,-3.1014103623997058,0.33271778130056268,-0.029864298918408652,4
1480026750,0.2845272829428636,42.338758154327088,-71.088209552344694,65.0,0.00474212138238106,1.0764950937632273e-05,7.7432170113141997e-05,4.2605204201119179e-05,5.2819588317581172e-05,6.5169705664880546e-05,1.945910149055313,-3.101415744829207,0.33283543182214342,-0.029871786999273297,4
1480026780,0.19846338355479498,42.338761366001862,-71.088215024747655,65.0,0.003307723059246583,8.8497362053050954e-06,6.5344544360294271e-05,4.2605204201119179e-05,4.5871455711424321e-05,6.2055265657565676e-05,1.945910149055313,-3.1014396561613014,0.33311595375077829,-0.029851258927357203,4
1480026810,0.41547278942468674,42.338758173648642,-71.088214045145889,65.0,0.006924546490411446,8.3750734848488825e-06,6.886884442962386e-05,4.3582852924325884e-05,4.9581990034910192e-05,6.0239960579298989e-05,1.7917594692280547,-3.1014874444865281,0.33307354047706184,-0.029847619076008136,4
1480026840,0.6705885288661689,42.338759567077616,-71.088214529540352,65.0,0.011176475481102816,1.1133647023186639e-05,6.886884442962386e-05,3.6032191344320146e-05,4.6421891516160396e-05,6.2690075638114097e-05,1.945910149055313,-3.1014486509591275,0.33292131216802778,-0.02985875906447457,4
1480026870,0.4625690963409509,42.338759037734455,-71.088216187309996,65.0,0.0077094849390158485,1.0277326545295397e-05,6.5093451183479624e-05,3.5750532484052065e-05,3.7055772727481926e-05,5.2350483199845667e-05,1.945910149055313,-3.1014141915457918,0.33251396949688533,-0.029864801104296561,4
1480026900,0.827889135458853,42.338754761228408,-71.08820497258057,65.0,0.01379815225764755,1.3266115187529167e-05,7.4412425750046768e-05,3.5750532484052065e-05,4.2414591279297711e-05,5.9727677745461579e-05,1.7917594692280547,-3.101417873072275,0.33171924363541594,-0.029853047744763717,4
1480026930,3.149408401417672,42.33875908089238,-71.08820132252157,65.0,0.05249014002362787,1.1625162606455332e-05,7.4412425750046768e-05,3.8622693601117856e-05,4.2744708149790932e-05,5.8240866373164831e-05,1.945910149055313,-3.1014477187364831,0.33177334510476408,-0.029881140524526045,4
1480026960,0.3769942512090035,42.338760761545515,-71.088211661579322,65.0,0.006283237520150058,1.5565765627402847e-05,7.0196283639708363e-05,1.484898448793117e-05,3.7811839397642256e-05,4.8304554541789228e-05,1.945910149055313,-3.1014859352403161,0.33184510325335215,-0.029868982701300773,4
1480026990,0.5409702095001845,42.338755900213428,-71.088204682165923,65.0,0.009016170158336409,2.1607101304678484e-05,7.9377360124636582e-05,1.484898448793117e-05,3.753938053330156e-05,6.6068356469379451e-05,1.7917594692280547,-3.1014426851094483,0.33140459818503487,-0.029799693731763454,4
1480027020,0.1912218835183267,42.33875749928005,-71.088204687422078,65.0,0.0031870313919721118,1.3303716118327665e-05,7.9377360124636582e-05,3.9154566550706277e-05,4.0585062843227318e-05,5.3263525787322211e-05,1.945910149055313,-3.1014059440625741,0.33091633217980604,-0.029835333707528954,4
1480027050,1.92190659721092,42.338758401084185,-71.088211583845336,65.0,0.032031776620182,1.248497870860365e-05,7.341210775633495e-05,3.6292344110126994e-05,4.0585062843227318e-05,5.6704214576351145e-05,1.945910149055313,-3.1014185316449661,0.33065996337387188,-0.029863920430719615,4
1480027080,0.31860282319263705,42.338755893224906,-71.08821063825684,65.0,0.005310047053210617,1.1547521996024914e-05,7.341210775633495e-05,3.6292344110126994e-05,4.7789784110551553e-05,5.9434253832165445e-05,1.7917594692280547,-3.1013579798157216,0.33050979496106864,-0.029842398516130634,4
1480027110,0.9810295373755146,42.338758089270662,-71.088210173981764,65.0,0.01635049228959191,5.9471102236861362e-06,6.1550594749936575e-05,4.238365496381365e-05,4.7113934624830926e-05,5.3378398851656695e-05,1.945910149055313,-3.1013709930062303,0.33093502921396073,-0.02987197933872373,4
1480027140,0.22210699688340074,42.338759650392078,-71.088211289402693,65.0,0.0037017832813900126,8.0361136174792171e-06,6.1550594749936575e-05,3.7321312158976311e-05,4.4898846030370621e-05,5.4837497666580774e-05,1.945910149055313,-3.101416032826827,0.33124865555049726,-0.029923449667973213,4
1480027170,0.09131188989819744,42.338758600079785,-71.088210861626791,65.0,0.001521864831636624,7.6787430168973594e-06,5.9558438203956128e-05,3.7321312158976311e-05,3.9945990513237083e-05,5.0176220075798096e-05,1.7917594692280547,-3.1014087632311251,0.33121177731434781,-0.029900217731128029,4
1480027200,0.19011771342036016,42.338761483947806,-71.088212197424511,65.0,0.0031686285570060027,6.3841704453251853e-06,5.5485176832486731e-05,3.7726353895345955e-05,3.8329904269237179e-05,4.8010237926654503e-05,1.945910149055313,-3.10144123408941,0.33117106855611483,-0.029842062508971885,4
1480027230,0.4120039836160225,42.338768162397493,-71.088216451166105,65.0,0.006866733060267041,7.1517136713907276e-06,5.5485176832486731e-05,3.7726353895345955e-05,3.8913619658033298e-05,4.9357978315033126e-05,1.945910149055313,-3.101487528111464,0.33123388568392359,-0.029847366552507599,4
1480027260,0.11085275405533428,42.338764031792209,-71.088211863839703,65.0,0.001847545900922238,9.6560032751902475e-06,6.0547503883061647e-05,3.624143859994092e-05,4.0217255273204238e-05,5.7900153864193811e-05,1.7917594692280547,-3.1015150994876399,0.33136753321118012,-0.029882077039476932,4
1480027290,1.1093633555555955,42.338759664631411,-71.08821054761107,65.0,0.018489389259259924,1.2997387678240048e-05,6.0547503883061647e-05,2.4296805921682755e-05,3.55635377356245e-05,5.7104146586370281e-05,1.945910149055313,-3.1014994268231715,0.33133762196038152,-0.029908315005658995,4
1480027320,0.33400453879305764,42.338762180906535,-71.088216950792884,65.0,0.005566742313217628,1.0675124301635268e-05,5.544436195192471e-05,2.4296805921682755e-05,3.3936179957097003e-05,5.0611443964395263e-05,1.945910149055313,-3.1014690365429294,0.33147818433354781,-0.029899989680137826,4
1480027350,7.24625929529317,42.338765217922166,-71.088208773228686,65.0,0.12077098825488616,6.5562508657961841e-06,4.9835827689910547e-05,3.2986723042885925e-05,3.6093769267149176e-05,4.7612736425689138e-05,1.7917594692280547,-3.1014841535094853,0.33164351064636161,-0.029931920640221238,4
1480027380,0.25352711529978306,42.338768183205659,-71.088201788198603,65.0,0.004225451921663051,3.745640854699495e-06,4.7901029667658644e-05,3.5384886370645018e-05,3.8370181062949797e-05,4.2539900285743477e-05,1.945910149055313,-3.1014944308441454,0.33130745346674767,-0.029971078076554847,4
1480027410,6.666526491604935,42.338769253358343,-71.088209219646856,65.0,0.11110877486008225,9.95399913719772e-06,6.7662585843934091e-05,3.4660981018463916e-05,3.9833363524099423e-05,4.4991600627215244e-05,1.945910149055313,-3.1015095227547427,0.33113433795125014,-0.029969879383370087,4
1480027440,0.6995473740789883,42.338771280283353,-71.088214852032408,65.0,0.01165912290131647,1.7124877287107757e-05,6.7662585843934091e-05,1.1749948406533802e-05,2.9693926124241188e-05,4.4833461879116309e-05,1.7917594692280547,-3.1017323282359199,0.33083644285445252,-0.029946816859576619,4
1480027470,0.6051299889550503,42.338768972206836,-71.088210275590328,65.0,0.010085499815917505,0.00075794665642604482,0.0021998842380080066,1.1749948406533802e-05,3.3128614967478164e-05,4.3983299440365667e-05,1.945910149055313,-3.0997224434068356,0.052156475502857853,-0.026891843818744182,4
1480027500,1.5885157472138371,42.338764465219242,-71.088208364759993,65.0,0.026475262453563953,0.00075667600916828708,0.0021998842380080066,2.5100389499718937e-05,3.3912854546679116e-05,4.4456553983359046e-05,1.945910149055313,-3.0940420399362241,-0.25681540041030387,-0.024346400443371271,4
1480027530,0.6789569793790641,42.338769990819195,-71.088213048081059,65.0,0.011315949656317735,1.0845031342749172e-05,4.6731825777996259e-05,1.7031617222903847e-05,2.6226972204264748e-05,4.3655681889615649e-05,1.7917594692280547,-3.0885902982925182,-0.39031530949205923,-0.024062152967912035,4
1480027560,2.0759780586077508,42.33877354580914,-71.088212919237748,65.0,0.034599634310129176,1.0436490116604926e-05,4.6731825777996259e-05,1.7031617222903847e-05,2.5819721044977562e-05,4.2388259304264782e-05,1.945910149055313,-3.0886697886667904,-0.3907915427616459,-0.024069967898965344,4
1480027590,1.4990041482783711,42.338759372101954,-71.088209578705346,65.0,0.024983402471306187,1.4999930997001261e-05,6.8569801253402644e-05,2.1901902230327415e-05,2.5819721044977562e-05,4.0386394197581616e-05,1.945910149055313,-3.0887277190844071,-0.39125266868331388,-0.024007240079857686,4
1480027620,1.1874551783647689,42.338763422880696,-71.088211702972018,65.0,0.019790919639412815,1.7931612573347036e-05,6.8569801253402644e-05,2.1901902230327415e-05,2.8389326449808634e-05,5.9847023717317374e-05,1.7917594692280547,-3.0887132353786662,-0.39122097950025775,-0.023980980289248884,4
1480027650,1.3279045201075546,42.338769258496498,-71.088212457129003,65.0,0.022131742001792576,1.2005570324288833e-05,6.399231328991481e-05,2.7184011970510404e-05,3.2239746384380267e-05,4.7197634419458288e-05,1.945910149055313,-3.0887929473350058,-0.3916081251143349,-0.023956266485547516,4
1480027680,1.2847766911691068,42.338763522065925,-71.088209671164435,65.0,0.021412944852818448,1.0088814507345345e-05,4.6984113839391523e-05,1.5981262367792312e-05,3.0775653513454495e-05,4.3154453032911329e-05,1.945910149055313,-3.0888467016883441,-0.3918697449371637,-0.023974499060926673,4
1480027710,0.8697099008151122,42.338749653150622,-71.088196969517654,65.0,0.014495165013585203,1.6187907578298433e-05,7.0285630951827076e-05,1.5981262367792312e-05,3.603754656362122e-05,4.6288036825780382e-05,1.7917594692280547,-3.088900801200825,-0.39174511612277718,-0.024021835757478016,4
1480027740,8.711953982065701,42.338757481508274,-71.088203020225663,65.0,0.14519923303442836,1.8165680107465926e-05,7.0285630951827076e-05,1.9222307557042754e-05,3.1540666232679342e-05,5.7393924479006908e-05,1.945910149055313,-3.088864085903146,-0.39188110468814635,-0.024010614848907343,4
1480027770,0.3046705341096901,42.338772289552786,-71.088217808574214,65.0,0.005077842235161501,1.7171686998358099e-05,6.6813860598519462e-05,1.9222307557042754e-05,2.8614193264794858e-05,5.2330153473821957e-05,1.945910149055313,-3.0888520174185774,-0.39214593580570478,-0.023962879828397333,4
1480027800,2.019467035008123,42.338764792904669,-71.088212103732104,65.0,0.033657783916802055,1.2789806193702693e-05,7.0696091399745684e-05,3.4368765215910107e-05,4.1855429738323985e-05,6.0709801361077449e-05,1.7917594692280547,-3.0888769858069849,-0.39224366403222549,-0.023941231781958987,4
1480027830,0.19800901902480358,42.338762143439503,-71.08821117392101,65.0,0.0033001503170800596,1.3309970209393593e-05,7.0696091399745684e-05,3.4209811238752041e-05,3.898974650574754e-05,5.8045721112794807e-05,1.945910149055313,-3.0888716139256571,-0.39227662987594963,-0.023936519834692329,4
1480027860,1.8719989704977398,42.338768023578766,-71.088211048163146,65.0,0.031199982841628997,1.0680955316244383e-05,6.6568024169174342e-05,3.4209811238752041e-05,3.7881344908133486e-05,5.1779906490185453e-05,1.945910149055313,-3.0888050676686896,-0.39238223120994231,-0.023968407272888455,4
1480027890,1.2243102324006874,42.338767472522285,-71.088209810857109,65.0,0.020405170540011456,9.4021768095418245e-06,5.4047116059949208e-05,2.418273515091889e-05,4.1759279604915594e-05,4.8578317833831128e-05,1.7917594692280547,-3.0887320479288753,-0.39253198425093599,-0.024041944706124932,4
1480027920,0.16395643734421095,42.338760173636018,-71.088194809441873,65.0,0.0027326072890701825,2.04618592129961e-05,9.0885262854597648e-05,2.418273515091889e-05,3.1118678043681168e-05,4.6147660372815605e-05,1.945910149055313,-3.0888259366051432,-0.39246271207818884,-0.024039225477135755,4
1480027950,2.12925951792054,42.338751100139213,-71.088185663618972,65.0,0.035487658632009,2.416601615084833e-05,9.0885262854597648e-05,9.4151227131646458e-06,3.1118678043681168e-05,5.418007444561337e-05,1.945910149055313,-3.0888778196027502,-0.39229772535540203,-0.023990274785034901,4
1480027980,5.187753254512035,42.338736921086934,-71.088162717515871,65.0,0.08646255424186726,1.5372585448322116e-05,6.1840008719654912e-05,9.4151227131646458e-06,3.2362289684127068e-05,3.9233054266522579e-05,1.7917594692280547,-3.0889007660651799,-0.39251678327527051,-0.023974017432148831,4
1480028010,8.561722551656537,42.33873598061983,-71.088155971366717,65.0,0.14269537586094228,9.9035621026958167e-06,5.038217099590751e-05,1.7812468385967539e-05,2.7177105011356311e-05,3.8123086210022479e-05,1.945910149055313,-3.0889371644549826,-0.39273407041913683,-0.023922329438255455,4
1480028040,3.1420553967002203,42.338747372622983,-71.088177147968963,65.0,0.05236758994500367,1.9553372748303131e-05,7.5711724853285068e-05,1.7812468385967539e-05,2.7278887949023715e-05,5.5212078434791484e-05,1.945910149055313,-3.0889559867444984,-0.39250630639495782,-0.023903724261418714,4
1480028070,2.398155394456641,42.338747303744071,-71.088179143378724,65.0,0.03996925657427735,1.5841906921054958e-05,7.5711724853285068e-05,3.1141159460173553e-05,3.529714020421011e-05,5.7432800514516859e-05,1.7917594692280547,-3.0889415289178515,-0.39235228719277532,-0.023933047583577418,4
1480028100,4.638583287166481,42.338753283302964,-71.088198023588404,65.0,0.07730972145277469,3.4121598544448997e-05,0.00014266830787140072,3.4944629662356593e-05,4.297995813340585e-05,6.110617379858225e-05,1.945910149055313,-3.0888995996292818,-0.3928368863376584,-0.024112545243342397,4
1480028130,1.323926462419603,42.33877121728321,-71.088219685626541,65.0,0.022065441040326716,3.5176600763259937e-05,0.00014266830787140072,2.9047969471631979e-05,4.1904298322080361e-05,6.110617379858225e-05,1.945910149055313,-3.0888803132641933,-0.39315247753008215,-0.024307117404676625,4
1480028160,3.1553153850237363,42.338772228271075,-71.088219765494514,65.0,0.052588589750395605,1.0214250081250981e-05,5.477563321280204e-05,2.9047969471631979e-05,3.2340297767043843e-05,5.0229022492064942e-05,1.7917594692280547,-3.0889144906394752,-0.39280561012030396,-0.024313125460104265,4
1480028190,1.5589584986011606,42.338769547748726,-71.088206653500265,65.0,0.025982641643352677,7.053396956132534e-06,5.3667919780937313e-05,3.4120401829037999e-05,3.7556332742566591e-05,4.9390104143289763e-05,1.945910149055313,-3.0890084623519418,-0.39223048336248495,-0.024248768456757868,4
1480028220,2.3136802896271393,42.338760254081322,-71.088197852780624,65.0,0.038561338160452326,1.6628504032539038e-05,7.3769228503893004e-05,1.6189489579287057e-05,3.351032125384372e-05,4.9390104143289763e-05,1.945910149055313,-3.0891687945009059,-0.3917869991877419,-0.024148320857643468,4
1480028250,0.8619295991034746,42.338751022692186,-71.088198923716703,65.0,0.014365493318391242,1.8073997776480759e-05,7.3769228503893004e-05,1.6189489579287057e-05,3.4055274193819713e-05,5.231156848320154e-05,1.7917594692280547,-3.0892928985855455,-0.39138509262128135,-0.024074009085441217,4
1480028280,1.0644906790155377,42.338757332932104,-71.088203835227318,65.0,0.01774151131692563,9.1224680878808138e-06,5.5802649826245079e-05,3.0072974722601914e-05,3.4990989360776575e-05,4.7337615219669735e-05,1.945910149055313,-3.0892498588970772,-0.39168152798931349,-0.024129773679732673,4
1480028310,7.550429225726459,42.338756046815014,-71.088199183975561,65.0,0.125840487095441,7.9265491537312844e-06,5.283690598526853e-05,3.0072974722601914e-05,3.4990989360776575e-05,4.649449732148867e-05,1.945910149055313,-3.0891088212224895,-0.39204789364710513,-0.024249143301134014,4
1480028340,0.7671253115957986,42.338751334682087,-71.088185427216374,65.0,0.012785421859929976,3.4390000229392701e-06,4.7109826168149307e-05,3.7280671133802858e-05,4.0682004912401006e-05,4.5642419000799125e-05,1.7917594692280547,-3.0890511193073866,-0.39198339376714603,-0.024314184965618182,4
1480028370,6.366398249220576,42.33876002441972,-71.088186251263863,65.0,0.1061066374870096,1.5070900368410958e-05,8.0882514315503383e-05,3.4292821643717185e-05,3.6556742479509007e-05,4.1994594374902261e-05,1.945910149055313,-3.0892659063494383,-0.39169852115518317,-0.024164945519209943,4
1480028400,1.5437269725885936,42.338762088509824,-71.088200107389099,65.0,0.02572878287647656,5.3672436981350319e-05,0.00018987668819337865,2.5727718488049146e-05,3.5062817734466171e-05,6.2786330777921213e-05,1.945910149055313,-3.0891492389499029,-0.39170758891130875,-0.024200519102942731,4
1480028430,4.687459306830273,42.338751297683793,-71.088191693920194,65.0,0.07812432178050455,5.4681731052940793e-05,0.00018987668819337865,2.5727718488049146e-05,4.166547397132735e-05,7.589545226372295e-05,1.7917594692280547,-3.0890115998738215,-0.3917619638012253,-0.024293060136909215,4
1480028460,9.83250735841915,42.338750975952095,-71.088175264521155,65.0,0.16387512264031917,1.9127568130053505e-05,9.1110514195148537e-05,4.0657249548323453e-05,4.6178916199145018e-05,8.1222033088452648e-05,1.945910149055313,-3.0891225401706159,-0.39201468955354274,-0.024240904818805559,4
1480028490,1.8371507539503327,42.33875135142997,-71.088170575263035,65.0,0.030619179232505546,1.8867815391432587e-05,9.1110514195148537e-05,4.1476999237231248e-05,4.2512975317066702e-05,6.6842467464392643e-05,1.945910149055313,-3.0891537082748388,-0.39181361212103771,-0.024179630257865202,4
1480028520,4.216679757014706,42.338759661416823,-71.088189910459064,65.0,0.0702779959502451,1.2767278999776815e-05,5.2060509131613076e-05,1.5466565603944205e-05,3.0084395070827407e-05,4.647469561880979e-05,1.7917594692280547,-3.089179768727965,-0.39146771472452202,-0.024209613289079886,4
1480028550,2.6645390155294777,42.338762884851505,-71.088201932312316,65.0,0.04440898359215796,1.123680152607265e-05,4.7858691240305732e-05,1.5466565603944205e-05,3.1203163314987584e-05,4.580000922226297e-05,1.945910149055313,-3.0892740276820656,-0.39156995435332714,-0.024222023849764261,4
1480028580,2.722078125900811,42.338751282850005,-71.088192423191202,65.0,0.04536796876501351,7.133799427604889e-06,5.3905572006339856e-05,3.2362856028798667e-05,3.5542959388720668e-05,4.5947281518141873e-05,1.945910149055313,-3.0893789331129002,-0.39181133792133643,-0.024129191298581827,4
1480028610,7.269437229677789,42.338733373170847,-71.088168391617401,65.0,0.12115728716129648,7.1747409330802371e-06,5.3905572006339856e-05,3.2362856028798667e-05,3.6557068510902229e-05,4.5626767206716342e-05,1.7917594692280547,-3.0893943291813719,-0.39220403863161207,-0.024098205859323832,4
1480028640,0.9231434092036914,42.338733146305522,-71.088169733476448,65.0,0.015385723486728191,1.1665218113160253e-05,7.0639963628346686e-05,3.1091103454457401e-05,4.1887649020280025e-05,5.1483120161163431e-05,1.945910149055313,-3.0892565329603028,-0.39265238518019785,-0.024188518900101687,4
1480028670,0.6315605970959479,42.338747845170687,-71.088184861396229,65.0,0.010526009951599132,1.2711395278277455e-05,7.0639963628346686e-05,3.1091103454457401e-05,3.7854407269777941e-05,5.5143169211799395e-05,1.945910149055313,-3.0891660845033084,-0.39281630891548458,-0.024260739712037072,4
1480028700,3.1069023356101426,42.33874699602589,-71.088190430460457,65.0,0.051781705593502377,1.0623350060317627e-05,6.7111000250052774e-05,3.5388115537634399e-05,4.0582574835184104e-05,5.1519175385475172e-05,1.7917594692280547,-3.0891674152844786,-0.39258032618841704,-0.024293274061237352,4
1480028730,2.33861691578794,42.338743413340929,-71.088189938816242,65.0,0.03897694859646567,9.409331512544415e-06,6.7111000250052774e-05,4.1368202334971946e-05,4.3835849889649992e-05,5.933403842563233e-05,1.945910149055313,-3.0891595371852429,-0.39257717093027555,-0.024296789158718943,4
1480028760,1.2898339137201777,42.338753344797603,-71.088190469836007,65.0,0.021497231895336297,6.0622649183537222e-06,6.3737583547200473e-05,4.3958588749959146e-05,4.8014165181991571e-05,5.533341288280445e-05,1.945910149055313,-3.0891057387018583,-0.39235853373362611,-0.024311834397501814,4
1480028790,4.371776472119707,42.338760585921264,-71.088200811204928,65.0,0.07286294120199513,9.5131558702458912e-06,6.1515449640890245e-05,3.2521709618938225e-05,4.1976907391564236e-05,5.4018706694787125e-05,1.7917594692280547,-3.0890498803898754,-0.39229009623341771,-0.024288541823543664,4
1480028820,0.28497460286042536,42.338762143277442,-71.088203625783379,65.0,0.004749576714340423,9.4361068629480686e-06,6.1515449640890245e-05,3.2521709618938225e-05,3.6484657845334859e-05,4.8613750272203404e-05,1.945910149055313,-3.0890714834208941,-0.39245239102190627,-0.024254321065511869,4
1480028850,2.3811220487954845,42.33876923299556,-71.088214479211899,65.0,0.039685367479924745,5.8957848717826976e-06,4.9155598351606299e-05,3.2720939491740316e-05,3.8005982571812799e-05,4.6348935745306915e-05,1.945910149055313,-3.0890762794890856,-0.39236110988522288,-0.0243117048691751,4
1480028880,2.618634441846193,42.338760410284443,-71.088204091750839,65.0,0.043643907364103215,8.3462088587257831e-06,6.0725910066937566e-05,3.4216649795173309e-05,4.2166140602704537e-05,5.0615847087528671e-05,1.7917594692280547,-3.0891304058874902,-0.39256302783889468,-0.024359909690654647,4
1480028910,5.980324586877548,42.338756771905587,-71.088196893453301,65.0,0.09967207644795913,6.2339224342746331e-06,6.0725910066937566e-05,4.1766087325146171e-05,4.3983201053824782e-05,5.2289253122600923e-05,1.945910149055313,-3.0891823682322013,-0.39273849334969529,-0.024320050895108782,4
1480028940,1.7149356262128002,42.338759193102568,-71.088196281128148,65.0,0.028582260436880003,8.1931668287077097e-06,6.3834450632368361e-05,3.7293865670290541e-05,4.2419721240668366e-05,5.1972681736136615e-05,1.945910149055313,-3.0891179667033497,-0.39275507486312095,-0.024335398112464744,4
1480028970,4.471566578671584,42.338752390613074,-71.088185844540419,65.0,0.0745261096445264,9.8087655728536161e-06,6.3834450632368361e-05,3.4468329438654297e-05,3.8369913466976984e-05,4.9831883636595682e-05,1.7917594692280547,-3.0890386353104913,-0.39260440428233218,-0.024372748032854132,4
1480029000,1.0774719449243797,42.338755842005519,-71.088197664112883,65.0,0.01795786574873966,8.7652616283980944e-06,6.1099062893600462e-05,3.186812009950805e-05,3.714657664492273e-05,4.419993967647113e-05,1.945910149055313,-3.089032247457602,-0.3927554396067075,-0.024375408851696072,4
1480029030,0.48718137269018774,42.338755901977848,-71.088204024387409,65.0,0.008119689544836462,1.1911541529108341e-05,6.385602734232325e-05,3.186812009950805e-05,4.0671447339867952e-05,6.145087021188091e-05,1.945910149055313,-3.0890657229329186,-0.39289262640759615,-0.024386369679684727,4
1480029060,0.5413034236459007,42.338760594493657,-71.088207522274175,65.0,0.009021723727431678,1.1244358803190975e-05,7.2196197339291485e-05,4.1518070828544735e-05,4.5368584668661504e-05,6.3342689889282777e-05,1.7917594692280547,-3.0890456061596736,-0.39267434143395913,-0.024405396693014118,4
1480029090,1.7261178094334722,42.338760917053953,-71.088203970737609,65.0,0.028768630157224535,1.1421932497431647e-05,7.2196197339291485e-05,3.602860688178025e-05,4.1356234619259725e-05,5.359383450285736e-05,1.945910149055313,-3.0890617195680576,-0.39294675459505857,-0.024399037268383404,4
1480029120,3.621748928582773,42.338752818623419,-71.088181541462205,65.0,0.060362482143046216,4.9633374149101614e-06,5.2385879219704251e-05,3.602860688178025e-05,3.8365787067647462e-05,4.2076367136838422e-05,1.945910149055313,-3.0890904808198796,-0.39329483723618175,-0.024387746773958472,4
1480029150,2.6828102976713937,42.338749866357105,-71.088171707263342,65.0,0.04471350496118989,6.2183912119524996e-06,4.9180677181314496e-05,2.8818229288511257e-05,3.7769452086048729e-05,4.270007718347281e-05,1.7917594692280547,-3.0890670215967848,-0.39358902343738239,-0.024406224793496679,4
1480029180,5.053500336153603,42.338750338150248,-71.08818742300133,65.0,0.08422500560256005,1.0085265483219895e-05,6.2822932220987784e-05,2.8818229288511257e-05,4.3923151734567395e-05,5.4226145359592993e-05,1.945910149055313,-3.0890449924033128,-0.3935865268643301,-0.024444631334369415,4
1480029210,1.207869982136738,42.338752699132087,-71.088200274566688,65.0,0.020131166368945633,5.3242388291428317e-06,6.2822932220987784e-05,4.5166142414512916e-05,4.9339744748172112e-05,5.4226145359592993e-05,1.945910149055313,-3.0890615192090656,-0.39344495430033416,-0.024434295201695072,4
1480029240,0.948122618318617,42.338752374154652,-71.088196985692278,65.0,0.015802043638643615,9.2080139856164748e-06,6.37980463142123e-05,3.2309227876093671e-05,4.7262081799862608e-05,5.0986268845188851e-05,1.7917594692280547,-3.0890723330972762,-0.39328300903401514,-0.024427123253826566,4
1480029270,3.8394257224399437,42.338754762117631,-71.088202548908754,65.0,0.06399042870733239,1.2126172118811441e-05,6.37980463142123e-05,3.103329874179357e-05,3.255330635744985e-05,5.1750971114488653e-05,1.945910149055313,-3.0890115858637457,-0.39325085812873412,-0.024430395718720327,4
1480029300,0.7086285782937257,42.338743329764256,-71.088196982251347,65.0,0.011810476304895429,8.3259302127370475e-06,5.6642947302207438e-05,3.103329874179357e-05,3.4976223378708297e-05,4.6061776191937226e-05,1.945910149055313,-3.0889971727208958,-0.39329328107033895,-0.024452108097018529,4
1480029330,2.4900936315468063,42.338753243542378,-71.088204201159797,65.0,0.04150156052578011,6.1278305704533072e-06,4.7971153283824942e-05,2.9017943155274315e-05,4.3002685775959287e-05,4.5324769654202182e-05,1.7917594692280547,-3.0890123814255532,-0.39321984162859741,-0.024483088316818349,4
1480029360,1.1956263941549932,42.338774485405409,-71.088216458305311,65.0,0.019927106569249887,9.107483927344326e-06,6.2231768595297237e-05,2.9017943155274315e-05,4.3956803642693771e-05,4.8834430558342506e-05,1.945910149055313,-3.08902124285046,-0.39336114080976126,-0.024422069780040887,4
1480029390,2.8180713708353853,42.338766912948493,-71.088204831719779,65.0,0.046967856180589754,8.9484255475907159e-06,6.2231768595297237e-05,3.1692437212208102e-05,3.9804477819657295e-05,4.8834430558342506e-05,1.945910149055313,-3.0890582679989476,-0.39351297217673908,-0.024389330761794368,4
1480029420,0.9989237081451923,42.338753761363151,-71.088198706809976,65.0,0.01664872846908654,1.1440387585410017e-05,6.7187482485142136e-05,3.1692437212208102e-05,3.8984243362472703e-05,4.7795220735236261e-05,1.7917594692280547,-3.0890663983353117,-0.39334632518545015,-0.024400823333855137,4
1480029450,0.9959786370697447,42.338748592829752,-71.088191396162657,65.0,0.01659964395116241,9.5206355431399813e-06,6.7187482485142136e-05,3.717740851630445e-05,3.985334676974861e-05,5.033797865883327e-05,1.945910149055313,-3.0890347354034668,-0.3930485092971428,-0.024401330884112896,4
1480029480,4.452589156610231,42.338750227470555,-71.088191067467619,65.0,0.07420981927683719,8.1654692827893985e-06,5.0506154970135168e-05,2.2234460004178043e-05,3.8879783914400886e-05,4.3671237521626393e-05,1.945910149055313,-3.0890696117250642,-0.39274929518368701,-0.024433303997466998,4
1480029510,2.2819092360428823,42.338755138150631,-71.088191710613586,65.0,0.03803182060071471,1.350824786581526e-05,6.5120675535110611e-05,2.2234460004178043e-05,4.1956943541294056e-05,5.3962822776969978e-05,1.7917594692280547,-3.089122051781473,-0.3924669267150101,-0.024378822747955432,4
1480029540,5.596928933202301,42.338766214948677,-71.088200310569007,65.0,0.09328214888670502,1.2026904812000716e-05,6.5120675535110611e-05,3.0942293112038591e-05,3.851000225871975e-05,5.7528044466330936e-05,1.945910149055313,-3.0891286279796746,-0.39252329209423903,-0.02430507061563017,4
1480029570,3.051491173774208,42.338768679451846,-71.088209501040851,65.0,0.05085818622957013,8.2893172387636922e-06,5.7629209246919942e-05,3.0942293112038591e-05,3.8608859858553995e-05,4.6778171143868261e-05,1.945910149055313,-3.0890800758757684,-0.39257370677468933,-0.024379178158846486,4
1480029600,1.2580796729016173,42.3387612990592,-71.088204833987419,65.0,0.020967994548360288,5.9935310702835431e-06,5.9856301834531948e-05,4.0637580458053453e-05,4.5116097052195788e-05,4.9555241555873254e-05,1.7917594692280547,-3.089047980085915,-0.39250658941698052,-0.024414428010926251,4
1480029630,1.3617955789093383,42.338752857614089,-71.088191992403921,65.0,0.022696592981822306,4.2831859122079579e-05,0.00016736460914984984,3.1574589759808582e-05,4.4943855118283928e-05,5.5919069996165593e-05,1.945910149055313,-3.0890802100302275,-0.39229716401393855,-0.024461531948937753,4
1480029660,1.1005331770598785,42.338754815861435,-71.088189524251774,65.0,0.01834221961766464,4.2735959192919174e-05,0.00016736460914984984,3.1574589759808582e-05,4.5055551604945553e-05,5.543150652565896e-05,1.945910149055313,-3.0891017056140231,-0.39255502319190544,-0.0244848194496767,4
1480029690,6.384273825643873,42.33876020074316,-71.0881924983114,65.0,0.10640456376073121,7.4362734175491008e-06,5.7276183455220157e-05,3.7661358213927668e-05,4.4042437472556969e-05,5.4100461080920135e-05,1.7917594692280547,-3.0891109238868117,-0.39291951674301445,-0.02442841385476548,4
1480029720,1.3543821587996254,42.338759620136081,-71.088191706505228,65.0,0.022573035979993758,6.9298036215378587e-06,6.1464507028802942e-05,3.7661358213927668e-05,4.8920175415428506e-05,5.4190562653767491e-05,1.945910149055313,-3.0890920718044272,-0.39290213321812439,-0.024464068790140958,4
1480029750,4.979180820842036,42.338766101600562,-71.088200148240816,65.0,0.08298634701403393,7.4962278227437828e-06,6.1464507028802942e-05,3.8453794617191598e-05,4.8920175415428506e-05,5.7632804577093351e-05,1.945910149055313,-3.0890959558794644,-0.39278380796674395,-0.024460932080907716,4
1480029780,0.9937978511990241,42.338750909473283,-71.08819294614409,65.0,0.016563297519983734,9.2535354851612627e-06,6.3485948519506041e-05,3.8453794617191598e-05,4.3314107794096707e-05,5.9047122572363567e-05,1.7917594692280547,-3.0890961261458583,-0.39249989297207682,-0.024442284312902001,4
1480029810,2.9132862474041907,42.338742263213689,-71.08819344323885,65.0,0.04855477079006985,6.8852740333195128e-06,6.3485948519506041e-05,4.1901904852272033e-05,4.3472591068926605e-05,4.9430872488959938e-05,1.945910149055313,-3.0890876982067512,-0.39271525109379113,-0.024459222381880596,4
1480029840,0.9768057913314121,42.338755509120688,-71.088211100087975,65.0,0.0162800965221902,3.2964612008561669e-06,5.2291434444103879e-05,4.2793650039935963e-05,4.5336383406398699e-05,5.0481118149019194e-05,1.945910149055313,-3.0891120040895226,-0.39277039202265346,-0.024422728216092343,4
1480029870,7.875363824376902,42.338754698348062,-71.088199061918388,65.0,0.13125606373961504,7.1742891157639022e-06,5.821909116790653e-05,3.567629358082871e-05,4.854521767882328e-05,5.4505531603581475e-05,1.7917594692280547,-3.0890816682936717,-0.39250434593954681,-0.024401788368814903,4
1480029900,0.5537322244364753,42.338745106041763,-71.088183207957997,65.0,0.009228870407274587,1.0923530168640409e-05,5.821909116790653e-05,2.7572979874443975e-05,3.4962271360278345e-05,5.2122099214866642e-05,1.945910149055313,-3.089083767466783,-0.39208842321444798,-0.024450391804756784,4
1480029930,4.470380198889467,42.338754391909575,-71.088192439879677,65.0,0.07450633664815778,9.9387238313891396e-06,5.9020573765803221e-05,2.7572979874443975e-05,3.4962271360278345e-05,4.8867165914306977e-05,1.945910149055313,-3.0891382530711797,-0.39198132810115027,-0.024476660762307732,4
1480029960,3.21511360229337,42.33876207444542,-71.088191520287864,65.0,0.0535852267048895,7.4606637423756714e-06,6.1063153199557283e-05,4.2150657576337587e-05,4.4008556419696684e-05,5.7886230573094778e-05,1.7917594692280547,-3.0891365283166916,-0.39213998212351636,-0.024425776379106381,4
1480029990,3.2890887923723615,42.33875184769451,-71.088161884933953,65.0,0.054818146539539356,1.0346444147454401e-05,6.6410985729117562e-05,3.6428263627280187e-05,4.3319479834748489e-05,6.0361524627841251e-05,1.945910149055313,-3.0890732824632612,-0.39229977093009744,-0.024412879482236971,4
1480030020,2.1816353859894155,42.338745120066946,-71.088160062370335,65.0,0.03636058976649026,1.1626453212296971e-05,6.6410985729117562e-05,3.0822393028853113e-05,3.9402247986494437e-05,5.1932673147839082e-05,1.945910149055313,-3.0890425615417754,-0.39243777922617173,-0.02442367835324329,4
1480030050,4.650033393701404,42.33874883916873,-71.088173727925223,65.0,0.07750055656169005,1.5846411219439746e-05,7.2414481153651374e-05,3.0822393028853113e-05,3.7666499625922667e-05,6.2498374225736456e-05,1.7917594692280547,-3.0890614939421099,-0.3922805856173448,-0.024379865307440716,4
1480030080,3.2700989812090393,42.338759737588077,-71.088187164190302,65.0,0.054501649686817324,1.2567693655758102e-05,7.2414481153651374e-05,3.6096588719327324e-05,4.4012664365346128e-05,5.9836650028946659e-05,1.945910149055313,-3.0890921178980335,-0.39199645116004761,-0.024384095230231256,4
1480030110,0.37778901290109673,42.338755747980187,-71.088202761627556,65.0,0.006296483548351612,5.3414984064419961e-06,5.0924278004699945e-05,3.5069963220195275e-05,3.9703901873091368e-05,4.7241083589445272e-05,1.945910149055313,-3.0890955703523129,-0.39199123876697772,-0.024399655517971641,4
1480030140,5.10231450196829,42.33874982271977,-71.088197904177292,65.0,0.08503857503280483,1.1509306296766124e-05,6.5929632534799168e-05,3.5069963220195275e-05,3.8511393198588995e-05,5.6716602547397777e-05,1.7917594692280547,-3.0890933694960583,-0.39212214644307936,-0.024386519063504863,4
1480030170,2.8020790702164806,42.338751477561992,-71.088197322630791,65.0,0.04670131783694134,8.3976117142666373e-06,6.5929632534799168e-05,4.0814304289371036e-05,4.4825518857819467e-05,5.6970191198070605e-05,1.945910149055313,-3.0890815576012769,-0.39202972033141703,-0.024350295354648999,4
1480030200,5.445697555352476,42.338746291520472,-71.088194313878844,65.0,0.09076162592254126,6.1637258415793731e-06,6.1535521041730675e-05,4.3783380051112946e-05,4.5108989987676874e-05,5.4874088296266894e-05,1.945910149055313,-3.0891144896899196,-0.39187394470312675,-0.024345568482360545,4
1480030230,1.2183482407278985,42.338742652064731,-71.088187402172963,65.0,0.020305804012131643,1.1389716183764392e-05,6.1535521041730675e-05,2.7482530623483634e-05,4.4726801360236163e-05,5.7385015416025383e-05,1.7917594692280547,-3.0891948596936967,-0.39187256432117884,-0.024354558671678985,4
1480030260,5.225026268172672,42.338747277848917,-71.088198305244291,65.0,0.0870837711362112,1.0666501850176489e-05,5.9370247712864126e-05,2.7482530623483634e-05,4.2640699614361166e-05,5.7127526408022461e-05,1.945910149055313,-3.08911983536193,-0.39176654536387728,-0.024397532464760528,4
1480030290,0.05074691662467711,42.338745152842399,-71.088195985415169,65.0,0.0008457819437446186,7.4331119438366219e-06,6.1946543624831002e-05,3.9425160720260996e-05,4.7020572348716456e-05,5.788103431178369e-05,1.945910149055313,-3.0890780264334974,-0.3914422754661534,-0.024386061655150084,4
1480030320,2.612989521795789,42.338756535408905,-71.088202380997743,65.0,0.04354982536326315,1.9214212235882629e-05,0.00010452636117849332,4.5359591616449465e-05,5.2467728429563166e-05,6.1858688227949704e-05,1.7917594692280547,-3.089116790513355,-0.39123321999976762,-0.024360511407066132,4
1480030350,1.7487093160458624,42.338771412423647,-71.088218235711608,65.0,0.02914515526743104,1.9944318286983996e-05,0.00010452636117849332,3.7569378051199855e-05,5.025688553388352e-05,6.62158597342578e-05,1.945910149055313,-3.0890927339265182,-0.39137148083200596,-0.024400886415903673,4
1480030380,2.0443716008205772,42.338765806284556,-71.088214042066468,65.0,0.034072860013676286,1.132185764339912e-05,7.083659743120982e-05,3.7569378051199855e-05,4.7172627073487667e-05,6.0623161471125444e-05,1.945910149055313,-3.08910397364897,-0.39140463243364543,-0.024376191845321638,4
1480030410,4.0806927615520685,42.338761350604855,-71.088208537653372,65.0,0.06801154602586781,1.9418239099795118e-05,0.00010484071471280347,4.5899837749871612e-05,5.1781770784081415e-05,6.887143055892655e-05,1.7917594692280547,-3.0891438264218603,-0.39158880265721213,-0.024398545551929999,4
1480030440,0.8818666805150323,42.338757919441967,-71.088203410984633,65.0,0.014697778008583871,2.6820535870989042e-05,0.00010484071471280347,1.5402542801336535e-05,4.1601428250554265e-05,7.2190906592699999e-05,1.945910149055313,-3.0891485864982187,-0.3918808598377464,-0.024414098186213425,4
1480030470,0.8939734125092184,42.338753134148206,-71.088186444093509,65.0,0.01489955687515364,1.9821074901790664e-05,7.6429995764456483e-05,1.5402542801336535e-05,3.6166603843897931e-05,6.3696736027134648e-05,1.945910149055313,-3.0910404349353384,-0.39153270558986958,-0.024793070778333783,4
1480030500,0.7277690199291967,42.338750845515143,-71.08818395783787,65.0,0.012129483665486612,1.0642414275072626e-05,7.0928462655856574e-05,3.5699441572483499e-05,4.776680674497897e-05,5.5899838756939094e-05,1.7917594692280547,-3.0946705432393968,-0.39081382196762232,-0.025498636291584515,4
1480030530,1.5675286619196869,42.33874515611592,-71.088190477401625,65.0,0.02612547769866145,9.9654014990665293e-06,6.7020716322578746e-05,3.3451538626926707e-05,4.4859240846715203e-05,5.5513575502179395e-05,1.945910149055313,-3.0957901516131718,-0.38995793238088872,-0.025722004909606345,4
1480030560,2.003768276660623,42.338744983909933,-71.088192811305873,65.0,0.033396137944343714,1.1072499489760364e-05,6.7020716322578746e-05,3.3451538626926707e-05,3.9495750464822678e-05,5.5056556632459034e-05,1.945910149055313,-3.0958387189607763,-0.38930442495383477,-0.025745578578968569,4
1480030590,1.0881195733474467,42.338736940635819,-71.088171757146654,65.0,0.018135326222457445,1.4370223924744998e-05,7.2656788037393183e-05,3.2049936124718566e-05,3.8770126505008193e-05,6.0536997618982362e-05,1.7917594692280547,-3.0958589041543552,-0.38954714531931428,-0.025718224451777631,4
1480030620,1.9504958043606389,42.338729562596058,-71.088151624931911,65.0,0.032508263406010644,1.3487834327128935e-05,7.2656788037393183e-05,3.2049936124718566e-05,3.9675724718020942e-05,5.7148267528493806e-05,1.945910149055313,-3.0958258024968015,-0.39009368816276985,-0.025719479986095913,4
1480030650,0.8418138310754224,42.338722234755949,-71.088163990507127,65.0,0.014030230517923707,9.4244582546282559e-06,5.3662041373874943e-05,2.8907717887512477e-05,3.3844642000859372e-05,5.1337735622802961e-05,1.945910149055313,-3.0957985556145631,-0.39017380155036552,-0.025730715897105572,4
1480030680,2.149053861572367,42.338728696465111,-71.088179056801522,65.0,0.03581756435953945,1.0819497589892581e-05,5.3662041373874943e-05,2.5079209057837188e-05,2.8760850014695087e-05,4.4800132529944604e-05,1.7917594692280547,-3.0957730685419569,-0.39040009520372904,-0.025765092877504555,4
1480030710,3.026387577278596,42.338736495127861,-71.088182106671496,65.0,0.05043979295464327,9.0825780983493376e-06,5.0801112917787185e-05,2.5079209057837188e-05,2.9856169879200679e-05,4.2972802006493085e-05,1.945910149055313,-3.0958204979608479,-0.39049225783251529,-0.025725550688730829,4
1480030740,0.5333435840344432,42.338732840286966,-71.088171334646091,65.0,0.008889059733907386,7.3096430672523302e-06,5.0801112917787185e-05,3.1000445701312067e-05,3.6033052390606595e-05,4.9052082481530236e-05,1.945910149055313,-3.0958062115793328,-0.39016121866584941,-0.025725073467596199,4
1480030770,1.7149858292517794,42.338737256117057,-71.088168744003767,65.0,0.028583097154196324,8.2974819621190354e-06,6.3561984622253085e-05,3.5853725846792865e-05,4.4657586243573451e-05,4.9179571678668669e-05,1.7917594692280547,-3.0957726382478703,-0.38970409962931707,-0.025798179296212614,4
