TIMESTAMP,DISTANCE,AVG_LAT,AVG_LNG,GPS_ACCURACY,AVG_SPEED_BY_GPS,ACCLERATOR_STD,MAX_ACCLERATOR,MIN_ACCLERATOR,PERCENTILE_25_ACCLERATOR,PERCENTILE_75_ACCLERATOR,ACCLERATOR_ENTROPY,AVG_ROLL,AVG_YAW,AVG_PITCH,WEEK_DAY
1480512540,3.5489460260784034,42.331703318979798,-71.109846188917402,10.392156862745098,0.059149100434640056,1.3011622995202426e-05,6.6379067550756746e-05,2.9142034482783003e-05,4.2493345316938287e-05,6.1105546962312172e-05,1.7917594692280547,-0.215860894558945,-2.3519204352258134,0.067731286028337737,3
1480512570,6.752613629810851,42.331705195868693,-71.109857523880095,10.0,0.11254356049684751,3.3238728844196472e-05,0.00012866994374843068,2.9142034482783003e-05,4.0882706108018138e-05,6.0768111932324518e-05,1.7917594692280547,0.00055270355138361627,-2.5249226633898165,0.025609205280660779,3
1480512600,6.752613629810851,42.331702471750155,-71.109887866369533,10.0,0.11254356049684751,3.2587336394573308e-05,0.00012866994374843068,2.5954413762520044e-05,3.327683251813162e-05,4.715698080976911e-05,1.945910149055313,-0.0083661573741371214,-2.5231068165155341,0.012660217339973386,3
1480512630,0.0,42.331700837279023,-71.109906071863193,10.0,0.0,8.8578626957429235e-06,5.055778828603566e-05,2.5954413762520044e-05,3.2178695419436828e-05,4.3994499986039068e-05,1.945910149055313,-0.010888868234688759,-2.5198864643443057,0.0083882086987166846,3
1480512660,0.0,42.331700837279023,-71.109906071863193,10.0,0.0,6.8926944140364296e-06,5.055778828603566e-05,2.9723630534963743e-05,3.1702001304407017e-05,3.5748749305518902e-05,1.7917594692280547,-0.011103150536777115,-2.5195039537130199,0.0081499237034597001,3
1480512690,0.0,42.331700837279023,-71.109906071863193,10.0,0.0,1.3326731229461693e-05,6.8841327506757622e-05,2.6353185208175531e-05,3.0593950329010706e-05,3.8371947380750674e-05,1.945910149055313,-0.011119668140810071,-2.5190360963065355,0.0079622230774622771,3
1480512720,0.0,42.331700837279023,-71.109906071863193,10.0,0.0,1.2860597031117019e-05,6.8841327506757622e-05,2.6353185208175531e-05,3.242806025664464e-05,4.1331944065752739e-05,1.945910149055313,-0.010980073415770942,-2.5186529596829454,0.0078300636031235493,3
1480512750,0.0,42.331700837279023,-71.109906071863193,10.0,0.0,5.0791641460156241e-06,4.1672225481273887e-05,2.9103888402019504e-05,3.1465109041856054e-05,4.0895311693460336e-05,1.7917594692280547,-0.010620411623264965,-2.5189149810164717,0.0077974291078388887,3
1480512780,0.0,42.331700837279023,-71.109906071863193,10.0,0.0,4.0353150743795432e-06,4.1266793165100921e-05,2.9185321917731474e-05,2.9868383483955073e-05,3.4515121408887654e-05,1.945910149055313,-0.01040464291518743,-2.5192231718618929,0.0077935675608492589,3
1480512810,0.0,42.331700837279023,-71.109906071863193,10.0,0.0,1.5790917805270094e-05,7.4869941531219625e-05,2.5352776586985179e-05,2.9260802926826895e-05,3.4451195570813192e-05,1.945910149055313,-0.010383238597445643,-2.5193214534298813,0.0077440454790325469,3
1480512840,0.0,42.331700837279023,-71.109906071863193,10.0,0.0,1.7682006585993284e-05,7.4869941531219625e-05,2.0277440541927817e-05,2.7110781283861746e-05,3.6327922234872473e-05,1.7917594692280547,-0.010520129790621349,-2.5196757018739118,0.0076268460468281486,3
1480512870,0.0,42.331700837279023,-71.109906071863193,10.0,0.0,8.8065498511522652e-06,4.186369215701206e-05,1.8242819273034714e-05,2.2622208264069613e-05,3.8286076755139292e-05,1.945910149055313,-0.010679247040043773,-2.5201000073054014,0.0074854719042305945,3
1480512900,0.0,42.331700837279023,-71.109906071863193,10.0,0.0,0.00036287858888337074,0.0010690884942139926,1.8242819273034714e-05,2.4596585440366154e-05,4.377061171373458e-05,1.945910149055313,-0.008807011825699965,-2.5080832831305315,0.00060029418672568453,3
1480512930,0.0,42.331700837279023,-71.109906071863193,10.0,0.0,0.00038442768379024059,0.0010690884942139926,2.42261948945209e-05,3.475391398961454e-05,4.7428630536535399e-05,1.7917594692280547,-0.0066972337066345212,-2.4825153836335399,-0.011681369957416372,3
1480512960,1.7737337791907188,42.331679871345223,-71.109909122875976,10.0,0.02956222965317865,7.3592790096006975e-06,4.8012330291894835e-05,2.4375739167474929e-05,2.965822321810252e-05,3.6978643729280178e-05,1.945910149055313,-0.0071904046644672018,-2.4735507052220558,-0.015166669660006141,3
1480512990,1.7737337791907188,42.331657407844723,-71.109912391818227,10.0,0.02956222965317865,6.5644980935089162e-06,3.7038470524332692e-05,1.7122034393768994e-05,2.4922458110272206e-05,3.4266130083221932e-05,1.945910149055313,-0.0072822696115072676,-2.47423240775053,-0.015577254915650414,3
1480513020,0.0,42.331655910278023,-71.10991260974771,10.0,0.0,5.955334326527675e-06,3.4684990783308304e-05,1.7122034393768994e-05,2.5723782651121077e-05,3.2486696578256509e-05,1.7917594692280547,-0.0073011860772106973,-2.4749751356209853,-0.015812647256948066,3
1480513050,0.0,42.331655910278023,-71.10991260974771,10.0,0.0,5.4223276714491729e-06,3.4373933152444534e-05,1.7944772760863725e-05,2.6232713779174948e-05,3.3086772101658909e-05,1.945910149055313,-0.007322648260731467,-2.474417567322253,-0.015916917646748428,3
1480513080,0.0,42.331655910278023,-71.10991260974771,10.0,0.0,6.217664347522135e-06,3.8436072266245874e-05,1.7944772760863725e-05,3.1197623599093499e-05,3.5497186289989601e-05,1.945910149055313,-0.0073836033042794808,-2.4734377905557987,-0.016014253605503015,3
1480513110,0.0,42.331655910278023,-71.10991260974771,10.0,0.0,6.149044243308904e-06,3.8436072266245874e-05,2.1668235111325079e-05,2.5909624540908172e-05,3.5882995971196649e-05,1.7917594692280547,-0.0074292770912098858,-2.4727984945560588,-0.016074100721318315,3
1480513140,0.0,42.331655910278023,-71.10991260974771,10.0,0.0,5.23188160399214e-06,3.8177138515532232e-05,2.1668235111325079e-05,2.3905203142278178e-05,2.9042330952223587e-05,1.945910149055313,-0.0074032632299886837,-2.4727536060692938,-0.016177237082474486,3
1480513170,0.0,42.331655910278023,-71.10991260974771,10.0,0.0,6.5949454310705802e-06,4.0111903287198243e-05,2.2120059239387896e-05,2.6964833006116195e-05,3.8634611591031396e-05,1.945910149055313,-0.0074288466182941878,-2.4725946247845711,-0.016238109987554029,3
1480513200,0.0,42.331655910278023,-71.10991260974771,10.0,0.0,7.5238030584358778e-06,4.0111903287198243e-05,1.9574086439305084e-05,2.5316048688175439e-05,3.6043050281525085e-05,1.7917594692280547,-0.0074580844735177912,-2.4726411715109831,-0.016272799626480983,3
1480513230,0.0,42.331655910278023,-71.10991260974771,10.0,0.0,5.2143444700769791e-06,3.835269579714586e-05,1.9574086439305084e-05,2.5329007414481105e-05,2.7282690644488614e-05,1.945910149055313,-0.0074685567169592059,-2.4732736430461708,-0.016329919762726769,3
1480513260,0.0,42.331655910278023,-71.10991260974771,10.0,0.0,5.7849781524576655e-06,4.118650967701846e-05,2.5764589214818886e-05,2.7263718378441619e-05,3.6961172092996619e-05,1.945910149055313,-0.0075209492717112792,-2.4734909147612592,-0.016369022556167918,3
1480513290,0.0,42.331655910278023,-71.10991260974771,10.0,0.0,8.6822442920115491e-06,4.5937989377471264e-05,2.2864718474403493e-05,2.4833601055722965e-05,3.978229435497569e-05,1.7917594692280547,-0.0075508741386904063,-2.4734692508264233,-0.016400186279782052,3
1480513320,0.0,42.331655910278023,-71.10991260974771,10.0,0.0,8.71319530131545e-06,4.5937989377471264e-05,2.210086686378153e-05,2.3248715968314859e-05,3.3605337184526876e-05,1.945910149055313,-0.0075563265567735929,-2.4737998056013741,-0.016402796092785044,3
1480513350,0.0,42.331655910278023,-71.10991260974771,10.0,0.0,5.3784846149639825e-06,3.9590851892330711e-05,2.210086686378153e-05,2.4650152260442891e-05,3.0018048148204136e-05,1.945910149055313,-0.0076190639803294579,-2.4741098161859001,-0.016406972576923941,3
1480513380,0.0,42.331655910278023,-71.10991260974771,10.0,0.0,4.3163671684416932e-06,3.7134485403943156e-05,2.4499183407244901e-05,2.5590298173133727e-05,3.0978885647371108e-05,1.7917594692280547,-0.0076636460314101042,-2.4741469147104835,-0.016439149489868084,3
1480513410,0.0,42.331655910278023,-71.10991260974771,10.0,0.0,6.9198297958422701e-06,3.7134485403943156e-05,1.753686408463769e-05,1.9116314816802087e-05,3.0530648913817531e-05,1.945910149055313,-0.0076576367145083689,-2.4739619117972214,-0.016505983735439114,3
1480513440,0.0,42.331655910278023,-71.10991260974771,10.0,0.0,4.7708915980612944e-06,3.1226249910956576e-05,1.6526630580952293e-05,1.7785351926462151e-05,2.1737335581204276e-05,1.945910149055313,-0.0076957738392222554,-2.4740223933562686,-0.016497803546560115,3
1480513470,0.0,42.331655910278023,-71.10991260974771,10.0,0.0,5.5171535302682707e-06,3.3407380532668419e-05,1.6526630580952293e-05,1.9345210822515839e-05,2.5281341128516796e-05,1.7917594692280547,-0.0076916816586976404,-2.4743061106309483,-0.016463218231542235,3
1480513500,0.0,42.331655910278023,-71.10991260974771,10.0,0.0,5.3074019478808488e-06,3.3407380532668419e-05,1.7086721786226344e-05,2.522976619958367e-05,3.1801791760336814e-05,1.945910149055313,-0.0077441204835134777,-2.4746493338890616,-0.016505722098482483,3
1480513530,0.0,42.331655910278023,-71.10991260974771,10.0,0.0,4.7625181660009417e-06,3.3244693787092679e-05,1.7086721786226344e-05,2.6533541384339362e-05,2.9942114428329231e-05,1.945910149055313,-0.0077858655171664914,-2.4748414425886258,-0.016546785167747359,3
1480513560,0.0,42.331655910278023,-71.10991260974771,10.0,0.0,2.9335037174696266e-06,2.9525339123077513e-05,2.1513568032706628e-05,2.2201172432555925e-05,2.6821149490337816e-05,1.7917594692280547,-0.0077561195324896831,-2.4748625606578236,-0.016564536162759848,3
1480513590,0.0,42.331655910278023,-71.10991260974771,10.0,0.0,3.8234897521758686e-06,2.8974755844737582e-05,1.7429292136319891e-05,2.1369003017635219e-05,2.5614043120240684e-05,1.945910149055313,-0.00772992171362485,-2.4746886262798959,-0.016564315641849459,3
1480513620,0.0,42.331655910278023,-71.10991260974771,10.0,0.0,5.1516928881393367e-06,2.8974755844737582e-05,1.6174211809628818e-05,1.8716941089304201e-05,2.8492301466644357e-05,1.945910149055313,-0.0077283793351688428,-2.4744527191901216,-0.016610963905669716,3
1480513650,0.0,42.331655910278023,-71.10991260974771,10.0,0.0,5.0661412001871071e-06,3.1190924033014029e-05,1.6174211809628818e-05,2.0419968742963759e-05,2.7243010060581162e-05,1.7917594692280547,-0.0078070110227230023,-2.4741633831800449,-0.016623597332890549,3
1480513680,0.0,42.331655910278023,-71.10991260974771,10.0,0.0,4.3973827801804699e-06,3.1190924033014029e-05,1.8649110372666909e-05,2.0661211960748115e-05,2.7176220258465711e-05,1.945910149055313,-0.0078252261516825513,-2.474644363416147,-0.016616264865846057,3
1480513710,0.0,42.331655910278023,-71.10991260974771,10.0,0.0,0.00049445846875521664,0.0014365146836023666,1.8649110372666909e-05,2.1436194247208992e-05,2.7319854947924603e-05,1.945910149055313,-0.0073209087535660794,-2.4751822243481802,-0.016833882963412115,3
1480513740,0.0,42.331655910278023,-71.10991260974771,10.0,0.0,0.00052688351799351615,0.0014365146836023666,1.9111659103663036e-05,2.2674709896620922e-05,2.4833645278497835e-05,1.7917594692280547,-0.0062509515111829964,-2.4752512280901131,-0.017346151209618299,3
1480513770,0.0,42.331655910278023,-71.10991260974771,10.0,0.0,6.6620771749275533e-06,3.8562816284073553e-05,1.7962195842181351e-05,1.8867946806913017e-05,2.3096522461804916e-05,1.945910149055313,-0.0058568557798348731,-2.4755379420908628,-0.017566906510629528,3
1480513800,0.0,42.331655910278023,-71.10991260974771,10.0,0.0,7.1340531573644709e-06,3.8562816284073553e-05,1.7962195842181351e-05,1.9387878804298659e-05,2.9559278604057843e-05,1.945910149055313,-0.0058415511463660846,-2.4757298838195498,-0.017563496607362231,3
1480513830,0.0,42.331655910278023,-71.10991260974771,10.0,0.0,5.1115717036034168e-06,3.1536734964899437e-05,1.6404614196399487e-05,1.9539066466227721e-05,2.6672354180505103e-05,1.7917594692280547,-0.0058009685634315819,-2.4758139415060381,-0.017573464450014186,3
1480513860,0.0,42.331655910278023,-71.10991260974771,10.0,0.0,2.294402932578615e-06,2.3943949992371655e-05,1.6404614196399487e-05,1.908746708360556e-05,2.1380058168666314e-05,1.945910149055313,-0.0058841779541595569,-2.4758398079481014,-0.017592554767602887,3
1480513890,0.0,42.331655910278023,-71.10991260974771,10.0,0.0,2.4408411415824072e-06,2.5842540420300281e-05,1.7887173901736978e-05,1.9474926641000806e-05,2.228386474861951e-05,1.945910149055313,-0.005890571870698416,-2.4759306754020929,-0.017606931859815027,3
1480513920,0.0,42.331655910278023,-71.10991260974771,10.0,0.0,2.9786197368817111e-06,2.6588893760788154e-05,1.7887173901736978e-05,2.2331171274213409e-05,2.5787650675008349e-05,1.7917594692280547,-0.0058581903798671717,-2.4764528737780149,-0.017584490910691166,3
1480513950,0.0,42.331655910278023,-71.10991260974771,10.0,0.0,5.2996503372296027e-06,3.014247327265041e-05,1.1909339693005059e-05,2.4021969600938824e-05,2.6105937599960353e-05,1.945910149055313,-0.0058429920105023108,-2.4763289507576189,-0.017613258626796201,3
1480513980,0.0,42.331655910278023,-71.10991260974771,10.0,0.0,6.897999771131014e-06,3.014247327265041e-05,1.1909339693005059e-05,1.7271437202377137e-05,2.7301942397890022e-05,1.945910149055313,-0.0058193736992528848,-2.4760528842477356,-0.017649427216456556,3
1480514010,0.0,42.331655910278023,-71.10991260974771,10.0,0.0,5.1864697389160013e-06,2.9269102298958577e-05,1.2350782920923937e-05,2.1627633703702396e-05,2.4885880005638417e-05,1.7917594692280547,-0.0058749634677934702,-2.4759890952618351,-0.017607062101975133,3
1480514040,0.0,42.331655910278023,-71.10991260974771,10.0,0.0,4.2580457577808572e-06,3.0590045838354946e-05,1.5497423992454198e-05,2.1407144569963074e-05,2.4882213614568068e-05,1.945910149055313,-0.0058680279580674843,-2.4759557032152872,-0.017572012792432742,3
1480514070,0.0,42.331655910278023,-71.10991260974771,10.0,0.0,4.3447664845513518e-06,3.0590045838354946e-05,1.5497423992454198e-05,1.9812522795087589e-05,2.2764063320736967e-05,1.945910149055313,-0.0058363741950043365,-2.4759034904991215,-0.017601934306738141,3
1480514100,0.0,42.331655910278023,-71.10991260974771,10.0,0.0,5.9868651300547579e-06,3.0455427037489028e-05,1.2580081423398768e-05,1.977586842898088e-05,2.6554691253921542e-05,1.7917594692280547,-0.0058519419135714817,-2.4758731313308568,-0.017657760464369433,3
1480514130,0.0,42.331655910278023,-71.10991260974771,10.0,0.0,7.7176703146612036e-06,3.0455427037489028e-05,9.7087370080262778e-06,1.2571432924929747e-05,2.6001543704479636e-05,1.945910149055313,-0.0058278702083972411,-2.4760792904929971,-0.017721741957293712,3
1480514160,0.0,42.331655910278023,-71.10991260974771,10.0,0.0,5.979659489202919e-06,2.7617978410577787e-05,9.7087370080262778e-06,1.4590042833476579e-05,2.3581549436898929e-05,1.945910149055313,-0.0058673353642517698,-2.4764533981239656,-0.017694281876554526,3
1480514190,0.0,42.331655910278023,-71.10991260974771,10.0,0.0,3.4671814519944618e-06,2.8661070632451262e-05,1.9766571674639864e-05,2.0481531009589706e-05,2.6644476817687965e-05,1.7917594692280547,-0.0059284800562321533,-2.4766701722305231,-0.017670412926858531,3
1480514220,0.0,42.331655910278023,-71.10991260974771,10.0,0.0,4.039098060988895e-06,2.8661070632451262e-05,1.6795923114439819e-05,1.9487181451901012e-05,2.5583483721595293e-05,1.945910149055313,-0.0059090471257589759,-2.4767072351701072,-0.017679005488265682,3
1480514250,0.0,42.331655910278023,-71.10991260974771,10.0,0.0,3.4722028531258293e-06,2.729884660424315e-05,1.6795923114439819e-05,1.8818859341861168e-05,2.4158729439006374e-05,1.945910149055313,-0.0059192752777348394,-2.4765431801881599,-0.017690228185025286,3
1480514280,0.0,42.331655910278023,-71.10991260974771,10.0,0.0,5.8009284139134982e-06,3.559693631104465e-05,1.862334218943816e-05,2.2166796086418186e-05,3.0369011807971474e-05,1.7917594692280547,-0.0059205732470722786,-2.475979798574373,-0.0177082736945002,3
1480514310,0.0,42.331655910278023,-71.10991260974771,10.0,0.0,7.2466807956675656e-06,3.559693631104465e-05,1.610464009983765e-05,1.6732561239694505e-05,2.9036262545465584e-05,1.945910149055313,-0.0058416958044568267,-2.475679459464974,-0.017686119268353801,3
1480514340,0.0,42.331655910278023,-71.10991260974771,10.0,0.0,2.8066327411232179e-06,2.3956586818341267e-05,1.610464009983765e-05,1.6732561239694505e-05,2.1132415685273563e-05,1.945910149055313,-0.0058503202997870008,-2.4755755850150143,-0.0177122680724528,3
1480514370,0.0,42.331655910278023,-71.10991260974771,10.0,0.0,2.7664903093400905e-06,2.6588428854267033e-05,1.757930926084625e-05,2.087815650078727e-05,2.3445516317676832e-05,1.7917594692280547,-0.005915613321639826,-2.4750515096294001,-0.017732026268131067,3
1480514400,0.0,42.331655910278023,-71.10991260974771,10.0,0.0,5.4246188945995467e-06,3.0533115165278017e-05,1.178857649581078e-05,2.0454350728801288e-05,2.5187638428304934e-05,1.945910149055313,-0.0058432842754038029,-2.4750371668055959,-0.017451463187335512,3
1480514430,0.0,42.331655910278023,-71.10991260974771,10.0,0.0,1.0736895534823832e-05,4.6388058678472112e-05,1.178857649581078e-05,1.7410797068465488e-05,2.8208806202483314e-05,1.945910149055313,-0.005700531466892163,-2.4751702020459772,-0.01697693042292147,3
1480514460,0.0,42.331655910278023,-71.10991260974771,10.0,0.0,1.2174640257661437e-05,4.6388058678472112e-05,1.0084577366471563e-05,1.3607965310015072e-05,2.5701029563621726e-05,1.7917594692280547,-0.0056857814167568304,-2.4751239239229235,-0.016669215474763268,3
1480514490,0.0,42.331655910278023,-71.10991260974771,10.0,0.0,8.2609512136984796e-06,3.6606695590765639e-05,1.0084577366471563e-05,1.5253479826583041e-05,2.4922863318284783e-05,1.945910149055313,-0.0057976327186015243,-2.4751222684768996,-0.016720745032355828,3
1480514520,0.0,42.331655910278023,-71.10991260974771,10.0,0.0,6.4078754261354335e-06,3.6606695590765639e-05,1.5404761319191581e-05,1.8959370195697636e-05,2.4646621105682085e-05,1.945910149055313,-0.0057876297336822962,-2.4751578495326512,-0.016721773875595612,3
1480514550,0.0,42.331655910278023,-71.10991260974771,10.0,0.0,2.4132985712026152e-06,2.2409471036091725e-05,1.5404761319191581e-05,1.9904798473604897e-05,2.2051583329844385e-05,1.7917594692280547,-0.0057751782054871956,-2.4755469114403295,-0.016672338726885932,3
1480514580,0.0,42.331655910278023,-71.10991260974771,10.0,0.0,1.5014837398727994e-06,2.2409471036091725e-05,1.8674494413548345e-05,1.9170971143221773e-05,2.1950258112694292e-05,1.945910149055313,-0.0057672194491713734,-2.4756632780559542,-0.016663402352859687,3
1480514610,0.0,42.331655910278023,-71.10991260974771,10.0,0.0,4.9694088292996599e-06,2.8531096152608287e-05,1.2987362449215666e-05,1.8678562435193335e-05,2.4655813743829542e-05,1.945910149055313,-0.0057565098329263528,-2.4757434611426068,-0.016701094449128342,3
1480514640,1.665994956655718,42.331649164941446,-71.10991208168781,10.0,0.027766582610928632,6.292526898282368e-06,2.8531096152608287e-05,1.2987362449215666e-05,1.5295077388484491e-05,2.6664669491208993e-05,1.7917594692280547,-0.0057280501946609533,-2.4757035274861985,-0.0166949235519884,3
1480514670,1.665994956655718,42.331626680486188,-71.109910321488172,10.0,0.027766582610928632,5.3118606496829489e-06,3.119405061885891e-05,1.3022373324041301e-05,1.9749070814877274e-05,2.4317679288204141e-05,1.945910149055313,-0.0056765026395197591,-2.475470954292553,-0.016780258600268359,3
1480514700,0.0,42.331610941367515,-71.10990908934842,10.0,0.0,5.7384710881974861e-06,3.119405061885891e-05,1.3554736679400163e-05,1.8265389585252597e-05,2.6303533951908796e-05,1.945910149055313,-0.0060319523364241248,-2.4761235241182229,-0.017014999267361469,3
1480514730,0.0,42.331610941367515,-71.10990908934842,10.0,0.0,8.5522052128394722e-06,3.9760558195934162e-05,1.3554736679400163e-05,1.8401660972379689e-05,2.7823886452031612e-05,1.7917594692280547,-0.0072032418504996247,-2.4780711640876247,-0.017812792635082966,3
1480514760,0.0,42.331610941367515,-71.10990908934842,10.0,0.0,1.2352734927042691e-05,5.6355738808152756e-05,1.8153605588984687e-05,2.2578396084328828e-05,3.6806940505647564e-05,1.945910149055313,-0.0080205847194538046,-2.4793175938585512,-0.018748597611383314,3
1480514790,0.0,42.331610941367515,-71.10990908934842,10.0,0.0,0.00053803346779479177,0.0015664829378437338,1.9011034336793294e-05,2.3417580632041921e-05,0.00030532221041135329,1.945910149055313,-0.0072881325390678651,-2.2020813362339728,-0.0054537901949495426,3
1480514820,0.0,42.331610941367515,-71.10990908934842,10.0,0.0,0.00057064605740001872,0.0015664829378437338,1.1898848197895899e-05,1.5165214043870157e-05,0.00042526227704816488,1.7917594692280547,-0.010883407406016838,-1.5244169528626399,0.02263081722966075,3
1480514850,0.0,42.331610941367515,-71.10990908934842,10.0,0.0,1.0076616691912788e-05,3.8183062148998137e-05,6.246720602745255e-06,8.6178075805975867e-06,1.5450995215912233e-05,1.945910149055313,-0.015425939813817928,-1.2162066560889058,0.033415003448736443,3
1480514880,0.0,42.331610941367515,-71.10990908934842,10.0,0.0,7.237302864950523e-06,2.9409958866181089e-05,6.246720602745255e-06,8.6178075805975867e-06,1.6029477177164452e-05,1.945910149055313,-0.015034198904384814,-1.2154550455113515,0.03401302972814587,3
1480514910,0.0,42.331610941367515,-71.10990908934842,10.0,0.0,6.1819230235881393e-06,2.9409958866181089e-05,1.1537917802343638e-05,1.2019080124956042e-05,1.6964076027120941e-05,1.7917594692280547,-0.014559784390849416,-1.2139219629901532,0.034011757256316895,3
1480514940,0.0,42.331610941367515,-71.10990908934842,10.0,0.0,5.8677423837832207e-06,2.0279190786100819e-05,2.4393953104713027e-06,1.1582200717273242e-05,1.8608384757194833e-05,1.945910149055313,-0.014565498123485041,-1.2127021230115527,0.034100716603916219,3
1480514970,0.0,42.331610941367515,-71.10990908934842,10.0,0.0,1.1981871619530586e-05,4.3851306503755892e-05,2.4393953104713027e-06,1.1922137248635844e-05,1.9915975357513131e-05,1.945910149055313,-0.014779661824093227,-1.2122308161740829,0.034348245083254715,3
1480515000,0.0,42.331610941367515,-71.10990908934842,10.0,0.0,1.1845829527186305e-05,4.3851306503755892e-05,9.3419468572682599e-06,1.2233919127545144e-05,2.669173744922278e-05,1.7917594692280547,-0.014651505759063967,-1.2106355942637317,0.033012365683000928,3
1480515030,0.0,42.331610941367515,-71.10990908934842,10.0,0.0,1.2615130894833284e-05,4.9883996209612175e-05,1.1477782956725714e-05,1.3637137174668304e-05,2.6212842743045574e-05,1.945910149055313,-0.013904880777812227,-1.2089764285151716,0.030750530021350746,3
1480515060,0.0,42.331610941367515,-71.10990908934842,10.0,0.0,1.205531756561264e-05,4.9883996209612175e-05,1.2534740649437847e-05,1.4823282915830669e-05,2.0977671805395709e-05,1.945910149055313,-0.013555839965735542,-1.2088056473838742,0.030231412924061635,3
1480515090,0.0,42.331610941367515,-71.10990908934842,10.0,0.0,5.2129271200540608e-06,2.931600877757938e-05,1.3739717320901525e-05,1.5419709031960137e-05,2.1423467480768697e-05,1.7917594692280547,-0.013523348046076933,-1.2091093852197135,0.030271259523070596,3
1480515120,0.0,42.331610941367515,-71.10990908934842,10.0,0.0,5.1766057755031672e-06,2.931600877757938e-05,1.3084596435682849e-05,1.423403896119698e-05,1.8588321572937819e-05,1.945910149055313,-0.013469774047307913,-1.2096044200273057,0.030348482443486247,3
1480515150,0.0,42.331610941367515,-71.10990908934842,10.0,0.0,4.1496868291681443e-06,2.6693697554803531e-05,1.3084596435682849e-05,1.5516518216197708e-05,1.9767789705257773e-05,1.945910149055313,-0.013485953785002227,-1.2097457591698628,0.030373172874120228,3
1480515180,0.0,42.331610941367515,-71.10990908934842,10.0,0.0,4.2692435983082146e-06,2.6693697554803531e-05,1.3789383086812269e-05,1.7074917565578178e-05,2.2721010812686675e-05,1.7917594692280547,-0.01347621603350275,-1.2096564663216351,0.030365203460183551,3
1480515210,0.0,42.331610941367515,-71.10990908934842,10.0,0.0,3.9488093784161754e-06,2.3373921759192684e-05,1.2560676388623764e-05,1.3428982411744078e-05,2.0402799996254651e-05,1.945910149055313,-0.013571754712265916,-1.2102844227105272,0.03032868241391273,3
1480515240,0.0,42.331610941367515,-71.10990908934842,10.0,0.0,4.5365845216896474e-06,2.6197945628996253e-05,1.2560676388623764e-05,1.341780755024e-05,1.9768496905902501e-05,1.945910149055313,-0.013674429510889787,-1.2103717587352543,0.030336011647684912,3
1480515270,0.0,42.331610941367515,-71.10990908934842,10.0,0.0,4.1986126898887676e-06,2.6197945628996253e-05,1.3767033363804113e-05,1.5248709243209459e-05,1.9713219590148154e-05,1.7917594692280547,-0.013598747543607652,-1.2100584562678351,0.030427769095176183,3
1480515300,0.0,42.331610941367515,-71.10990908934842,10.0,0.0,6.1057340158907823e-06,3.2470565782609069e-05,1.2545876634581608e-05,1.6599131962128194e-05,2.1970708034503367e-05,1.945910149055313,-0.013598871562922086,-1.2109982545855129,0.030367710151020327,3
1480515330,0.0,42.331610941367515,-71.10990908934842,10.0,0.0,6.5430479715959033e-06,3.2470565782609069e-05,1.2376273387987238e-05,1.4134514797226424e-05,2.1970708034503367e-05,1.945910149055313,-0.013671610779437515,-1.2117909769362056,0.030310911349056002,3
1480515360,0.0,42.331610941367515,-71.10990908934842,10.0,0.0,7.7836848795359419e-06,3.6842434386489869e-05,1.2376273387987238e-05,1.6402630890370622e-05,1.9527091738559076e-05,1.7917594692280547,-0.013689952312899434,-1.211609694409675,0.030380610293393496,3
1480515390,0.0,42.331610941367515,-71.10990908934842,10.0,0.0,8.7552424747360854e-06,3.6842434386489869e-05,9.5636615384599402e-06,1.8618044408001639e-05,2.9444133349999091e-05,1.945910149055313,-0.013703046674912442,-1.21123511437188,0.030391032211114898,3
1480515420,0.0,42.331610941367515,-71.10990908934842,10.0,0.0,8.034188586631674e-06,3.3498037310760659e-05,9.5636615384599402e-06,1.861188581130241e-05,2.9341766934117385e-05,1.945910149055313,-0.013705808785649884,-1.2112270328994712,0.030338985741816128,3
1480515450,0.0,42.331610941367515,-71.10990908934842,10.0,0.0,6.9961030671907459e-06,3.329330447899724e-05,1.071927734465571e-05,1.5685554473470969e-05,2.0725070255049444e-05,1.7917594692280547,-0.013693887573454683,-1.2111732780400066,0.030305503362700766,3
1480515480,0.0,42.331610941367515,-71.10990908934842,10.0,0.0,7.1997031450373886e-06,3.1728526806023174e-05,1.071927734465571e-05,1.7711373271959275e-05,2.7888291881778294e-05,1.945910149055313,-0.013729241688241915,-1.2108561877344413,0.030282808644790712,3
1480515510,0.0,42.331610941367515,-71.10990908934842,10.0,0.0,6.0596053963406411e-06,3.1728526806023174e-05,1.564296586610778e-05,1.8181216158141558e-05,2.7888291881778294e-05,1.945910149055313,-0.01375947248682253,-1.210770616300973,0.03049424747306834,3
1480515540,0.0,42.331610941367515,-71.10990908934842,10.0,0.0,8.7968358939923566e-06,4.1031645253589466e-05,1.564296586610778e-05,1.6469630930199241e-05,2.0184739624136088e-05,1.7917594692280547,-0.013696009391980417,-1.2111526951930749,0.030559735216412798,3
1480515570,0.0,42.331610941367515,-71.10990908934842,10.0,0.0,1.1155661410268767e-05,4.1031645253589466e-05,8.8991125564758016e-06,1.2098466110936007e-05,2.6140322621254982e-05,1.945910149055313,-0.014508986793893971,-1.2047604381220143,0.047948429428163852,3
1480515600,0.0,42.331610941367515,-71.10990908934842,10.0,0.0,8.127596287308916e-06,3.3407358051085268e-05,8.8991125564758016e-06,1.2098466110936007e-05,2.260848782980594e-05,1.945910149055313,-0.0148079631856662,-1.1967913014298757,0.063012378180861431,3
1480515630,0.0,42.331610941367515,-71.10990908934842,10.0,0.0,7.8481045871541245e-06,3.5107646958772492e-05,1.3557182795378644e-05,1.6334676780495618e-05,2.9245496691297916e-05,1.7917594692280547,-0.013510818397363405,-1.1940461254590433,0.062346953075120615,3
1480515660,0.0,42.331610941367515,-71.10990908934842,10.0,0.0,6.4578570319057977e-06,3.5107646958772492e-05,1.4944499326057852e-05,2.1844260847688199e-05,2.9679704086203005e-05,1.945910149055313,-0.010708354031311646,-1.198134485732153,0.050572290874955864,3
1480515690,0.0,42.331610941367515,-71.10990908934842,10.0,0.0,9.9057341400221241e-06,4.7231104217321976e-05,1.3814316969845316e-05,2.1844260847688199e-05,3.0676844786571144e-05,1.945910149055313,-0.0085519809058394961,-1.1996271776879486,0.042229396711851601,3
1480515720,0.0,42.331610941367515,-71.10990908934842,10.0,0.0,1.4417344006531522e-05,4.7231104217321976e-05,5.6359977003360565e-06,1.0461172131068341e-05,2.9854227223493624e-05,1.7917594692280547,-0.0057026265081558713,-1.1965619462276782,0.035556987051659765,3
1480515750,3.6445786121473085,42.331608014686331,-71.109912215798303,10.867537672436056,0.060742976869121806,0.0026772801043295426,0.0076878716797665518,5.6359977003360565e-06,1.5253650813593139e-05,8.433103120482135e-05,1.8675843750169276,0.49038313843510523,-0.67753784732176769,-0.1893860103468207,3
1480515780,5.468195838460222,42.331584061302557,-71.109932833883079,10.867537672436056,0.09113659730767036,0.0026435362886941733,0.0076878716797665518,2.2775457261254602e-05,3.7600228147418627e-05,0.00039526958865407661,1.8675843750169279,1.0466198541108043,0.29424590088407088,-0.37551341366260971,3
1480515810,4.160536320617043,42.33157572480139,-71.109956950015473,10.0,0.06934227201028405,0.0010421333772794887,0.0030518497447997307,4.8955950870879141e-05,0.00011655960016830029,0.00062269701040391879,1.7917594692280547,0.59326803197822497,0.41171454940162477,-0.41070286773177456,3
1480515840,4.681826718304898,42.331615733022211,-71.10997567798114,10.0,0.07803044530508164,0.0013763948808169456,0.0034667839438723199,2.9789414874217295e-05,0.00015674296408707525,0.001799136462724,1.945910149055313,1.2657715864201442,0.14152992237922643,-0.31857543721140813,3
1480515870,1.1949112058076465,42.331643173277719,-71.109987956072317,10.0,0.019915186763460775,0.0011892525575513276,0.0034667839438723199,1.1202675379864019e-05,2.7426121943256489e-05,0.00015674296408707525,1.945910149055313,2.4412271186625327,0.5194648369354562,-0.22786282972816643,3
1480515900,0.0,42.331643295513807,-71.109988130695299,10.0,0.0,1.6035378011628938e-05,5.4842676168565638e-05,8.3796540304742003e-06,1.075060303706691e-05,2.2996098693852429e-05,1.7917594692280547,2.5301948303401152,0.65890426476201902,-0.2816901916633277,3
1480515930,3.1945466451809477,42.331638225160866,-71.109998128908813,11.186742247364899,0.05324244408634913,0.0087638357272150063,0.023460206626935685,8.3796540304742003e-06,1.3697909997328604e-05,0.0069009373128745971,1.8056165767134955,1.9708292907699503,-0.0060394451590332866,-0.18471163262603121,3
1480515960,3.1945466451809477,42.331626280948818,-71.110011959049061,12.796249733433452,0.05324244408634913,0.0087398918594498842,0.023460206626935685,6.5507693801106405e-05,0.00010389417195017458,0.0069009373128745971,1.8056165767134953,1.6019083219868027,-1.5158792719757757,0.0066839101892220143,3
1480515990,1.2034447844638725,42.331600802058652,-71.110013047299475,12.646090714995371,0.020057413074397876,0.012090891374029307,0.031857356156003928,6.5507693801106405e-05,0.00012144876628046406,0.011791476387839979,1.6581101035673729,1.6907844512343282,-1.1120348382775802,0.017347321464137571,3
1480516020,4.410406709249182,42.331580741370409,-71.110001857458727,11.702698194917303,0.07350677848748637,0.018842110502434749,0.055851992650050399,0.00012840452560843255,0.0029552620552934315,0.029523164028995814,1.8937882323911377,2.1345582568732717,1.2208831409924503,-0.25548337731905985,3
1480516050,3.238572239447811,42.331565064417525,-71.109988172604801,10.666114965990486,0.05397620399079685,0.019453625817267142,0.055851992650050399,0.0001122079106772861,0.00018461469957894593,0.016421734536337121,1.7770332013812697,2.0147816587023661,1.5861733703662817,-0.27831196384482154,3
1480516080,12.859897059538186,42.331550692247554,-71.110002871668996,10.345336383009043,0.21433161765896977,0.020181865030876871,0.0551581436692518,0.0001122079106772861,0.00050183438322941483,0.020384822362563827,1.6581101035673729,1.5127677785666001,1.2984277264645645,-0.12587476206293935,3
1480516110,26.53321619050307,42.331536010645642,-71.109988597287895,10.371500879543458,0.4422202698417178,0.22674672130920534,0.66259875527677803,0.0016677301551449553,0.040339524115251442,0.31028369328670885,1.9459101490553139,1.4984381541128242,1.1109563120584711,-0.12113022170299449,3
1480516140,50.14301480171996,42.331391623283118,-71.10982191615841,10.026164496534417,0.8357169133619993,0.20454952973074486,0.66259875527677803,0.087363066916240129,0.22259874926380091,0.53790449782446914,1.9459101490553139,1.6007919554216856,1.2954063403167828,-0.14609502028309063,3
1480516170,40.4856840712362,42.33108181836301,-71.10965242290041,10.0,0.67476140118727,0.16933025403360155,0.65443705765667848,0.15386122932210949,0.23853171663431805,0.46022671123427927,1.791759469228055,1.6795539327685465,1.8104386594362982,-0.24884867601839533,3
1480516200,84.29274003117628,42.330826230386585,-71.109388967110888,10.0,1.4048790005196046,0.1572788333406924,0.47317830231495239,0.022601621390851364,0.092805401899129364,0.32787248496639709,1.9459101490553139,1.6790630359924186,2.5379884254796887,-0.19191015613855528,3
1480516230,80.87711130686971,42.330650568746343,-71.108950734670387,10.0,1.3479518551144951,0.13622146561116369,0.39512770504005601,0.022601621390851364,0.092805401899129364,0.33007446040282329,1.9459101490553139,1.8294342904967631,2.5302631935658817,-0.12191614509531536,3
1480516260,23.73153034632312,42.330369520739033,-71.108771170555727,10.0,0.395525505772052,0.22562121057691401,0.89064922923011114,0.2396254405961783,0.31389447955932359,0.56615922145472064,1.791759469228055,2.0391574408718434,1.8029530459725034,-0.14530071519390142,3
1480516290,34.52249425703768,42.329984239574848,-71.108861643421577,10.0,0.5753749042839613,0.27961451291951112,0.89064922923011114,0.040977629502502139,0.19726704141686402,0.56662823041977228,1.9459101490553139,1.9945040456353655,1.7197725461048228,-0.05251256232515137,3
1480516320,39.480262872886634,42.329604813868492,-71.108837679560395,10.0,0.6580043812147772,0.16568139183034025,0.50375218106723663,0.040977629502502139,0.086629601145035096,0.34805210915019452,1.9459101490553139,1.7301654269923514,1.5486604308453944,-0.045630074429889533,3
1480516350,31.956987446542108,42.329369034424744,-71.10870575399241,10.0,0.5326164574423685,0.13013908903738231,0.37308233026194909,0.0016413702830689904,0.0055460278749193351,0.11729916683207477,1.7328679513998633,2.1299363520849082,0.33819869956020537,-0.021754387963804387,3
1480516380,58.6019342769465,42.329666275466316,-71.108669737853603,10.0,0.976698904615775,0.0061508248368469598,0.018234563688990915,0.00042631004606362541,0.0022497262707468222,0.011084492180938332,1.9036483899019156,1.9865530457758498,-0.72968945097330706,0.020701493225861432,3
1480516410,163.2618561985139,42.330920281819111,-71.109110744456061,10.0,2.721030936641898,0.012630560936116919,0.040044791610836628,0.00042631004606362541,0.0041165304860512307,0.013396841663232099,1.8640435797520256,1.2017694941330155,-1.0751199731709031,-0.10163059526342497,3
1480516440,97.78460060895571,42.332352410925836,-71.109553194844096,11.333333333333334,1.6297433434825952,0.015353938249327462,0.040044791610836628,6.0157491183977328e-05,0.00085453724846966807,0.022838070956698028,1.6609474332869181,1.9911042703269066,-1.3109182903313232,-0.15095278766854184,3
1480516470,80.46988351849024,42.332979130389774,-71.109544016917596,11.333333333333334,1.3411647253081707,0.0094729421533423022,0.02792342333190255,1.2453092528451952e-05,7.4044934773310025e-05,0.0052746475923999272,1.8056165767134955,3.0003034555830501,-1.5813040297224643,-0.09138907067497283,3
1480516500,255.2027036669885,42.333148959423141,-71.108534054545245,10.0,4.2533783944498085,0.0039899944145505017,0.011248632417342537,1.2453092528451952e-05,0.00010113974453129256,0.0052746475923999272,1.8842428460867393,2.9792781967828348,-2.3121391467704924,-0.070272689066353727,3
1480516530,160.2453974222919,42.333246966082257,-71.107430647410425,10.0,2.670756623704865,0.0040594850738570739,0.011248632417342537,2.9611176905863454e-05,9.9180345743926553e-05,0.0016407498492778572,1.7105600837579242,2.957077669689872,-3.0558769497839164,-0.048810090956469286,3
1480516560,222.8345271718245,42.33336533167617,-71.106728831838012,10.0,3.713908786197075,0.0038925147286599103,0.011663095648718043,7.2987182796537467e-05,0.00022134241518751886,0.0015466768456463445,1.8675843750169279,2.9373091399168048,-2.8939237434166816,-0.018227668304094152,3
1480516590,224.7703630381589,42.333696110213488,-71.105728211413265,10.0,3.7461727173026484,0.0038804214099723493,0.011663095648718043,1.2540629419756124e-05,0.0002108635210169686,0.0015466768456463445,1.8675843750169276,2.9353215110746769,-2.6894649125068999,-0.024603775837428257,3
1480516620,114.0480515996352,42.333941118132635,-71.105183746731953,10.0,1.9008008599939201,0.0075674128479341083,0.020459757073569222,1.2540629419756124e-05,3.1680874486367598e-05,0.00053960924805209485,1.710560083757924,2.9206113061430563,-2.607366819263047,-0.041570782598397603,3
1480516650,319.7431877956353,42.334359526673659,-71.104138904783042,10.0,5.329053129927256,0.015704635179760236,0.041625156216502771,3.6646285976875123e-05,6.1158121322048693e-05,0.023780564987162817,1.7770332013812695,2.9481135052017997,-2.6052690732652359,-0.033244868558964205,3
1480516680,617.7208310908618,42.335225269005029,-71.101816525283368,10.0,10.295347184847696,0.015353097163744871,0.041625156216502771,8.2214008705088688e-05,0.00080446724138598315,0.01619332988920423,1.7770332013812697,2.9848110309409255,-2.5980703127707412,-0.029894028733363213,3
1480516710,516.6223931441385,42.336107064077957,-71.099417753118189,11.333333333333334,8.610373219068975,0.0051806239539301463,0.014693078317450174,0.00017969990057920132,0.00042621998663996329,0.0043016060492000689,1.7480673485460896,2.9832909452875955,-2.5793211138408467,-0.022390783640094811,3
1480516740,531.9271866411075,42.337002101160913,-71.097110192823322,11.333333333333334,8.865453110685126,0.0047499022098332622,0.014693078317450174,0.00017969990057920132,0.0012238226993754346,0.0044833937348266635,1.8842428460867393,2.9645958027552086,-2.5782110159211813,-0.015422238682540034,3
1480516770,730.2787303482003,42.338299488455384,-71.09390161565608,10.0,12.171312172470005,0.02304944620317214,0.06906168281824876,0.0005044320676908246,0.0021727465816942255,0.0069021349416104796,1.8562701281920881,2.1142102887766971,-2.598913095595857,-0.04892388007693417,3
1480516800,521.6792947427873,42.339381381210266,-71.091222273252058,10.0,8.694654912379788,0.024575448632744315,0.06906168281824876,5.213366495842064e-05,0.00061162043429622659,0.010646384304587572,1.7347645210257756,1.9713565474923478,-2.6113345363924885,-0.050350071901944272,3
1480516830,482.99562815805774,42.340345695965745,-71.088924727692799,10.0,8.049927135967629,0.0089286441900145123,0.026832430029476009,5.213366495842064e-05,0.00060813938922566987,0.011923465119439813,1.9036483899019156,2.9861493995769486,-2.304476559556889,-0.0010023268206034719,3
1480516860,52.90265345311542,42.341327127645989,-71.087623798072869,10.0,0.881710890885257,0.0080845359051678212,0.026832430029476009,0.0002830932443389068,0.0053974923798569118,0.013825250806421281,1.8640435797520258,3.0373440024913356,-1.0181164652995707,-0.011187041316159616,3
1480516890,229.91706623854753,42.341449300587811,-71.088361261048803,10.0,3.831951103975792,0.0055192988394116207,0.015561976391841679,3.9694200137805542e-05,0.00087011736889795245,0.0079002732176651092,1.6581101035673729,2.9348265505886566,0.56051217055099933,-0.097675378735197937,3
1480516920,41.18859521006319,42.341231982061764,-71.088929479308064,10.0,0.6864765868343865,0.0011226175637282386,0.0030039019909830697,3.9694200137805542e-05,0.00029906905140938001,0.002167244352404341,1.945910149055313,2.8739989541721944,0.64684169891645771,-0.14784436149625563,3
1480516950,1.5066995530888678,42.341212109321198,-71.088981474496364,10.0,0.025111659218147796,0.0078486989026935721,0.022788130636102397,0.00036339171858291823,0.0011515668293286857,0.0077379018648514189,1.8056165767134955,2.640884304501991,0.53093632546157443,-0.21518492843634318,3
1480516980,23.604885858331723,42.341196774957233,-71.08909048588103,15.5,0.39341476430552874,0.16228307038401599,0.42559887408576236,0.001274380585290351,0.015050958963065426,0.26254619746689112,1.791759469228055,1.9034555583676134,1.0491994797266406,-0.21882979647986836,3
1480517010,22.347126569441727,42.340984078958947,-71.089158980009358,23.0,0.37245210949069546,0.22594210631983766,0.81873678787645621,0.13083456900514204,0.16468535488676944,0.36602447385328496,1.9459101490553139,1.5561397710626317,2.0801193003209972,-0.082548538939690635,3
1480517040,43.41298769301008,42.340628003508179,-71.089055330558779,25.0,0.7235497948835014,0.22074415732134489,0.81873678787645621,0.14751495413516444,0.16885834417965187,0.3193328927947589,1.9459101490553139,1.5186779005493858,2.427254216843429,-0.031779265265250163,3
1480517070,26.38791645010806,42.340425733516319,-71.088912920626896,25.0,0.43979860750180105,0.11339636656928442,0.36941470865813542,0.038102333518995668,0.090990437326420148,0.24090354087876914,1.791759469228055,1.6702860090566085,2.7088708337584149,-0.13019237140606868,3
1480517100,51.270838772193976,42.34021797267939,-71.088706246643412,25.0,0.8545139795365663,0.18059210438223716,0.611425627482168,0.038102333518995668,0.10225362521912365,0.22473085572332119,1.9459101490553139,2.1183156356580457,2.7825533320262301,-0.19083307949612818,3
1480517130,57.167569894343416,42.339857730355433,-71.088479544102299,25.0,0.9527928315723903,0.59156057348411406,1.9872738286814433,0.13305535415903724,0.22473085572332119,0.69755563265150178,1.9459101490553139,2.3591870083145574,2.6878565620897499,-0.075478910769718868,3
1480517160,46.41192817116363,42.339463455409131,-71.088302377211946,25.0,0.7735321361860605,0.61535182446210546,1.9872738286814433,0.1216152157639967,0.29021542695751523,0.74680288787498106,1.791759469228055,2.3703941902451251,2.6999545332238779,0.019972517709590271,3
1480517190,21.194560819448725,42.339108926749169,-71.088209502930837,25.0,0.3532426803241454,0.17222389042278166,0.63615463803741812,0.11074327496739556,0.15720742468825555,0.38637209821014024,1.9459101490553139,2.3674671160179139,2.4112383913416116,0.032017204222891109,3
1480517220,21.99712672699463,42.338862249434321,-71.088246854088354,27.916666666666668,0.36661877878324384,0.13459103337334841,0.40558013665021514,0.075497910975194191,0.091896719130995369,0.33338819621849924,1.9459101490553139,2.2342822898503685,2.4339091194897944,0.015222767351035385,3
1480517250,8.061394619497456,42.338746339587821,-71.088328611171889,42.083333333333336,0.13435657699162426,0.033783391598478679,0.10798627327466373,0.0098480515720295592,0.077919300425357094,0.1052385418458429,1.7328679513998633,1.8636876462420684,1.4145687205776296,-0.09365266468021477,3
1480517280,6.811252711925613,42.33872321748705,-71.088356527876499,74.074074074074076,0.11352087853209356,0.04220853664956499,0.10798627327466373,0.0093963472831071568,0.011569023542355004,0.097137249055480129,1.8640435797520256,1.586583246321317,-0.26441666446263296,-0.20692614344541674,3
1480517310,35.42316742185835,42.338722254227768,-71.088332497634113,95.847269387045458,0.5903861236976392,0.10816643742120988,0.32601719646090233,6.005228786867413e-05,0.0087508280656853343,0.067674960995462469,1.8043716191528456,1.7080311203230101,-0.86636138306501276,-0.27770201880749773,3
1480517340,14.507135101313878,42.338714328948647,-71.088180369106524,70.457081222431825,0.24178558502189798,0.12092414870538473,0.32601719646090233,8.9311608026879051e-06,1.2503375231760789e-05,0.0060939947081648021,1.6581101035673729,2.025093738351265,-2.1710897586592446,-0.37612902914622454,3
1480517370,9.826219119755494,42.338725482356232,-71.088189371364194,65.0,0.16377031866259156,7.1838172074414253e-06,3.0451314783982436e-05,7.2568754083888937e-06,1.0186781799479437e-05,1.7675545616722738e-05,1.945910149055313,2.0404501208094499,-3.0632644486224505,-0.4038251698063603,3
1480517400,0.4338487484972696,42.338728857307629,-71.088201714567745,65.0,0.007230812474954494,7.8368929941938622e-06,3.0689524863070185e-05,7.2568754083888937e-06,1.7675545616722738e-05,2.8856414835334279e-05,1.945910149055313,2.0403545770869256,-3.064375117482617,-0.4034924810529657,3
1480517430,5.553094240240845,42.338731706837251,-71.08819689364212,65.0,0.09255157067068075,7.0535070036966943e-06,3.0689524863070185e-05,1.2368768263152061e-05,1.4831618239302543e-05,2.6824850784517163e-05,1.7917594692280547,2.0402910734698918,-3.0655350810227517,-0.40325751199468846,3
1480517460,3.807860436098651,42.338740853031574,-71.088208052017393,65.0,0.06346434060164419,5.8037656833807239e-06,2.5585971050299509e-05,1.2368768263152061e-05,1.2936168407796237e-05,2.49503509432684e-05,1.945910149055313,2.0403260159094132,-3.065886458350763,-0.40307487859422408,3
1480517490,4.797640697335126,42.338745233524669,-71.088227408558055,65.0,0.07996067828891877,4.5564116549090157e-06,2.8751341819698942e-05,1.3397516665342268e-05,2.0723067730896098e-05,2.504527336025705e-05,1.945910149055313,2.0403514538905858,-3.0653872847561821,-0.40297501699891686,3
1480517520,0.11303269872353514,42.338750171239212,-71.088235955214685,65.0,0.001883878312058919,6.4357822782124957e-06,2.8751341819698942e-05,1.0635816739649967e-05,1.41338001230524e-05,2.3555084373138583e-05,1.7917594692280547,2.0402562195110621,-3.0649393649521706,-0.40286964483686577,3
1480517550,0.36709844330913954,42.338748313544379,-71.08822995960945,65.0,0.006118307388485659,7.8858601980598158e-06,3.3010150945312453e-05,1.0635816739649967e-05,1.416578884865326e-05,2.5225985980214537e-05,1.945910149055313,2.0401664665825296,-3.0649149683324857,-0.40277878457586141,3
1480517580,0.6611046332230068,42.338748719541542,-71.088227945899888,65.0,0.01101841055371678,7.3718581169835406e-06,3.5722868774856154e-05,1.6356598496637101e-05,1.8176943984138501e-05,3.1377756211915476e-05,1.945910149055313,2.0401377810591756,-3.0647233059036241,-0.4027762126543622,3
1480517610,1.9819368567331126,42.338751248306892,-71.088230351376239,65.0,0.03303228094555188,6.4474766991793007e-06,3.5722868774856154e-05,1.5428701780726764e-05,1.8951305672291676e-05,2.3393448202560774e-05,1.7917594692280547,2.0401365905584417,-3.0647911249052311,-0.402765638481972,3
1480517640,9.27517775101372,42.338738023646492,-71.088208978395528,65.0,0.15458629585022868,9.0134564052515285e-06,3.7735155710586674e-05,1.0550707260141644e-05,1.4557378598729076e-05,2.7174792966729546e-05,1.945910149055313,2.0401246064179199,-3.0652757597926787,-0.40272100494796176,3
1480517670,1.651230470541698,42.338723793959304,-71.088184180346985,65.0,0.027520507842361635,9.0972637780641914e-06,3.7735155710586674e-05,1.0550707260141644e-05,1.5702313384687686e-05,2.9767224633638545e-05,1.945910149055313,2.0401605964048182,-3.0655025351016882,-0.4027231314480656,3
1480517700,0.6192256067651133,42.338724639818963,-71.088184700144353,65.0,0.010320426779418555,6.2224065958128368e-06,2.9156951267262237e-05,1.1152480915946002e-05,1.9152712768246605e-05,2.7211434599454204e-05,1.7917594692280547,2.0401177156884702,-3.0656124642927569,-0.40272413095432968,3
1480517730,3.425453988923913,42.338716267939276,-71.088175838393326,65.0,0.05709089981539855,5.6214328842687783e-06,2.8296905655118494e-05,1.1152480915946002e-05,1.5790918417676053e-05,2.2790530662621589e-05,1.945910149055313,2.0399821473795998,-3.0658882537463454,-0.40266573430345887,3
1480517760,7.313176362429357,42.338726213783715,-71.088191162554409,65.0,0.12188627270715595,4.1461261794000234e-06,2.3010015625582037e-05,1.1988807015498858e-05,1.5790918417676053e-05,2.1423584156315088e-05,1.945910149055313,2.0400156026969616,-3.0661160185899869,-0.40259931942107791,3
1480517790,3.3204759177269807,42.338746578287051,-71.088221693333082,65.0,0.05534126529544968,4.1280481063199421e-06,2.3911889708681998e-05,1.1988807015498858e-05,1.9765654615434895e-05,2.3581882456931377e-05,1.7917594692280547,2.0400517373094949,-3.0663710998213034,-0.402535635301905,3
1480517820,1.7572079558143425,42.338752294143156,-71.088231710880507,65.0,0.029286799263572375,8.0545425456514388e-06,4.3095496137749597e-05,1.734750899539063e-05,1.9233001203164369e-05,2.384219722136491e-05,1.945910149055313,2.0400813917070146,-3.066564355218429,-0.40253256502267687,3
1480517850,0.0,42.338755847189297,-71.088229326243294,65.0,0.0,8.623361559179235e-06,4.3095496137749597e-05,1.7102416537754219e-05,1.7453921479363117e-05,2.4336522946100335e-05,1.945910149055313,2.0400512165108702,-3.0670419577146797,-0.40255089354188783,3
1480517880,0.0,nan,nan,nan,0.0,6.2414797140161472e-06,2.5180684266543973e-05,9.0770279247696689e-06,1.2063599467654708e-05,2.2982097423052858e-05,1.7917594692280547,2.0400189120310381,-3.0677891060001268,-0.40254580010635749,3
1480517910,0.0,nan,nan,nan,0.0,6.9314522554663913e-06,2.9550891731324544e-05,9.0770279247696689e-06,1.4164002700279906e-05,2.3978532700147136e-05,1.945910149055313,2.0400579660881899,-3.0678599917854643,-0.40251877111953183,3
1480517940,6.3486349357131315,42.338729131336152,-71.088200139945656,65.0,0.10581058226188553,4.044614175928374e-06,2.9550891731324544e-05,1.7784602258789519e-05,1.8193805895043678e-05,2.4026614975525456e-05,1.945910149055313,2.0399745250605883,-3.0680133205697797,-0.40251126040466112,3
1480517970,1.1573926278908535,42.338729122659899,-71.088197659083136,65.0,0.019289877131514224,3.6758512501407453e-06,2.9603200059159446e-05,1.7784602258789519e-05,2.3643015511758911e-05,2.6709569305916751e-05,1.7917594692280547,2.0399454030145017,-3.06817348175541,-0.40249928806240659,3
1480518000,6.133915712877193,42.338739412188779,-71.088205474193259,65.0,0.10223192854795321,4.4929742293770089e-06,2.9603200059159446e-05,1.707217796403249e-05,1.9153006158174405e-05,2.656953401766455e-05,1.945910149055313,2.0399558233107458,-3.0684201489369016,-0.40249049454741731,3
1480518030,8.864273168085676,42.338742251979696,-71.088206574201791,65.0,0.14773788613476127,1.0937733259089205e-05,5.1003438802958378e-05,1.707217796403249e-05,1.9153006158174405e-05,2.6833951365046955e-05,1.945910149055313,2.0399465164971402,-3.0687104484819985,-0.40251663907949231,3
1480518060,0.9243998251537497,42.338723636194977,-71.088188996331553,65.0,0.015406663752562496,1.1987128646278094e-05,5.1003438802958378e-05,1.0182116479927352e-05,2.5035131541962761e-05,2.9077379510870195e-05,1.7917594692280547,2.0399846681681182,-3.0688074807014121,-0.40248871992552115,3
1480518090,7.167508278090364,42.338729814146951,-71.08819890979521,65.0,0.11945847130150607,6.028280271338291e-06,2.8081901537864016e-05,1.0182116479927352e-05,1.9315898639536374e-05,2.7473450073186002e-05,1.945910149055313,2.0399007075640716,-3.068846861302982,-0.40245235410809205,3
1480518120,4.418969997364008,42.338751977169878,-71.088216086431942,65.0,0.0736494999560668,5.1964374578808928e-06,2.7582465663185937e-05,1.0571922154720385e-05,1.7933331732907602e-05,2.4088726116479983e-05,1.945910149055313,2.0398357962428757,-3.0688247704740239,-0.40247765691179271,3
1480518150,1.0113287884653936,42.338753205724629,-71.088215761518995,65.0,0.01685547980775656,7.0601348806616656e-06,2.4506828757452593e-05,4.2466244770927585e-06,1.2235780635088276e-05,2.1966692016617152e-05,1.7917594692280547,2.0398504684545151,-3.0689877541774782,-0.4025040380280443,3
1480518180,0.9608713896188441,42.338747392893509,-71.088221836457905,65.0,0.016014523160314067,6.5772158122081436e-06,2.6988208885330141e-05,4.2466244770927585e-06,1.5985670673594064e-05,2.1238311691925012e-05,1.945910149055313,2.0398381374399759,-3.0698186071311526,-0.40249289108897773,3
1480518210,4.258385845193187,42.338741525250853,-71.088223054277378,65.0,0.07097309741988646,8.711325386394771e-06,2.921550371766361e-05,2.1282759973209777e-06,1.2450602451773648e-05,2.2397021442014369e-05,1.945910149055313,2.0398881358673462,-3.0708978971571241,-0.40247942200740089,3
1480518240,1.1638087909258619,42.33873986221235,-71.08822267720015,65.0,0.019396813182097697,1.0472983792977046e-05,2.9549696497246438e-05,2.1282759973209777e-06,8.4001692892281936e-06,2.5526065630426952e-05,1.7917594692280547,2.0399652545192484,-3.0714672539111665,-0.4024575985806817,3
1480518270,3.0524887131050282,42.33874259525426,-71.088224596066084,65.0,0.050874811885083804,7.7884970559460418e-06,3.2367802526777953e-05,8.0782404735576973e-06,1.5840470589779168e-05,2.4750531356123193e-05,1.945910149055313,2.0399389393830973,-3.0716374869410865,-0.40244961775983218,3
1480518300,1.1268950431166151,42.33874290692944,-71.088214884146169,65.0,0.018781584051943585,5.756338669075578e-06,3.2367802526777953e-05,1.2258894039419005e-05,1.8428030911386834e-05,2.3138139206956971e-05,1.945910149055313,2.0399313256219926,-3.0721113162174447,-0.40244712814319367,3
1480518330,2.7440608301856924,42.338738312051873,-71.088208220900199,65.0,0.04573434716976154,6.4365432529264219e-06,2.7361847441376029e-05,9.5594500052577118e-06,1.4827406788291978e-05,2.3173542210584364e-05,1.7917594692280547,2.0399861895277716,-3.0726975217773447,-0.40244188861837066,3
1480518360,3.657297509792665,42.338740518327079,-71.08822014884251,65.0,0.06095495849654442,1.0390682813253601e-05,2.9792590616942847e-05,2.3693887033767697e-07,7.7078888235776089e-06,2.4947396238143462e-05,1.945910149055313,2.0399859287993403,-3.0731691973958384,-0.40246527274030314,3
1480518390,3.744828422504893,42.338740935812872,-71.088220163092885,65.0,0.06241380704174822,9.4032480276676939e-06,2.9792590616942847e-05,2.3693887033767697e-07,7.7095780577109581e-06,2.0639931629566322e-05,1.945910149055313,2.0399565691045898,-3.0733703034907087,-0.40243363572162194,3
1480518420,7.0141131224064655,42.338732036408125,-71.088207146738171,65.0,0.1169018853734411,5.2339233476494397e-06,2.410303344141741e-05,9.5628284735244104e-06,1.4471138184109955e-05,2.2203062860998637e-05,1.7917594692280547,2.0399531684273917,-3.0739486603797803,-0.40240395676589863,3
1480518450,1.4560700566191527,42.338716628615757,-71.088181396711917,65.0,0.024267834276985877,5.5514859550031731e-06,2.410303344141741e-05,6.0377019444316261e-06,1.3972119688617674e-05,2.0417955514978824e-05,1.945910149055313,2.0399044106368374,-3.0743384072011173,-0.40244064712680683,3
1480518480,7.637240250274654,42.338698323474134,-71.088154746007291,65.0,0.12728733750457757,4.846421276575694e-06,2.2412142713585918e-05,6.0377019444316261e-06,1.4960262430159288e-05,1.9274774510023823e-05,1.945910149055313,2.0398803058339943,-3.0746802501309345,-0.40244378753623938,3
1480518510,7.873945357213337,42.338703829974293,-71.088167968255206,65.0,0.13123242262022228,6.9127847917452218e-06,2.4461625652648798e-05,3.1115756074355182e-06,1.7362574626041873e-05,2.1715343219655745e-05,1.7917594692280547,2.0398503482767882,-3.0745651934641423,-0.40243324632883665,3
1480518540,9.797478539753673,42.338696725867933,-71.088141991318622,65.0,0.16329130899589456,1.1680017733196483e-05,4.4056469113317541e-05,3.1115756074355182e-06,1.4353603021092932e-05,2.204328519525701e-05,1.945910149055313,2.0398230149064345,-3.073518813284386,-0.40245804504894245,3
1480518570,11.908666456305165,42.338704257781657,-71.088149628889809,65.0,0.19847777427175275,1.0701950628492292e-05,4.4056469113317541e-05,1.4252808266216716e-05,1.5775214669602597e-05,3.1075828427015419e-05,1.945910149055313,2.0397828346201115,-3.0730933130058631,-0.40249971740921714,3
1480518600,13.031863089983974,42.338717737442877,-71.088181245428757,65.0,0.21719771816639957,9.5813692499596426e-06,3.4755728823066916e-05,9.3739171329345027e-06,1.2192727861763243e-05,2.8522707228537034e-05,1.7917594692280547,2.0397001568370112,-3.0734778294871501,-0.40253022927361465,3
1480518630,2.35151340810579,42.338727223747682,-71.088193446515348,65.0,0.0391918901350965,6.9061491932294458e-06,2.8898300294394738e-05,9.0416800717101334e-06,9.8549540363787866e-06,1.9731246500221169e-05,1.945910149055313,2.0396787238974943,-3.0736929076833781,-0.40253452189627381,3
1480518660,0.26291904979551706,42.338736786258956,-71.088209365460216,65.0,0.004381984163258618,4.7191249899472549e-06,2.3918772449154628e-05,9.0416800717101334e-06,1.392738460077424e-05,1.9731246500221169e-05,1.945910149055313,2.0397067197214871,-3.0735854395346274,-0.4025500848322664,3
1480518690,2.560354581548338,42.338725502395263,-71.088198954980456,65.0,0.04267257635913897,8.9412952699210144e-06,3.6107508718516746e-05,7.9796531211098319e-06,1.4481099945372568e-05,2.2000299013296951e-05,1.7917594692280547,2.0396826737653266,-3.0743046501131683,-0.40255092287898719,3
1480518720,0.17058598136736527,42.338701734926005,-71.088159484022384,65.0,0.002843099689456088,9.0560528808480745e-06,3.6107508718516746e-05,7.9796531211098319e-06,1.4092257121382135e-05,2.6625334864121e-05,1.945910149055313,2.0396807587070258,-3.0753717010882555,-0.40258211537383071,3
1480518750,3.603210388237315,42.33869431378605,-71.088144139077912,65.0,0.060053506470621916,5.175630165304555e-06,2.8485187584305368e-05,1.193963553704035e-05,1.7595796606019691e-05,2.4537808314416498e-05,1.945910149055313,2.0397215388226861,-3.07563175055737,-0.40262928122654651,3
1480518780,6.630334365243958,42.338700400052382,-71.088150441731742,65.0,0.11050557275406597,7.1397216737703652e-06,3.0976267449261417e-05,1.0398910883731922e-05,1.2928659364671297e-05,2.2712107296302487e-05,1.7917594692280547,2.0397287954321048,-3.0751603653377697,-0.40261054292849097,3
1480518810,2.045497031425814,42.338694212626649,-71.0881466903095,65.0,0.03409161719043023,1.7876383549609661e-05,6.4015177249997479e-05,1.0366672118586287e-05,1.0939633771393735e-05,2.6971734890629073e-05,1.945910149055313,2.0396999724961797,-3.0753096573145129,-0.40253496155417362,3
1480518840,1.382603836178463,42.33867873644364,-71.088136940354985,65.0,0.02304339726964105,1.735647326013309e-05,6.4015177249997479e-05,1.0366672118586287e-05,1.2539085047043165e-05,2.2699857166728703e-05,1.945910149055313,2.0396550535592572,-3.0757060057607526,-0.40254991298670845,3
1480518870,2.0355406818148034,42.338671564886312,-71.0881267322291,65.0,0.03392567803024672,4.4046004073015383e-06,2.2432512001460673e-05,1.0505405328144597e-05,1.1894983916717603e-05,1.9182131675092644e-05,1.7917594692280547,2.0396526906589152,-3.07577557954796,-0.4026054146787546,3
1480518900,1.0180514245426495,42.33868264276142,-71.088138271590751,65.0,0.01696752374237749,1.7523310695481154e-05,6.2000677458306646e-05,3.0286896571483819e-06,1.4442885877689708e-05,2.6213668213080908e-05,1.945910149055313,2.0396537043792686,-3.0756280547025625,-0.40255289512264031,3
1480518930,1.29441299758964,42.338695817419378,-71.08815669008635,65.0,0.021573549959827333,1.7374240597392791e-05,6.2000677458306646e-05,3.0286896571483819e-06,1.5318343394032486e-05,2.6213668213080908e-05,1.945910149055313,2.0394757244844932,-3.073647660267306,-0.40304226867993537,3
1480518960,2.4988713058925645,42.338713308562937,-71.088181253773328,65.0,0.04164785509820941,7.7648343591882772e-06,3.3358716479582282e-05,9.3795076615280966e-06,1.2692066893614693e-05,1.7876649979925872e-05,1.7917594692280547,2.0392860902162648,-3.0713791189330681,-0.40375427169923128,3
1480518990,3.4205056142683725,42.33872976132367,-71.088193439250304,65.0,0.05700842690447287,8.6989873603798155e-06,3.3358716479582282e-05,9.3795076615280966e-06,1.3488842559648865e-05,2.4337875405387896e-05,1.945910149055313,2.0392774319306275,-3.0720133123090059,-0.4037743654008496,3
1480519020,3.0794301485644446,42.338715958896252,-71.088171026542369,65.0,0.05132383580940741,6.105767276157856e-06,3.1066323760960455e-05,1.2430067718276465e-05,1.4401190705118258e-05,2.1870315938997111e-05,1.945910149055313,2.0392517810998916,-3.0724256166584984,-0.4037848284204727,3
