TIMESTAMP,DISTANCE,AVG_LAT,AVG_LNG,GPS_ACCURACY,AVG_SPEED_BY_GPS,ACCLERATOR_STD,MAX_ACCLERATOR,MIN_ACCLERATOR,PERCENTILE_25_ACCLERATOR,PERCENTILE_75_ACCLERATOR,ACCLERATOR_ENTROPY,AVG_ROLL,AVG_YAW,AVG_PITCH,WEEK_DAY
1480466520,0.7795312019610103,42.338795929216147,-71.088172327681733,149.375,0.012992186699350173,0.0024084657142538651,0.0068107823414890025,1.7948485099489361e-05,3.6773377312426049e-05,0.001761295464446847,1.7105600837579242,0.082882809619828954,0.21121517567383408,-0.10383548511274192,2
1480466550,16.194488618200467,42.338803317388383,-71.088135305828999,184.5833350963054,0.2699081436366744,1.1664864341981891e-05,3.8026301337058162e-05,2.0310595792185946e-06,1.5713920708704522e-05,2.9840248450760113e-05,1.945910149055313,-0.016462443960739787,0.13821121421097915,-0.011340104596549857,2
1480466580,1.0802484139725892,42.338805964513178,-71.088101030298787,191.66667019261084,0.018004140232876487,1.0870725362325791e-05,3.5785746628252426e-05,2.0310595792185946e-06,1.1936692924029975e-05,2.6786560731559869e-05,1.945910149055313,-0.0154474007466756,0.12017522137820986,-0.011231920828264842,2
1480466610,3.4690644501388967,42.338755677216902,-71.08822514154285,65.0,0.05781774083564828,9.7939361380590161e-06,3.5785746628252426e-05,1.0394029530140268e-05,1.3504472634580946e-05,3.0441347861366843e-05,1.7917594692280547,-0.013806024757589601,0.082961966606339116,-0.011431847990563598,2
1480466640,8.509437112663973,42.338767886437502,-71.08823005162094,65.0,0.14182395187773286,6.9639342874707156e-06,3.0505676970995283e-05,1.1655109702426984e-05,1.2531281153740977e-05,2.2167528247001544e-05,1.945910149055313,-0.013740818101582829,0.071428899820343977,-0.011396582268701773,2
1480466670,2.2975193806096446,42.338790541407413,-71.088237305431818,65.0,0.03829198967682741,9.1601305238831213e-06,3.826847381546853e-05,1.2524915763011567e-05,1.2559440341732823e-05,2.6850670428988715e-05,1.945910149055313,-0.014193587481340142,0.072014794493767104,-0.011228380243610584,2
1480466700,0.31731098839603833,42.338789620988209,-71.088232034121759,65.0,0.005288516473267306,1.0614343906080446e-05,3.8699970642378576e-05,1.2887720455658945e-05,1.5266487220152748e-05,3.5806066810355692e-05,1.7917594692280547,-0.014148789727092216,0.072643876016786971,-0.01123670023890065,2
1480466730,4.430804703900213,42.338787443532681,-71.088228527831006,65.0,0.07384674506500355,1.0324146160142332e-05,3.8699970642378576e-05,2.7831497830772896e-06,1.1410035517057883e-05,1.4179533820539929e-05,1.945910149055313,-0.0140242713781234,0.073003211890094108,-0.011240418155399287,2
1480466760,1.2577016905077065,42.338776825266024,-71.088229171816792,65.0,0.02096169484179511,1.2069252088327442e-05,4.0968698812806319e-05,2.7831497830772896e-06,1.1524780937618368e-05,2.2279454493942367e-05,1.945910149055313,-0.014050021488188744,0.073544918995131742,-0.01117088238224123,2
1480466790,2.9995966544935,42.338773816712468,-71.088221221436243,65.0,0.04999327757489167,1.1827418575527826e-05,4.0968698812806319e-05,3.2580975010558901e-06,1.6001020806355036e-05,2.8436293154954501e-05,1.7917594692280547,-0.014128372943124882,0.074541007467025466,-0.0111171376929887,2
1480466820,2.214984113473498,42.338794031097819,-71.088228898621381,65.0,0.03691640189122496,6.9805453444713371e-06,2.4753345163127262e-05,3.2580975010558901e-06,1.6947333639465345e-05,2.253199974381782e-05,1.945910149055313,-0.014190162408741486,0.07486810208096896,-0.011154953415056757,2
1480466850,6.972108920794394,42.338801344783448,-71.088220066289182,65.0,0.11620181534657323,8.0421875604026071e-06,3.5183716467528851e-05,7.4513729004030088e-06,1.6947333639465345e-05,2.2979433328512339e-05,1.945910149055313,-0.014245422844688571,0.074745657359189796,-0.011146403067979243,2
1480466880,2.2213922468315266,42.338784938710901,-71.088199219767688,65.0,0.037023204113858774,0.00010417203158858185,0.00029966416419632331,7.4513729004030088e-06,2.0163044384532948e-05,3.1744491831567673e-05,1.7917594692280547,-0.014351818431837549,0.07456930120347012,-0.01106129832246665,2
1480466910,1.596799393522398,42.338769234648581,-71.08820483771558,65.0,0.0266133232253733,9.9310738727167257e-05,0.00029966416419632331,3.6148301263672268e-06,1.5114429114073933e-05,2.1818436449089407e-05,1.945910149055313,-0.014537012507296129,0.074459852290054723,-0.011010334131311654,2
1480466940,0.09587448271642904,42.338758174312893,-71.088183519823943,65.0,0.0015979080452738173,1.2962444626852952e-05,4.7380619300318442e-05,3.6148301263672268e-06,1.5820407978816645e-05,2.6400465158456137e-05,1.945910149055313,-0.014606931478147244,0.074316645415444665,-0.011118734736161815,2
1480466970,2.0943377961440577,42.338753669419937,-71.088172853537529,65.0,0.034905629935734296,1.1981820600886263e-05,4.7380619300318442e-05,7.3088191962000141e-06,2.1414436144820043e-05,2.7973136302675375e-05,1.7917594692280547,-0.014929038025234133,0.074147990627177932,-0.0110824605848677,2
1480467000,1.3661232477834495,42.338764280300303,-71.088193312491228,65.0,0.022768720796390824,5.3937038231229194e-06,2.1843396155941971e-05,7.3088191962000141e-06,1.1356957469523238e-05,1.8699244641351324e-05,1.945910149055313,-0.0155467975079459,0.074229007143388023,-0.0107946404052071,2
1480467030,4.030565351276665,42.338754633056801,-71.088191081704977,65.0,0.06717608918794442,7.5030203189975797e-06,3.0680324284998578e-05,7.502177943206793e-06,1.5552537387362155e-05,2.5518826090001819e-05,1.945910149055313,-0.015794957892406973,0.074415196396540706,-0.010694375939236014,2
1480467060,5.588508644333624,42.338737803424252,-71.088185025082851,65.0,0.09314181073889373,3.6289477797144209e-06,3.3927915326579636e-05,2.3294693656616495e-05,2.7666350937270084e-05,3.250206992048815e-05,1.7917594692280547,-0.015649342571949436,0.074514306593463558,-0.010641906953517749,2
1480467090,5.612155939915735,42.338737965860702,-71.088209585718147,65.0,0.09353593233192892,5.0206548287797566e-06,3.4777159612769896e-05,1.9819733704698262e-05,2.9287864425412397e-05,3.4301882377911334e-05,1.945910149055313,-0.015584598636788127,0.074919762857999714,-0.010620184524677242,2
1480467120,0.0,nan,nan,nan,0.0,8.7644538786941684e-06,3.4777159612769896e-05,1.2835767877813103e-05,1.6337462930755158e-05,3.2805381602418388e-05,1.945910149055313,-0.015822520146929645,0.075486716022387615,-0.010643602664590929,2
1480467150,0.0,nan,nan,nan,0.0,5.7611955125668512e-06,2.9496956082235517e-05,1.2052904027959542e-05,1.3563749607255471e-05,1.6867753146885487e-05,1.7917594692280547,-0.016247598324709882,0.075515012951547889,-0.0106502552241726,2
1480467180,0.0,nan,nan,nan,0.0,5.5310106633498698e-06,2.9496956082235517e-05,1.2052904027959542e-05,1.8794410079996514e-05,2.5561047007352744e-05,1.945910149055313,-0.016489412620912473,0.074934576759724231,-0.0106649319255946,2
1480467210,0.0,nan,nan,nan,0.0,4.5409318152748612e-06,2.7080442652372928e-05,1.3641352147061096e-05,1.9033153735938133e-05,2.5312186738027891e-05,1.945910149055313,-0.016261354036580772,0.074981554923382848,-0.010674481507564729,2
1480467240,0.0,nan,nan,nan,0.0,9.5046027060439143e-06,4.3475488816513511e-05,1.3641352147061096e-05,1.952078555466228e-05,2.7857593310503735e-05,1.7917594692280547,-0.015848518499797914,0.075320740535124456,-0.010616261380251566,2
1480467270,7.514979783565734,42.338752191760648,-71.088197629739796,65.0,0.12524966305942892,1.6526582148976286e-05,6.4095149189874392e-05,8.8625435838267521e-06,2.594696370063883e-05,4.424399681113498e-05,1.945910149055313,-0.016074059113702098,0.074561604325761324,-0.010423666385896483,2
1480467300,13.190388560563498,42.338753488923736,-71.088172510456758,65.0,0.21983980934272498,1.8465504700805596e-05,6.4095149189874392e-05,8.8625435838267521e-06,1.3531844011905479e-05,3.7366489612206654e-05,1.945910149055313,-0.016348656670092044,0.072034221899596379,-0.010184983102545253,2
1480467330,4.85877666021304,42.338757896712096,-71.088166248679158,65.0,0.08097961100355068,8.9433109578388737e-06,3.2454799973683635e-05,8.3758631674761871e-06,1.3460397597865457e-05,2.8142804372714536e-05,1.7917594692280547,-0.016402536857641353,0.069221614104552243,-0.010015229596690867,2
1480467360,5.433192874915582,42.338770169898481,-71.088178820081566,65.0,0.09055321458192636,1.2211668858983397e-05,4.9530556788167426e-05,8.3758631674761871e-06,1.8597454123593281e-05,3.1503199725616945e-05,1.945910149055313,-0.016324095822022114,0.068778291228053665,-0.010066013183789347,2
1480467390,3.8384735746280403,42.338761896507286,-71.08817298686985,65.0,0.06397455957713401,9.6513610274855504e-06,4.9530556788167426e-05,1.7917781370991867e-05,2.2922413779917487e-05,3.0743927669704712e-05,1.945910149055313,-0.016358247457874068,0.068221170346574711,-0.01016703554049272,2
1480467420,2.0350198817096743,42.338752939710638,-71.088181869877175,65.0,0.03391699802849457,3.1132584427041285e-06,3.0936255861859162e-05,2.2753394226374432e-05,2.5390793025262305e-05,3.04449117610261e-05,1.7917594692280547,-0.016533640573801332,0.067879292131900124,-0.01019422299564765,2
1480467450,5.115619490930055,42.338759388868908,-71.088203415510819,65.0,0.08526032484883425,7.034917215155542e-06,3.8679405292436046e-05,2.1511102799328804e-05,2.2314439399319661e-05,3.4515783395271719e-05,1.945910149055313,-0.016751783188529514,0.067608613029141937,-0.01021284989304257,2
1480467480,2.3916745629978813,42.338756379826108,-71.088202104271915,65.0,0.03986124271663136,1.0091789974261264e-05,4.453146911919344e-05,1.68824703289908e-05,2.1693293685796843e-05,3.8612487471796939e-05,1.945910149055313,-0.01700866607000923,0.067257914704860658,-0.010311945981500556,2
1480467510,4.6747528974711585,42.338767108250316,-71.088218137909308,65.0,0.07791254829118598,1.5899168532980694e-05,5.3982733979742238e-05,1.1155045708200263e-05,1.7124947333919891e-05,4.2772799447166422e-05,1.7917594692280547,-0.017129635306133515,0.066884764913391917,-0.010354096031018266,2
1480467540,1.7465776623817513,42.338772630033155,-71.088225844117574,65.0,0.02910962770636252,1.4159000973705484e-05,5.3982733979742238e-05,8.2569469441663028e-06,1.3813953376213185e-05,2.2239959242890626e-05,1.945910149055313,-0.017002292781321784,0.066717093956020795,-0.010248036044740286,2
1480467570,7.3259754088992475,42.338759972809299,-71.088204730824771,65.0,0.1220995901483208,7.3983827513806506e-06,3.1685863618911382e-05,8.2569469441663028e-06,1.5426031108859962e-05,2.5593162043007993e-05,1.945910149055313,-0.016724856208405272,0.067267224698250666,-0.010164159947789386,2
1480467600,1.75786705651816,42.3387614533084,-71.088196082334704,65.0,0.029297784275302666,7.5477724893144724e-06,3.5106877518245126e-05,1.4379201173493817e-05,2.2462936039277399e-05,3.4078103631608626e-05,1.7917594692280547,-0.016510118629410968,0.068065926428291498,-0.010145215999819284,2
1480467630,4.891711581653051,42.33876764072054,-71.088197407833931,65.0,0.08152852636088419,9.8155240559988712e-06,3.5714135273737237e-05,8.0077609259576921e-06,1.9392098949595113e-05,3.4991197243709746e-05,1.945910149055313,-0.016921142858026844,0.067983017117721242,-0.010370780002154101,2
1480467660,4.643974191349939,42.338762990005229,-71.088177047020096,65.0,0.07739956985583231,9.3098180249484265e-06,3.5714135273737237e-05,8.0077609259576921e-06,1.4068115162016037e-05,2.7665032197547238e-05,1.945910149055313,-0.017227494929224672,0.067491618385068702,-0.010485982163101013,2
1480467690,1.2720942709944316,42.338754130217552,-71.088184971454851,65.0,0.021201571183240526,7.4395383855803763e-06,3.0523592690456439e-05,7.7645140085419426e-06,1.3125397940219809e-05,2.2526088952754783e-05,1.7917594692280547,-0.01715502322626725,0.067297803440837897,-0.010420697270603831,2
1480467720,0.781832771429655,42.33876353902059,-71.08820561875379,65.0,0.013030546190494251,8.2897818403589776e-06,2.7978091169995089e-05,3.3595895985801694e-06,1.3077021182577553e-05,2.3487758838156893e-05,1.945910149055313,-0.016744372786922614,0.06770165125507685,-0.010272783414910286,2
1480467750,5.754264029912252,42.338769925366691,-71.088193572021893,65.0,0.09590440049853753,7.5907913091609904e-06,2.7978091169995089e-05,3.3595895985801694e-06,1.6458703080046721e-05,2.3872509911547202e-05,1.945910149055313,-0.01641042885820837,0.067459749481408551,-0.010223955647711386,2
1480467780,7.7939100206276075,42.338747669453873,-71.088177116099203,65.0,0.12989850034379347,1.104764956430254e-05,4.6924177989593604e-05,1.4527877803480282e-05,2.2159504440395975e-05,3.4963835606836841e-05,1.7917594692280547,-0.016164702511711,0.067099971141272627,-0.010225146770195266,2
1480467810,1.547263665413531,42.338736969591338,-71.088168437006772,65.0,0.025787727756892184,1.0737663400644693e-05,4.6924177989593604e-05,1.3291792357270811e-05,2.5166137068427917e-05,3.9753704572993153e-05,1.945910149055313,-0.016059392672211414,0.067394710827763146,-0.010188951305808044,2
1480467840,2.3611432924911533,42.338740290627598,-71.088161441714703,65.0,0.03935238820818589,9.6039930697787511e-06,4.0980328910239502e-05,1.2792085883678138e-05,1.6047146626505727e-05,3.016444326862401e-05,1.945910149055313,-0.016079868420887444,0.067307391694511817,-0.010202587496871543,2
1480467870,6.84405569711529,42.338740011488113,-71.088174653160337,65.0,0.1140675949519215,1.1549607096723801e-05,4.2646335675503125e-05,1.2560764652366102e-05,1.4294689636693766e-05,3.4605732941436748e-05,1.7917594692280547,-0.016152717300949682,0.067266398508047068,-0.010216477145126449,2
1480467900,5.018027546480666,42.338757766400633,-71.088201721595809,65.0,0.08363379244134443,9.1711471812369254e-06,4.2646335675503125e-05,1.2560764652366102e-05,2.5623129369502417e-05,3.6301429996786194e-05,1.945910149055313,-0.016308407964575087,0.067395895373479273,-0.010277175422297058,2
1480467930,5.866028668863639,42.338783699064813,-71.088205545010041,65.0,0.09776714448106065,8.6811818766930228e-06,3.6154838643460619e-05,9.834412449337258e-06,1.6680308377136082e-05,2.9451433729858974e-05,1.945910149055313,-0.016424308269350742,0.067135458261869049,-0.010285248643190612,2
1480467960,0.6493603856911465,42.338792826344687,-71.088203441010094,65.0,0.010822673094852442,5.799001427199484e-06,2.9108613049264287e-05,9.834412449337258e-06,1.5708121698439692e-05,1.8759151252216621e-05,1.7917594692280547,-0.016553440762396166,0.066776348027616186,-0.010258558072206133,2
1480467990,4.539619260193827,42.338783542076115,-71.088192787856727,65.0,0.07566032100323046,4.9335959171943398e-06,2.9108613049264287e-05,1.5485416231645713e-05,1.7563032439474932e-05,2.586792164220855e-05,1.945910149055313,-0.016761354294563272,0.066589899383495299,-0.010296074672066571,2
1480468020,4.675319738951813,42.338771540838422,-71.088195021902493,65.0,0.07792199564919687,3.8524502000528944e-06,2.7976786236851305e-05,1.577532276114455e-05,2.1153387349800075e-05,2.586792164220855e-05,1.945910149055313,-0.016680496227320755,0.066524621948643364,-0.010330920199764585,2
1480468050,6.053974609142009,42.338757662803019,-71.088200627821749,65.0,0.10089957681903348,5.1599820414784653e-06,3.0651890689228849e-05,1.474299657227293e-05,2.1389563065246973e-05,2.731908981493537e-05,1.7917594692280547,-0.016748910999353269,0.066767333459140502,-0.010319060744258051,2
1480468080,4.266975043563708,42.338761105412246,-71.088203708405416,65.0,0.0711162507260618,7.3302869622111127e-06,4.0755444185550048e-05,1.474299657227293e-05,2.3965200826067332e-05,2.831676627543751e-05,1.945910149055313,-0.017180040290963101,0.066803205851926242,-0.010390549274859386,2
1480468110,2.6401165428690447,42.338770710048536,-71.088197470114778,65.0,0.044001942381150745,7.8208957198105108e-06,4.0755444185550048e-05,1.4940360171458968e-05,2.3285565199671426e-05,3.0440267985063299e-05,1.945910149055313,-0.017310625845220855,0.066538725349102892,-0.01037971548730697,2
1480468140,1.6627695676886707,42.338775818866623,-71.088185144713279,65.0,0.027712826128144512,8.265896342409673e-06,3.4898894108480427e-05,1.2558842607119077e-05,1.7168357997092646e-05,3.0633415922631476e-05,1.7917594692280547,-0.0172388448357749,0.066164585479977681,-0.010299330230003016,2
1480468170,3.1338063593794385,42.338784239840429,-71.088198950099866,65.0,0.052230105989657306,1.2001592022228728e-05,3.92472592349092e-05,6.4331996094034014e-06,9.445978655138235e-06,2.8350664802685197e-05,1.945910149055313,-0.017168796404822727,0.065953022363713601,-0.010314413165991044,2
1480468200,5.34230531250329,42.338782013699209,-71.08821168833714,65.0,0.08903842187505484,1.3741271680725752e-05,3.9408767836638868e-05,6.4331996094034014e-06,9.445978655138235e-06,3.5740215904257397e-05,1.945910149055313,-0.017027966901486839,0.065825281450976797,-0.010292631537149528,2
1480468230,10.814118254062322,42.338758623359425,-71.088177082507144,65.0,0.18023530423437203,1.0030281967693267e-05,3.9408767836638868e-05,1.2472485298698547e-05,1.4629301413183517e-05,2.9062920119632589e-05,1.7917594692280547,-0.016662595370480635,0.065756887170770759,-0.010158358942143716,2
1480468260,8.422466848578107,42.338730988238581,-71.088138659782686,65.0,0.1403744474763018,6.0043686475382724e-06,3.1688274601865558e-05,1.2472485298698547e-05,1.741159587500348e-05,2.4159878886483505e-05,1.945910149055313,-0.016476259790954257,0.06583928415684244,-0.010082980410172459,2
1480468290,2.2448604298155836,42.338752991495056,-71.088153391988712,65.0,0.03741434049692639,8.3160709395229069e-06,3.3961568216982237e-05,6.9974554738133118e-06,2.044495811219424e-05,2.9129135238131693e-05,1.945910149055313,-0.016498966599588955,0.065888902191601845,-0.010116136243941842,2
1480468320,1.8258276253996368,42.338773323092617,-71.08817131624113,65.0,0.03043046042332728,9.5872536882788138e-06,3.3961568216982237e-05,6.9974554738133118e-06,1.6077179769688738e-05,3.0726835376187106e-05,1.7917594692280547,-0.016450649464515802,0.065929220028959387,-0.010103870154842048,2
1480468350,1.1202290711369602,42.33877290538792,-71.088182445684581,65.0,0.018670484518949336,1.6443397649415208e-05,5.8773856433853504e-05,1.2407323008544592e-05,1.8096738799956309e-05,4.0915104195068098e-05,1.945910149055313,-0.016382285848859972,0.065660784035528441,-0.010119346157753367,2
1480468380,3.152338826240587,42.338779609507668,-71.088186755446714,65.0,0.05253898043734311,2.6217327773431132e-05,9.4973977153667307e-05,1.2407323008544592e-05,2.3734012559536321e-05,5.4065283139928825e-05,1.945910149055313,-0.0164410659240883,0.065682409964526664,-0.010137756281370272,2
1480468410,4.6066172359129745,42.338783610941483,-71.088200881079231,65.0,0.07677695393188291,2.9938105736810346e-05,9.4973977153667307e-05,5.5956031832977851e-06,1.2745471586794011e-05,2.9473966731189892e-05,1.7917594692280547,-0.016481698235877681,0.065920748459974268,-0.010087821060213401,2
1480468440,15.996026222283383,42.338761108820613,-71.088181914529017,65.0,0.2666004370380564,2.8744924268159395e-05,9.6058378573186167e-05,5.5956031832977851e-06,1.369862554976619e-05,2.7744036213786605e-05,1.945910149055313,-0.016577808133141973,0.065493835530155184,-0.010072605460459252,2
1480468470,0.9528034667371182,42.338724168455087,-71.088145213195588,65.0,0.015880057778951972,2.6410716047681685e-05,9.6058378573186167e-05,1.2369781463671113e-05,1.8465885900293232e-05,3.3059689160006863e-05,1.945910149055313,-0.016602268687881387,0.065043617759861741,-0.010140918105352168,2
1480468500,11.057895838961658,42.338743368002845,-71.088166012345724,65.0,0.1842982639826943,9.0184636099738098e-06,3.288975367413672e-05,1.0704964917241626e-05,1.5827403845550523e-05,3.128616463038376e-05,1.7917594692280547,-0.016357599367358436,0.064672650532455439,-0.010121680546243239,2
1480468530,2.953325215203918,42.338760970507188,-71.088190736363828,65.0,0.04922208692006531,1.4049526656310416e-05,4.9014811671500535e-05,9.2306369083687827e-06,1.0021097114670461e-05,3.1175300873107128e-05,1.945910149055313,-0.016214545402401886,0.064419623641362819,-0.01006287558058977,2
1480468560,1.6697592131519472,42.338764764974243,-71.088198304075789,65.0,0.02782932021919912,1.8039843567153909e-05,5.0804579788871227e-05,5.1867486358650859e-06,9.2839331102340396e-06,4.1474706190218447e-05,1.945910149055313,-0.016229302371701917,0.06430858636142936,-0.010084071298095123,2
1480468590,2.109468109470292,42.338770863493799,-71.088203568205344,65.0,0.03515780182450487,1.5207907438883084e-05,5.0804579788871227e-05,5.1867486358650859e-06,1.8445066840420525e-05,3.810790634655949e-05,1.7917594692280547,-0.016322890782541451,0.06413229969753402,-0.010102562119617365,2
1480468620,5.527410590907987,42.338764557478711,-71.088195836381402,65.0,0.09212350984846646,1.7233180901502751e-05,7.2536956818393381e-05,1.8379905858663293e-05,2.2724571533859323e-05,3.9052702240773871e-05,1.945910149055313,-0.01636582864968877,0.064394330615790918,-0.010131447394558984,2
1480468650,8.926259846037382,42.33873839652361,-71.08816395674161,65.0,0.14877099743395636,1.9353176350655066e-05,7.2536956818393381e-05,1.1404920605854533e-05,1.6169069613431343e-05,3.426843014525991e-05,1.945910149055313,-0.01631155059372293,0.064713278376701364,-0.010137551956026085,2
1480468680,8.927679274925364,42.338738293088149,-71.088165517949818,65.0,0.1487946545820894,2.8110444543156182e-05,9.0124485845752443e-05,1.1404920605854533e-05,1.2707236724449032e-05,1.9317477698100845e-05,1.7917594692280547,-0.016330539192071749,0.064615425397116025,-0.010155431177988767,2
1480468710,1.5061381849635105,42.338748301399285,-71.08817300233116,65.0,0.025102303082725173,2.5317690808174703e-05,9.0124485845752443e-05,1.1652338474454524e-05,1.777553420944485e-05,3.7558259896378583e-05,1.945910149055313,-0.016375607281619475,0.064184802765924462,-0.010239857050105114,2
1480468740,3.3289314287861003,42.338746022490795,-71.088163123527337,65.0,0.05548219047976834,1.3273706114604699e-05,4.4283405602212715e-05,2.7200392774448408e-06,1.0761693626372445e-05,2.5460930280749688e-05,1.945910149055313,-0.016379726861761843,0.06367987669624027,-0.010298498979799743,2
1480468770,5.297910079507372,42.338750904844389,-71.088171874582841,65.0,0.08829850132512287,1.1716844729131151e-05,3.9161111398039922e-05,2.7200392774448408e-06,7.6523151429914441e-06,1.5464391991750714e-05,1.7917594692280547,-0.016358935673869916,0.063364001516535678,-0.010249591805165466,2
1480468800,1.639544966893899,42.338729639252968,-71.088170036971391,65.0,0.02732574944823165,9.0556089091437205e-06,3.9161111398039922e-05,1.1863180080227407e-05,1.3025815967394356e-05,2.1856691243304067e-05,1.945910149055313,-0.016548866678166525,0.063187823259580639,-0.010244461399063,2
1480468830,1.7934964144788494,42.338731687742126,-71.088180280663764,65.0,0.029891606907980824,8.1978524355885806e-06,3.5483582744425183e-05,1.1863180080227407e-05,1.7384846087642847e-05,2.9281174684955187e-05,1.945910149055313,-0.016724700059133655,0.063053339057069405,-0.0102392459774931,2
1480468860,1.5078759058530151,42.33876359637339,-71.088201511806645,65.0,0.025131265097550252,8.3256063710675143e-06,3.5483582744425183e-05,1.3444869533863885e-05,1.8174763149454955e-05,3.1942665737658143e-05,1.7917594692280547,-0.016736845280543332,0.063129593101920956,-0.010236180482947534,2
1480468890,1.2861251601630226,42.33876704467751,-71.08819634324125,65.0,0.021435419336050376,9.6807127473283007e-06,3.0235989892989878e-05,1.6426404133705338e-06,1.2163057765928466e-05,2.6967279554758345e-05,1.945910149055313,-0.016700311385554872,0.063015812937433094,-0.010238180287021541,2
1480468920,7.849079629263376,42.338746186207807,-71.088169543199839,65.0,0.13081799382105627,1.2374062107510299e-05,3.9017358051743856e-05,1.6426404133705338e-06,1.1730740615124839e-05,2.9913653415038856e-05,1.945910149055313,-0.016694239924459928,0.06261520934605054,-0.010235219527165228,2
1480468950,8.378341248855586,42.338731878627236,-71.088155969771478,65.0,0.13963902081425977,9.2610155478602709e-06,3.9017358051743856e-05,1.258023523225663e-05,1.8277052274190959e-05,3.2113256335003607e-05,1.7917594692280547,-0.016747790090452099,0.062223823415959133,-0.010223470581763783,2
1480468980,3.719860989647216,42.338732205003964,-71.088152707403452,65.0,0.06199768316078693,4.790379943992796e-06,3.1356590324222992e-05,1.7024344504514951e-05,1.9292138505383809e-05,2.6331178865743176e-05,1.945910149055313,-0.016745600396845042,0.06220905071791194,-0.010195222830927173,2
1480469010,2.1978612439843617,42.338737678105211,-71.088143593623556,65.0,0.03663102073307269,8.1395694235901309e-06,3.6622755135853874e-05,8.4157808817860673e-06,1.8602004035709113e-05,2.6331178865743176e-05,1.945910149055313,-0.016757866060931239,0.062075137636587209,-0.010248985648478743,2
1480469040,4.068632780711415,42.338732021756378,-71.088131653885767,65.0,0.06781054634519025,9.0448378000417936e-06,3.6622755135853874e-05,8.4157808817860673e-06,1.7420007955251332e-05,2.6487621433278506e-05,1.7917594692280547,-0.016803206738203753,0.061842506193722467,-0.010286107221369134,2
1480469070,11.685203829993156,42.338747428690127,-71.088173600565582,65.0,0.1947533971665526,8.5181147086035493e-06,3.3563548638614856e-05,5.7503896146489313e-06,1.581354763249966e-05,2.4210997546774032e-05,1.945910149055313,-0.016682791119124744,0.061241087454277331,-0.010252937300045385,2
1480469100,3.2123650810817095,42.338768392183638,-71.088184591694869,65.0,0.053539418018028494,9.6377982714422067e-06,3.3563548638614856e-05,1.6343813395678371e-06,7.9785230237906783e-06,1.7657268169768618e-05,1.945910149055313,-0.016556247955689784,0.06084522672072129,-0.010234336245687285,2
1480469130,2.7951604257492613,42.338773634494686,-71.088169224080261,65.0,0.04658600709582102,1.1583505774794302e-05,3.7161702511927298e-05,1.6343813395678371e-06,1.1623082065073407e-05,2.6005624726122646e-05,1.7917594692280547,-0.016589759079281716,0.060623000465568518,-0.010288991936631617,2
1480469160,4.329040888605625,42.338778822319966,-71.08818630391329,65.0,0.07215068147676042,1.7700545253968119e-05,6.4443785584976864e-05,3.081993298411536e-06,1.9035149755282092e-05,3.3354879780700914e-05,1.945910149055313,-0.015121113756006279,-0.16291300259551517,-0.0056121353054177257,2
1480469190,2.7032817430734233,42.33877592586132,-71.088194044693324,65.0,0.045054695717890385,2.0849080681542813e-05,6.4443785584976864e-05,2.2162419775609622e-06,4.4911926351151151e-06,2.4294331606871578e-05,1.945910149055313,-0.013599324928965487,-0.49959889250097694,-0.0016816604587146645,2
1480469220,0.6310183778646707,42.338772414523227,-71.088203864086125,65.0,0.010516972964411179,1.5245348825747685e-06,6.3287009041715944e-06,2.2162419775609622e-06,3.2424293488515919e-06,5.7861362363398594e-06,1.7917594692280547,-0.013826701445072677,-0.72625120894205575,-0.0026675080694509149,2
1480469250,8.28758728512406,42.338763695645071,-71.088187742308364,65.0,0.13812645475206767,3.1122482921605003e-06,1.1368991620400073e-05,1.376061656532391e-06,2.4719493630178407e-06,4.672938976021145e-06,1.945910149055313,-0.014497925650195085,-0.72696696778007674,-0.0040704290631475145,2
1480469280,3.8391157389499653,42.338773787482424,-71.08818886659968,65.0,0.06398526231583275,5.0516496704074889e-06,1.5783393831334164e-05,1.376061656532391e-06,2.6831344378435703e-06,9.8712586528710118e-06,1.945910149055313,-0.01445310543537,-0.72147868068459409,-0.0039957676607827201,2
1480469310,5.882917094814201,42.338784962191987,-71.088216631905382,65.0,0.09804861824690335,5.5468638448461299e-06,1.5783393831334164e-05,2.623311690428713e-07,6.8151947036461069e-07,7.1413375075249465e-06,1.7917594692280547,-0.014512282554586801,-0.71124642859834408,-0.0039266989288565006,2
1480469340,5.535133026521365,42.338784861285248,-71.088235163032721,65.0,0.09225221710868942,3.6580646678593556e-06,9.5190583270271662e-06,2.623311690428713e-07,9.8727618717836203e-07,7.5724844524155864e-06,1.945910149055313,-0.014545492139473943,-0.70811451402317505,-0.0038955153137150956,2
1480469370,9.6614975848554,42.338788062663532,-71.088228940560214,65.0,0.16102495974759,3.1473768969339336e-06,9.5190583270271662e-06,1.2353899787185746e-06,1.7284802261609851e-06,7.5724844524155864e-06,1.945910149055313,-0.014519450455650628,-0.70837116012017098,-0.0039129798135194684,2
1480469400,11.129506376910212,42.33877862419736,-71.088191486047947,65.0,0.18549177294850355,4.5431780865638795e-06,1.4483118586726983e-05,1.2353899787185746e-06,1.9553807894165996e-06,6.2150499327124463e-06,1.7917594692280547,-0.014526197487602885,-0.70838098906851699,-0.0038437193439592094,2
1480469430,3.6307984309424297,42.338783638835558,-71.088202774570249,65.0,0.06051330718237383,4.6667844586590044e-06,1.4483118586726983e-05,5.2380555232628301e-07,2.4078961748373646e-06,8.7221831109015997e-06,1.945910149055313,-0.014508769928551827,-0.70774684498093499,-0.0038537156599113887,2
1480469460,0.21547958817870413,42.338789892313656,-71.088223817433999,65.0,0.003591326469645069,6.1869234498226459e-06,1.9569489776294979e-05,5.2380555232628301e-07,2.2026476163734939e-06,7.6875339376526087e-06,1.945910149055313,-0.014484880906845313,-0.70733980921626927,-0.0038943721268104086,2
1480469490,5.090721038768907,42.338785088396165,-71.088231151863084,65.0,0.08484535064614844,6.3282697771224835e-06,1.9569489776294979e-05,6.6390306487788359e-07,2.744114032996285e-06,1.0130542416250641e-05,1.7917594692280547,-0.014461902332560917,-0.70758676840668089,-0.0039430885217632489,2
1480469520,2.9076498587299695,42.338790711096379,-71.088229492242576,65.0,0.048460830978832824,7.7798017371653208e-06,2.5315289953161007e-05,6.6390306487788359e-07,2.4201883216254309e-06,9.6227902103210063e-06,1.945910149055313,-0.014410036015199542,-0.70794700200389626,-0.0039747358746210293,2
1480469550,7.984425447034191,42.338795096322372,-71.08821010653385,65.0,0.13307375745056985,8.0756149099492546e-06,2.5315289953161007e-05,9.9761848261626804e-07,1.6097729395995926e-06,5.3317396218279609e-06,1.945910149055313,-0.014372974464026942,-0.70801573532969431,-0.0039724642633912344,2
1480469580,11.288020228761404,42.338780551145206,-71.088194279477008,65.0,0.18813367047935672,2.6059940407553189e-06,8.6658805846538664e-06,9.9761848261626804e-07,1.6405209421172329e-06,4.7724132830885711e-06,1.7917594692280547,-0.014419882502077416,-0.70808203617322352,-0.0039624647212227965,2
1480469610,10.510003781072768,42.338787057602381,-71.088217954816542,65.0,0.17516672968454614,4.0098882756548508e-06,1.2269641924539625e-05,1.2449708147760524e-06,3.1930036317588559e-06,9.8967240693788884e-06,1.945910149055313,-0.014489140248263015,-0.70801333321223869,-0.0039261813742831175,2
1480469640,8.799398438242628,42.338789101539632,-71.088224798762838,65.0,0.14665664063737713,4.9775723724638206e-06,1.4668246313106144e-05,1.2449708147760524e-06,6.7223399153068665e-06,1.2714420446787023e-05,1.945910149055313,-0.014505758358222385,-0.70787037932181918,-0.0039205528073468802,2
1480469670,3.1957281315339228,42.338783085645311,-71.088198259647754,65.0,0.05326213552556538,4.6723076802282356e-06,1.4668246313106144e-05,4.9149520758991414e-07,8.7016077356807007e-06,1.2765490496326043e-05,1.7917594692280547,-0.014467147257065867,-0.70764060711292842,-0.0038580226734417481,2
1480469700,1.846772046189465,42.338775488576466,-71.088189360546735,65.0,0.03077953410315775,3.4759479398452271e-06,1.1584365078200916e-05,4.9149520758991414e-07,2.8874202424425642e-06,7.143897207736934e-06,1.945910149055313,-0.017132926643027714,-0.58204806657380548,-0.003297560699295697,2
1480469730,4.79582943921074,42.338762158663869,-71.088178725670247,65.0,0.07993049065351233,2.1033923742584269e-06,6.4575167192609799e-06,1.0102149976029318e-06,1.7242891867916108e-06,5.0456522824400422e-06,1.945910149055313,-0.018232885252060144,-0.47527060983874714,-0.003799822076529214,2
1480469760,3.063414578195098,42.338777874755749,-71.08818546074005,65.0,0.05105690963658496,4.1145685928297331e-06,1.1333690362156654e-05,1.0102149976029318e-06,1.6894368949526879e-06,8.9279661811653857e-06,1.7917594692280547,-0.016981175746341434,-0.45828103735417819,-0.0050224737201999192,2
1480469790,1.8565893862647684,42.338787987522664,-71.088197103613751,65.0,0.03094315643774614,3.123591603373933e-06,1.1333690362156654e-05,2.0209773802124709e-06,4.1180160934391866e-06,8.3466677625545269e-06,1.945910149055313,-0.016930084423518343,-0.45774964926764444,-0.0050759740001717008,2
1480469820,2.6125424556673065,42.338777971871068,-71.088200517148209,65.0,0.04354237426112177,2.285002935376027e-06,9.8455860389365658e-06,2.0209773802124709e-06,3.6541931894808333e-06,4.1832407340907314e-06,1.945910149055313,-0.016922012296757556,-0.45775032911464614,-0.0051147320658359368,2
1480469850,5.935549754163907,42.338759057839638,-71.08819376393744,65.0,0.09892582923606512,2.9791615527711986e-06,9.8455860389365658e-06,6.7332687386676378e-07,1.817286276684767e-06,4.2170452807069807e-06,1.7917594692280547,-0.016903226077407834,-0.45767007117508968,-0.0051490386236772495,2
1480469880,1.7231126702684572,42.338753012856124,-71.08818178567968,65.0,0.028718544504474287,2.7375687907685318e-05,8.2676317197748867e-05,6.7332687386676378e-07,2.0680782638173971e-06,1.2053130353198982e-05,1.945910149055313,-0.016927095331475846,-0.45729168046545393,-0.0051348008559722411,2
1480469910,7.145973461296848,42.338747638313038,-71.088161849544932,65.0,0.1190995576882808,2.7305409008429417e-05,8.2676317197748867e-05,9.0722823319238935e-07,2.7079430622938206e-06,1.2053130353198982e-05,1.945910149055313,-0.016936149071761372,-0.45735369229868256,-0.0051481965385000395,2
1480469940,13.858794415196108,42.338771961562607,-71.08818979098497,65.0,0.23097990691993514,6.8515767354088744e-06,2.0554612615142449e-05,9.0722823319238935e-07,1.5285860546357665e-06,3.7097051253949593e-06,1.7917594692280547,-0.016886097232058216,-0.45746807492829067,-0.0051908605697028954,2
1480469970,0.6408361994029295,42.338797233574866,-71.088220773003655,65.0,0.010680603323382158,9.2779132112378184e-06,2.5660036065147215e-05,5.9079631080520951e-07,2.464727220834321e-06,1.7475687407383834e-05,1.945910149055313,-0.016917651817864355,-0.45754380653867643,-0.005173579309714787,2
1480470000,4.681760855298606,42.338770619530713,-71.088193609319717,65.0,0.0780293475883101,9.3179583271692267e-06,2.7713455361925037e-05,5.9079631080520951e-07,7.4128799727533879e-06,2.0028399132386215e-05,1.945910149055313,-0.016923844993635969,-0.45758705447452003,-0.0051953246307475621,2
1480470030,6.696282863680969,42.338753536679135,-71.088178500082307,65.0,0.11160471439468281,9.1589923274814922e-06,2.7713455361925037e-05,1.7344510814214735e-07,3.9189463522552122e-06,1.4639725129870615e-05,1.7917594692280547,-0.016878931375853366,-0.45755987898112632,-0.0053017135533181227,2
1480470060,1.5064650071328711,42.33876311494619,-71.088177586260713,65.0,0.025107750118881184,8.7210524501062869e-06,2.6910921498054293e-05,1.7344510814214735e-07,3.4647195017763937e-06,1.4711094107138303e-05,1.945910149055313,-0.017035551961998314,-0.45777922990572811,-0.0053125676373319457,2
1480470090,1.803133841616427,42.338748279653856,-71.088169769677307,65.0,0.03005223069360712,8.1641629924706049e-06,2.6910921498054293e-05,2.023349072245711e-06,3.6477505358120139e-06,1.3181931244999115e-05,1.945910149055313,-0.017202869153139542,-0.45821483114947742,-0.0052681869323388765,2
1480470120,6.180042748739958,42.338754168513873,-71.088176118513218,65.0,0.1030007124789993,1.8653934268888574e-05,5.3797552228721491e-05,1.2664248161059569e-06,2.1257328678907997e-06,1.1093121241002376e-05,1.7917594692280547,-0.017314348680979436,-0.45860161564232099,-0.0052178597309384123,2
1480470150,1.5222550948449507,42.338782629004562,-71.088188495414542,65.0,0.025370918247415844,3.2054726152096463e-05,9.6764924700585441e-05,1.2664248161059569e-06,9.0244529581018332e-06,3.444414304372818e-05,1.945910149055313,-0.017113878465912356,-0.45871959455614891,-0.0053133841278890552,2
1480470180,4.985388079623895,42.338783827476803,-71.088190215790377,65.0,0.08308980132706492,2.9463464012176876e-05,9.6764924700585441e-05,8.5371251509101343e-06,1.2068539805418959e-05,1.490196025189628e-05,1.945910149055313,-0.016983950933071243,-0.45823683215372135,-0.0053654674028415644,2
1480470210,1.022652698559405,42.338776698860052,-71.088178906090107,65.0,0.01704421164265675,5.1784124928331156e-06,2.2368391994927051e-05,5.9791330979183846e-06,9.1603563398349794e-06,1.3574679944582284e-05,1.7917594692280547,-0.01701657430900505,-0.45764748073173617,-0.0053387283202888216,2
1480470240,4.306631503969801,42.338786666564985,-71.08818604452587,65.0,0.07177719173283002,6.2568551819905247e-06,2.2368391994927051e-05,7.2891827378692699e-07,5.7587071006254088e-06,1.0510292662458168e-05,1.945910149055313,-0.016927248719228728,-0.45815826438150692,-0.0053915698695770342,2
1480470270,0.8129508290521821,42.338811051900983,-71.088212839984493,65.0,0.013549180484203035,7.6306707282225115e-06,2.5086035815240208e-05,7.2891827378692699e-07,3.2197299375360299e-06,9.0530800151692895e-06,1.945910149055313,-0.016794080364504003,-0.45790336842929719,-0.0053986258357461153,2
1480470300,2.1936385894339683,42.338798046094006,-71.088206660001362,65.0,0.03656064315723281,1.1433713158162362e-05,2.9691089899539504e-05,7.1869043137784193e-07,2.2845616569871711e-06,2.3191201218945059e-05,1.7917594692280547,-0.016587453866028199,-0.45629326721951213,-0.0054797101957979105,2
1480470330,6.130284363467992,42.338778990151837,-71.088212082540991,65.0,0.10217140605779987,1.006450527966928e-05,2.9691089899539504e-05,3.3262979058705579e-07,1.3406669940445438e-06,1.2155783311477776e-05,1.945910149055313,-0.0166944952476504,-0.45542061496061587,-0.0054727104569065868,2
1480470360,2.0152601687043377,42.338784585971425,-71.088224431288751,65.0,0.03358766947840563,7.879387319346504e-06,2.5064977586393186e-05,3.3262979058705579e-07,1.8287545960460718e-06,8.4642373664283526e-06,1.945910149055313,-0.016975416063316411,-0.45543494473336599,-0.0053440962698813451,2
1480470390,2.6539534231439332,42.338786837708867,-71.088217890220122,65.0,0.04423255705239889,1.5064289211313679e-05,4.2401072763782957e-05,1.694865635380898e-06,2.2503002365405797e-06,2.1329634574785085e-05,1.7917594692280547,-0.017148917189448731,-0.45575011987037484,-0.0053694258422333973,2
1480470420,3.6003521725847287,42.338778908454223,-71.088211061837811,65.0,0.060005869543078814,1.3757958744832767e-05,4.2401072763782957e-05,3.4397059879066055e-07,2.4737480409179596e-06,6.2952184734055144e-06,1.945910149055313,-0.017158855762441229,-0.45600733955628031,-0.0054163402581580014,2
1480470450,3.167606934813648,42.338764089041305,-71.0881991463649,65.0,0.052793448913560796,2.2819090432828188e-06,6.3826963963268886e-06,3.4397059879066055e-07,2.2739055679859831e-06,6.2092248783141667e-06,1.945910149055313,-0.017256263848087382,-0.455759213209042,-0.0053065074271625391,2
1480470480,8.530552322183375,42.338750947052809,-71.088184974443749,65.0,0.1421758720363896,2.2559352714097348e-06,8.7551778321827479e-06,1.3965782993763573e-06,4.4749541105718786e-06,6.4127608010012759e-06,1.7917594692280547,-0.017300698021820732,-0.45550334478253746,-0.0052672481139925719,2
1480470510,4.4253355219412525,42.338741053690249,-71.088156701690536,65.0,0.07375559203235421,9.2773170730724278e-06,3.1568421810970084e-05,2.019664395519371e-06,4.5800043391482172e-06,8.5422352473844392e-06,1.945910149055313,-0.016899191169381041,-0.45604914408233416,-0.0054897113736250983,2
1480470540,16.153261690474853,42.338743979489415,-71.088152878264296,65.0,0.2692210281745809,9.5368139889860914e-06,3.1568421810970084e-05,1.8306271821859089e-06,3.2155154071752567e-06,1.1885361213989162e-05,1.945910149055313,-0.016546094890471558,-0.45637655600860089,-0.0056491254965335847,2
1480470570,15.736686118480128,42.338773558217511,-71.088212575477385,65.0,0.2622781019746688,4.4129624145461111e-06,1.2415810392540143e-05,1.8306271821859089e-06,3.7992222830782976e-06,1.2118126704094382e-05,1.7917594692280547,-0.016530525269953588,-0.4562287642304515,-0.0056786912751913277,2
1480470600,4.46750767433869,42.338804655234199,-71.088247735529521,65.0,0.07445846123897817,7.204526163121049e-06,2.4715220791552657e-05,3.2187600716347145e-06,4.6079303778145805e-06,1.4496976596931292e-05,1.945910149055313,-0.016632367019234005,-0.45600507421050496,-0.0056373876795546007,2
1480470630,8.424668154151192,42.338794686241705,-71.088236046043221,65.0,0.14041113590251986,7.0543875373726663e-06,2.4715220791552657e-05,2.8184380671769978e-06,7.2399841370077178e-06,1.6002045719223356e-05,1.945910149055313,-0.016684299775964341,-0.45634330061925626,-0.0056057605932417444,2
1480470660,3.6234409666335745,42.338756276790583,-71.088210000258115,65.0,0.06039068277722624,4.7524154063627984e-06,1.5908711055150941e-05,1.9377291378086482e-06,3.7477385667414283e-06,9.8976185893235957e-06,1.7917594692280547,-0.016380923673135865,-0.44433649525903668,-0.0061034683047831691,2
1480470690,3.8401821572859673,42.338746335244458,-71.088196260130175,65.0,0.06400303595476613,8.4556258815923854e-06,2.8019511547067805e-05,1.8304271358615148e-06,2.8098322992238574e-06,6.8559825576715695e-06,1.945910149055313,-0.015773352800259755,-0.42448464768660454,-0.0070110089425335269,2
1480470720,1.4348260786355709,42.338726625353885,-71.088178275620351,65.0,0.023913767977259515,8.7860345302320065e-06,2.8019511547067805e-05,1.1143162851371776e-06,1.977409428924477e-06,5.9215447146404121e-06,1.945910149055313,-0.015731131863763102,-0.41860401057906343,-0.0072715283322246846,2
1480470750,13.906674924767623,42.338712342049988,-71.088161367250549,65.0,0.23177791541279372,4.1982380614593254e-06,1.3502957011949239e-05,1.1143162851371776e-06,1.9697771068882088e-06,5.3913584694499276e-06,1.7917594692280547,-0.015819077636869565,-0.41834472393825456,-0.0071981567016767972,2
1480470780,2.882690440729523,42.338730544658333,-71.088156017818463,65.0,0.04804484067882538,3.5239525446015245e-06,1.3502957011949239e-05,1.9182389018551319e-06,4.380543987407346e-06,7.6590327238551967e-06,1.945910149055313,-0.015638368585959028,-0.41855746010189776,-0.007258673602736603,2
1480470810,6.3127129648825155,42.338746939111317,-71.088155484673393,65.0,0.10521188274804193,1.2805280615841358e-05,3.9789777355496211e-05,4.3264474346990382e-06,5.8921840715993415e-06,2.3248081266382843e-05,1.945910149055313,-0.01565795228939193,-0.41865671426326767,-0.0073300441762117335,2
1480470840,1.7202815843361063,42.338773877212461,-71.088174231459078,65.0,0.028671359738935105,1.053897014120664e-05,3.9789777355496211e-05,1.0444294304137752e-05,1.300108266278853e-05,2.9118225433212497e-05,1.7917594692280547,-0.015753628849610752,-0.41888875749655963,-0.0073085926084634325,2
1480470870,2.7444909738918963,42.338762053538588,-71.088170740922564,65.0,0.0457415162315316,6.0624585512375776e-06,2.6695006107825645e-05,7.0494122914086193e-06,9.5026178590531843e-06,1.1160628358635113e-05,1.945910149055313,-0.015681824037812271,-0.41932444665574742,-0.007288386628858624,2
1480470900,11.2469673845781,42.338734427730351,-71.088129983603693,65.0,0.187449456409635,1.8685997963485531e-06,1.0509878941693596e-05,5.221033730344195e-06,6.4504676679923533e-06,9.5026178590531843e-06,1.945910149055313,-0.015579930442845858,-0.41956684067526301,-0.0073239313494288154,2
1480470930,7.63460154480686,42.338730432166415,-71.088129963297433,65.0,0.12724335908011433,7.6798676927614141e-06,2.5774928598153986e-05,2.6649542867851617e-06,5.4105528212350713e-06,1.057265418743811e-05,1.7917594692280547,-0.015389821754846232,-0.41941526568072618,-0.0074094275262139913,2
1480470960,2.9436329907100736,42.338727620456901,-71.088143540491785,65.0,0.049060549845167896,9.1193944780209412e-06,2.5774928598153986e-05,1.1509793951252346e-06,2.2888784074282903e-06,1.6429245057790671e-05,1.945910149055313,-0.01541051663108603,-0.41924667993359555,-0.0073884346727717846,2
1480470990,1.7788746516059224,42.338723716051014,-71.088151160221074,65.0,0.029647910860098707,7.518672471410691e-06,2.1068892946356199e-05,1.1509793951252346e-06,2.1195474949085592e-06,1.5332806545310304e-05,1.945910149055313,-0.015497480594203372,-0.41898161771426728,-0.0073492848326497107,2
1480471020,5.240300044005385,42.338732330665664,-71.088165860607887,65.0,0.08733833406675641,6.5919931731672867e-06,1.7706192368994099e-05,2.3262924617456996e-06,3.6163937891646988e-06,1.63782981520543e-05,1.7917594692280547,-0.015425544732029534,-0.41866084237654833,-0.0073783818655205648,2
1480471050,13.835933659328276,42.338731379758492,-71.088157738709924,65.0,0.23059889432213793,5.2306258129997161e-06,1.7706192368994099e-05,2.0551450086538771e-06,2.8841891708611587e-06,6.7637369648646216e-06,1.945910149055313,-0.015387272148338313,-0.41870374186106646,-0.0073968731349126982,2
1480471080,5.833811230181561,42.338719016298768,-71.088149575086717,65.0,0.09723018716969269,2.8171035882200388e-06,9.3842067762720169e-06,1.8541800139526543e-06,2.1913770079878361e-06,7.1800363531700011e-06,1.945910149055313,-0.015402577871367326,-0.41865866135701396,-0.0073920418940974239,2
1480471110,12.63659406034551,42.33875629253658,-71.088183186900324,65.0,0.21060990100575852,6.4531849290016078e-06,2.1864264471544795e-05,1.8541800139526543e-06,4.6091253587587496e-06,7.3409666973490372e-06,1.7917594692280547,-0.015420721031371131,-0.41864501986589547,-0.0074098846373811282,2
1480471140,16.272060894081285,42.338771605692088,-71.088183675397147,65.0,0.27120101490135473,5.73667133820035e-06,2.1864264471544795e-05,3.9044350952307879e-06,5.3692789194126303e-06,1.0994362782059723e-05,1.945910149055313,-0.015385930160940057,-0.41849912793543853,-0.0074313982066772496,2
1480471170,5.58180758010594,42.338743194580168,-71.088150315387978,65.0,0.093030126335099,3.0353475599158627e-06,1.1216766713374719e-05,2.3902934869013893e-06,5.3692789194126303e-06,1.0227348984586653e-05,1.945910149055313,-0.015346276049381958,-0.41846116936161787,-0.0074676530936862448,2
1480471200,0.6286180070869727,42.338731041816537,-71.088128980888897,65.0,0.010476966784782878,5.2310741679176253e-06,1.7108549754559827e-05,1.1519102196834275e-06,3.6282779486738623e-06,9.3700363597926081e-06,1.7917594692280547,-0.015382149532288633,-0.41868516501931063,-0.0074534945389262775,2
1480471230,0.07394068621310732,42.338729469240562,-71.088122855778707,65.0,0.0012323447702184552,4.7979419178223146e-06,1.7108549754559827e-05,1.1519102196834275e-06,5.5359885524850441e-06,1.0623661944879393e-05,1.945910149055313,-0.015396835229229256,-0.41860582597726276,-0.0074047823984725114,2
1480471260,0.9765146038389623,42.338745047781899,-71.0881534668992,65.0,0.01627524339731604,7.5771288882760409e-06,2.7339604283426222e-05,3.4180647675109982e-06,5.500375896967856e-06,1.0623661944879393e-05,1.945910149055313,-0.015390327971564515,-0.41856122334446572,-0.0074508009735802542,2
1480471290,3.146105230259103,42.338751154288637,-71.0881615777094,65.0,0.052435087170985044,0.00067956598185824209,0.0018358136469363855,3.4180647675109982e-06,7.7464305640487734e-06,2.3999372946927056e-05,1.7917594692280547,-0.015468098294790218,-0.42290786839124389,-0.0074653233715303571,2
1480471320,3.008373879984223,42.338767853799801,-71.088170220677142,65.0,0.050139564666403715,0.00063931067169316509,0.0018358136469363855,2.5886266087970492e-06,7.0973865746708118e-06,1.2726110549496067e-05,1.945910149055313,-0.015939832023273145,-0.42742430069573661,-0.0072478974878978477,2
1480471350,2.7347431302743277,42.33876821220646,-71.088178577553052,65.0,0.045579052171238796,3.8850119513559435e-06,1.3158302599799954e-05,2.5886266087970492e-06,4.3296639089765301e-06,1.1219052723718182e-05,1.945910149055313,-0.016205556177819613,-0.42742744511423458,-0.0071137967628278455,2
1480471380,8.421604172497673,42.338764577133318,-71.088199501608514,65.0,0.14036006954162789,3.6026554454541302e-06,1.3158302599799954e-05,2.4394964772988331e-06,4.4208353369664192e-06,9.223769739395944e-06,1.7917594692280547,-0.015617154028882781,-0.42726451911846136,-0.0072645886423893741,2
1480471410,9.171944402380262,42.33876859498249,-71.088199012925998,65.0,0.15286574003967104,5.5168680571960374e-06,1.8043300696097257e-05,4.5757375809554898e-07,3.2820154708893428e-06,9.8264326085494594e-06,1.945910149055313,-0.015119363898169329,-0.42687026625589414,-0.0074521543830284882,2
1480471440,7.174010341099613,42.338757009999142,-71.088168005753801,65.0,0.11956683901832689,6.877056602170737e-06,2.2466623100658335e-05,4.5757375809554898e-07,7.1537325554709912e-06,1.4093121829461723e-05,1.945910149055313,-0.015125265920551972,-0.42636813707252913,-0.0074714444366739416,2
1480471470,0.8315007215654711,42.338750193125286,-71.088159528780295,65.0,0.013858345359424517,5.9025820926020395e-06,2.2466623100658335e-05,3.6502058762784425e-06,7.4459261693677162e-06,9.6127755258293653e-06,1.7917594692280547,-0.015125285488549833,-0.42641347036508098,-0.0074653593610176866,2
1480471500,4.88055720327815,42.338763152125061,-71.088178389038333,65.0,0.08134262005463584,1.5254879877997102e-05,4.8563050167646657e-05,2.1085276825186862e-06,3.3674233997543625e-06,1.1033202863472651e-05,1.945910149055313,-0.015433134121350986,-0.42644704553481405,-0.0073710409626083608,2
1480471530,9.024014389078006,42.338780932283726,-71.088204066588702,65.0,0.15040023981796677,1.5314697232065224e-05,4.8563050167646657e-05,1.7711321751939123e-06,2.5965843028744843e-06,1.2491360587671893e-05,1.945910149055313,-0.015820448790930142,-0.42618109921955671,-0.0071849535041247177,2
1480471560,3.356383173402753,42.338782490440408,-71.0882114023523,65.0,0.05593971955671255,3.224943593636593e-06,1.0555082806735459e-05,1.7711321751939123e-06,2.8457854635928843e-06,7.847409405799216e-06,1.7917594692280547,-0.015721061636899434,-0.42635851103097983,-0.0071571538344592815,2
1480471590,0.9932991829761767,42.338778342799927,-71.088201373236174,65.0,0.016554986382936277,4.6869354685142069e-06,1.6786947829841904e-05,2.6315158185203375e-06,3.2758044930092209e-06,9.4645394035668121e-06,1.945910149055313,-0.011536086165237103,-0.40457078497138649,-0.0016852322748355415,2
1480471620,2.295367450503406,42.338769426033856,-71.088187153013749,65.0,0.03825612417505676,4.6412115572558158e-06,1.6786947829841904e-05,2.630548994006045e-06,3.8816968209411336e-06,9.4645394035668121e-06,1.945910149055313,-0.011669943973115869,-0.36709417077769591,-0.0018518879617428203,2
1480471650,2.8065015656867396,42.338778206754412,-71.088201097211552,65.0,0.046775026094778994,3.1290471330429096e-06,1.1569814326829083e-05,2.630548994006045e-06,4.8083284027486853e-06,8.8845026055367642e-06,1.7917594692280547,-0.015794838834609099,-0.33859167462125966,-0.0077064835743118135,2
1480471680,2.653087229059701,42.338795016158841,-71.088234954506476,65.0,0.044218120484328355,1.7869433861048295e-06,1.1569814326829083e-05,5.5749945270650015e-06,8.2134175734436819e-06,1.0131523247648928e-05,1.945910149055313,-0.016122330531553743,-0.33748971324627025,-0.0076027208160480099,2
1480471710,0.4474382838500516,42.338786651721165,-71.088231332936346,65.0,0.007457304730834193,2.98673285749351e-06,1.0275374530270505e-05,1.7865449042026857e-06,5.0472343502136505e-06,8.8616752368328229e-06,1.945910149055313,-0.0172459632530963,-0.32861781144394692,-0.0068724914929522447,2
1480471740,4.559135072273863,42.338783109226533,-71.088229054555796,65.0,0.07598558453789771,2.4963320653914451e-06,7.3602908345377372e-06,1.7865449042026857e-06,2.3637127090717134e-06,7.2537115604007627e-06,1.7917594692280547,-0.018806721951750101,-0.31430417371144465,-0.0057897945287895399,2
1480471770,2.473779946068588,42.338781920168664,-71.088227328092799,65.0,0.0412296657678098,3.2680328792473e-06,1.2033992145142157e-05,2.0328467387603173e-06,3.8908078001793859e-06,7.8197361086753851e-06,1.945910149055313,-0.015176019783221712,-0.36739068000253738,-0.0065971283625964796,2
1480471800,5.975850583236313,42.338779639989141,-71.088203029602198,65.0,0.09959750972060522,4.9589060463435017e-06,1.8827019367384467e-05,2.0328467387603173e-06,6.6848919888483385e-06,1.169725804141206e-05,1.945910149055313,-0.011236061129869251,-0.50200633652398652,-0.0063621922223817884,2
1480471830,4.319732245465698,42.338771273570842,-71.088185481645169,65.0,0.0719955374244283,6.3079864759790343e-06,1.8827019367384467e-05,6.6580999259415346e-07,1.978735006242804e-06,1.0454514611807655e-05,1.7917594692280547,-0.0092992886177188493,-0.7042802894914878,-0.0046930627551767428,2
1480471860,2.1288837509370504,42.338768477818192,-71.088189820213898,65.0,0.03548139584895084,3.0759512101097256e-06,9.8922098899937006e-06,6.6580999259415346e-07,1.960344727793153e-06,6.375391225564798e-06,1.945910149055313,-0.0079037940293585802,-0.832228195640066,-0.0029114787000368348,2
1480471890,1.4447438291897807,42.338763619381766,-71.088182798865176,65.0,0.024079063819829678,4.8028219948658455e-06,1.7756127843855423e-05,3.0005572992102932e-06,6.375391225564798e-06,1.2292525731099051e-05,1.945910149055313,-0.0074358181354771558,-0.86947902325590254,-0.0013610436165960918,2
1480471920,2.5459066388931655,42.338779265151473,-71.088181676130333,65.0,0.04243177731488609,5.3145367783390638e-06,1.7756127843855423e-05,1.8722605561365399e-06,6.4127107900915922e-06,1.3359737038996607e-05,1.7917594692280547,-0.0079273802932576919,-0.85376547218112409,-0.00080083658552506862,2
1480471950,10.571386459349704,42.338794704847686,-71.08820664027651,65.0,0.17618977432249505,8.4247289580960571e-06,2.7719970717594827e-05,6.051592629607688e-07,3.9827576229652042e-06,1.1111350093108071e-05,1.945910149055313,-0.008095449918333603,-0.83787042794278743,-0.00080563640279789214,2
1480471980,0.5372688039538642,42.33878295556768,-71.088217616180401,65.0,0.008954480065897738,8.7718550877538738e-06,2.7719970717594827e-05,6.051592629607688e-07,1.9866311916062273e-06,1.0097720234990046e-05,1.945910149055313,-0.007979487863422053,-0.83840193384493555,-0.00076760758926589152,2
1480472010,1.3377438758297568,42.338776406181545,-71.088203435983175,65.0,0.02229573126382928,3.9302788877761842e-06,1.1369825143279823e-05,1.6099330666626914e-06,2.7147044691234466e-06,1.0078295495486067e-05,1.7917594692280547,-0.0079287285023527648,-0.8388582671898358,-0.00076857399142071781,2
1480472040,1.898481598405764,42.338774906024028,-71.088194125975448,65.0,0.0316413599734294,4.8998916544811612e-06,1.6888405811093088e-05,3.7688299268444962e-06,5.4518699085651293e-06,1.3612644749728028e-05,1.945910149055313,-0.0078694283480473717,-0.83888246464843141,-0.00076298491074333911,2
1480472070,2.9772657983440363,42.33877408122585,-71.088178932605388,65.0,0.04962109663906727,5.2662570129834199e-06,1.6888405811093088e-05,1.9742302750405342e-06,5.2798328268868529e-06,1.1740661516010582e-05,1.945910149055313,-0.0078509711381336712,-0.8386513980694309,-0.00071093718043300732,2
1480472100,6.024893477425881,42.338774990035681,-71.088183813813416,65.0,0.10041489129043134,3.6332614811938599e-06,1.1584637695947107e-05,1.4958032584284482e-06,2.1168716662120682e-06,7.3158911335732046e-06,1.7917594692280547,-0.0077972782857521185,-0.83811290796570148,-0.00071552903213670499,2
1480472130,1.8504833498747886,42.338776591244567,-71.088208299422675,65.0,0.03084138916457981,5.1716439463302646e-06,1.6175209592967775e-05,1.4958032584284482e-06,2.0211773975162237e-06,9.3601726192465116e-06,1.945910149055313,-0.0077327811679457738,-0.83780938790430481,-0.00075780519154462626,2
1480472160,1.926374572339466,42.338774785630129,-71.08820888181198,65.0,0.032106242872324435,4.5734710382531956e-06,1.6175209592967775e-05,1.4975589553057776e-06,4.2613147683756205e-06,9.0582509952068255e-06,1.945910149055313,-0.0077393794689752451,-0.83800708743091368,-0.0007626683423389471,2
1480472190,0.7007569256990954,42.338767889665313,-71.0881921659483,65.0,0.011679282094984924,2.6763501056589265e-06,1.0980794447867736e-05,3.3060422859676536e-06,5.2576212370894519e-06,9.1733670777865667e-06,1.7917594692280547,-0.0076234823618298005,-0.83070480791892309,-0.00032193703726512388,2
1480472220,2.07669308585083,42.338772089774025,-71.088201472374607,65.0,0.03461155143084717,2.9891617646493057e-06,9.9110960457145221e-06,9.6712744481697032e-07,2.8329414111708825e-06,7.4250390637282577e-06,1.945910149055313,-0.0084383917556726806,-0.80535190502616205,0.0012542675014269721,2
1480472250,1.8144563722430909,42.33879440988796,-71.088234710608248,65.0,0.030240939537384846,2.944156017902465e-06,9.7894993327790015e-06,9.6712744481697032e-07,2.8329414111708825e-06,7.1865719185803318e-06,1.945910149055313,-0.0084638297337158285,-0.78329256127090474,0.0010781168372559105,2
1480472280,1.4638421631743892,42.338801950121777,-71.088231220621182,65.0,0.02439736938623982,3.0525942997659265e-06,1.1243729806396374e-05,2.3350839146752074e-06,4.6971293179649203e-06,8.9115800834338937e-06,1.7917594692280547,-0.0079044626361651008,-0.7548790733758034,0.00038315239940108918,2
1480472310,4.73063350496034,42.338793824464894,-71.088232704583149,65.0,0.078843891749339,4.3802976919844213e-06,1.3551510689671652e-05,3.6588884821032745e-07,4.2477685574168423e-06,1.0206751388384696e-05,1.945910149055313,-0.0079769438652286893,-0.73675090122424347,0.00017477071201354441,2
1480472340,4.54488661895503,42.338785292824994,-71.088224405539421,65.0,0.07574811031591717,3.8492209061514806e-06,1.3551510689671652e-05,3.6588884821032745e-07,7.1963539800162323e-06,9.8953117950058204e-06,1.945910149055313,-0.007717605824529271,-0.73607045136980254,-0.00053505014597955301,2
1480472370,7.3063443373306685,42.338779746940986,-71.08818832597747,65.0,0.12177240562217781,3.0736014019641666e-06,1.0363233765120116e-05,2.0146432400828046e-06,6.6039170531069755e-06,9.9018722896358428e-06,1.7917594692280547,-0.0076972150418604356,-0.73664022875933466,-0.00058910831911486829,2
1480472400,1.3016684266594634,42.338758575083425,-71.088166224099012,65.0,0.021694473777657722,6.2154056852035793e-06,2.000694266594999e-05,1.5149976536788308e-07,2.7623450707835868e-06,9.9671888039679039e-06,1.945910149055313,-0.0079041326388176545,-0.73681463491721233,-0.00035252780387101765,2
1480472430,1.2359354614906906,42.338753378580499,-71.088178770369467,65.0,0.020598924358178176,1.4157490193308418e-05,3.9120339037236346e-05,1.5149976536788308e-07,4.8815678411012574e-06,2.659735062832734e-05,1.945910149055313,-0.0079856979949809222,-0.73706868745427179,-0.00020861354838846671,2
1480472460,5.83997419363819,42.338776041067874,-71.088208193497877,65.0,0.09733290322730316,1.4965502676404574e-05,3.9120339037236346e-05,1.550482418849848e-06,3.7008786483710378e-06,2.7036045995045443e-05,1.7917594692280547,-0.0079131073300551958,-0.73711760230573564,-0.000468312562777855,2
1480472490,3.7247833078338948,42.33877946591867,-71.08821062577853,65.0,0.06207972179723158,4.7796378994827108e-06,1.4704408928120666e-05,1.1433417339993104e-06,1.8877483122160058e-06,8.9976640507293132e-06,1.945910149055313,-0.0079514749515206141,-0.7353177217404363,-0.00064569936626262029,2
1480472520,6.6911077420360625,42.338771813222436,-71.088206742426195,65.0,0.11151846236726771,4.2832299690780097e-06,1.4704408928120666e-05,1.1433417339993104e-06,4.8017851200578292e-06,1.0020172321195637e-05,1.945910149055313,-0.0080815885542938511,-0.73125818455779013,-0.00063915593940140007,2
1480472550,1.734084566828413,42.33874325651901,-71.088172760184676,65.0,0.028901409447140217,3.8219357576770358e-06,1.5869610746584871e-05,4.8204153066901801e-06,5.5135751596648796e-06,1.0061404157566281e-05,1.7917594692280547,-0.0074353057788327107,-0.64087295426432755,-0.0020285499783846196,2
1480472580,11.000268710039546,42.338764696669784,-71.088188155842701,65.0,0.18333781183399242,5.253713010951582e-06,1.7070705112131037e-05,2.3962111208513441e-06,5.0384137031153542e-06,1.2281926560662573e-05,1.945910149055313,-0.0051957324324442417,-0.35714971900965342,-0.0048484005170734432,2
