TIMESTAMP,DISTANCE,AVG_LAT,AVG_LNG,GPS_ACCURACY,AVG_SPEED_BY_GPS,ACCLERATOR_STD,MAX_ACCLERATOR,MIN_ACCLERATOR,PERCENTILE_25_ACCLERATOR,PERCENTILE_75_ACCLERATOR,ACCLERATOR_ENTROPY,AVG_ROLL,AVG_YAW,AVG_PITCH,WEEK_DAY
1479220440,0.14075475639791205,42.331707941269613,-71.109921023930085,32.571428571428569,0.0023459126066318675,0.00065288192483624731,0.0016663473180777021,2.3924913338407885e-05,2.5502280467976464e-05,5.1885376237060159e-05,1.6094379124341005,-0.053131070829927587,0.45456899576330734,-0.013451605658524121,2
1479220470,0.0,42.331707836168206,-71.109922165117297,23.333333333333332,0.0,1.6276840607378831e-05,5.251469308449622e-05,4.1941233557317089e-06,2.4713596903192176e-05,4.8553166855584871e-05,1.945910149055313,0.051452350157346789,0.56541497517462969,-0.026789302674700841,2
1479220500,1.8164998538945463,42.33170106568592,-71.109921071278933,13.333333333333334,0.030274997564909104,1.8508026521349363e-05,6.076679596086303e-05,4.1941233557317089e-06,2.9400838291358011e-05,5.0691259181899568e-05,1.7917594692280547,0.051810412280242413,0.56547321087598335,-0.026558059235319283,2
1479220530,1.8164998538945463,42.331678497411616,-71.109917425151096,10.0,0.030274997564909104,1.466828614644499e-05,6.076679596086303e-05,1.8553980299368326e-05,2.7084000360520255e-05,4.7865147411242531e-05,1.945910149055313,0.05210869358060017,0.56531426548717256,-0.026625901576597406,2
1479220560,0.0,42.331662699619606,-71.109914872861609,10.0,0.0,0.0010435004734076229,0.0030190841909091535,1.8553980299368326e-05,3.305381806993201e-05,4.9643859358110225e-05,1.945910149055313,0.051817652585254829,0.56534994952933171,-0.026576550025843641,2
1479220590,0.0,42.331662699619606,-71.109914872861609,10.0,0.0,0.0011135442509698048,0.0030190841909091535,1.4143558925563782e-05,2.9373124853483087e-05,4.1343531034598666e-05,1.7917594692280547,0.051670972580612623,0.5661735123584376,-0.0265133926012798,2
1479220620,0.0,42.331662699619606,-71.109914872861609,10.0,0.0,8.4711713893555249e-06,3.6233536631450123e-05,1.4143558925563782e-05,1.7554926584368384e-05,3.2767123482792967e-05,1.945910149055313,0.05208542829135003,0.56713699913459004,-0.026448371124093657,2
1479220650,0.0,42.331662699619606,-71.109914872861609,10.0,0.0,8.3899282619448177e-06,3.6233536631450123e-05,1.1572920384530705e-05,1.7554926584368384e-05,2.7507708904696405e-05,1.945910149055313,0.052234314774064053,0.56759271557598523,-0.026468172774243855,2
1479220680,0.0,42.331662699619606,-71.109914872861609,10.0,0.0,9.5701375642439687e-06,4.3281207298830738e-05,1.1572920384530705e-05,2.1038729285396528e-05,2.4618768445269345e-05,1.7917594692280547,0.052264661201758857,0.56789645225956797,-0.026492903970896185,2
1479220710,0.0,42.331662699619606,-71.109914872861609,10.0,0.0,6.7601181385167191e-06,4.3281207298830738e-05,2.1495244411907315e-05,2.3860225372691353e-05,2.9720808245530159e-05,1.945910149055313,0.052193743013769216,0.56752310525625094,-0.026426340213928885,2
1479220740,0.0,42.331662699619606,-71.109914872861609,10.0,0.0,7.1479859500077123e-06,2.9775535488593543e-05,9.4969362818908359e-06,2.0303907798311754e-05,2.9586567276856089e-05,1.945910149055313,0.052132701627385925,0.56712415391822391,-0.026386602565412452,2
1479220770,0.0,42.331662699619606,-71.109914872861609,10.0,0.0,8.683436242605829e-06,2.8177487111284239e-05,5.6685736762717299e-06,1.1736380275820897e-05,2.6625268161060587e-05,1.7917594692280547,0.051803489557086059,0.56684013102898456,-0.026113105301151462,2
1479220800,0.0,42.331662699619606,-71.109914872861609,10.0,0.0,0.00021075037178321519,0.00062888391656407464,5.6685736762717299e-06,2.5927391493482453e-05,3.8508327148754435e-05,1.945910149055313,0.051560665058177857,0.56677772443024088,-0.0258914698063566,2
1479220830,0.0,42.331662699619606,-71.109914872861609,10.0,0.0,0.00020547156897409723,0.00062888391656407464,1.9854753057904189e-05,3.0578284522843543e-05,9.032826418920848e-05,1.945910149055313,0.051292494073947918,0.56693503497094144,-0.025530786816916628,2
1479220860,0.0,42.331662699619606,-71.109914872861609,10.0,0.0,4.17413085951783e-05,0.00013474053420629872,8.5008196463090022e-06,2.1197365312756635e-05,4.1318073251606319e-05,1.7917594692280547,0.051500183506223596,0.56689784489667139,-0.025428059243862211,2
1479220890,0.0,42.331662699619606,-71.109914872861609,10.0,0.0,1.4855948522154313e-05,5.3558436049474067e-05,8.5008196463090022e-06,1.5781011461487599e-05,3.2238521366448127e-05,1.945910149055313,0.056540345014886646,0.57066921994874054,-0.02572376482107553,2
1479220920,0.0,42.331662699619606,-71.109914872861609,10.0,0.0,1.3364573783194578e-05,5.3558436049474067e-05,8.6150015956830953e-06,1.7835374996219045e-05,2.7413880217747163e-05,1.945910149055313,0.063984541026251479,0.57738922579036167,-0.0270808680948511,2
1479220950,0.0,42.331662699619606,-71.109914872861609,10.0,0.0,6.6185750426998139e-06,3.2019696547541277e-05,1.2723728665145989e-05,1.9798920289142946e-05,2.7737065086784807e-05,1.7917594692280547,0.070064417520974351,0.5826416014101975,-0.029354973213982654,2
1479220980,0.0,42.331662699619606,-71.109914872861609,10.0,0.0,0.00041189487768561711,0.0012116181585041729,1.7580085118534391e-05,2.9237561174254944e-05,4.8162541757035924e-05,1.945910149055313,0.070543343660912472,0.58171193573945434,-0.029831579980102555,2
1479221010,0.0,42.331662699619606,-71.109914872861609,10.0,0.0,0.0004051733181435472,0.0012116181585041729,3.4975186418488769e-05,3.8828775708451935e-05,8.4490970073955029e-05,1.945910149055313,0.071173392376263772,0.58159404426371741,-0.029844849134883753,2
1479221040,0.0,42.331662699619606,-71.109914872861609,10.0,0.0,3.2715606460269889e-05,0.00011295028067994467,8.8037700599683554e-06,2.8557410796839783e-05,5.2141827875756631e-05,1.7917594692280547,0.072533832425642444,0.58429700922619987,-0.02946309403676485,2
1479221070,0.0,42.331662699619606,-71.109914872861609,10.0,0.0,9.6121708897003541e-05,0.00030201991695253511,8.8037700599683554e-06,2.3576952196351395e-05,4.2228393797699415e-05,1.945910149055313,0.072717681547541019,0.58791201124398695,-0.028978398706742101,2
1479221100,0.0,42.331662699619606,-71.109914872861609,10.0,0.0,9.471741769252939e-05,0.00030201991695253511,2.0735752136412672e-05,2.8100067905581229e-05,3.9898179276887555e-05,1.945910149055313,0.072232700774884209,0.58943384610221927,-0.028602281767275188,2
1479221130,0.0,42.331662699619606,-71.109914872861609,10.0,0.0,8.4662526357801088e-06,4.2562693518223721e-05,1.4655511879512391e-05,2.4953156279545386e-05,3.2049817261434984e-05,1.7917594692280547,0.071874049650060626,0.58978801105997913,-0.02833274901709237,2
1479221160,0.0,42.331662699619606,-71.109914872861609,10.0,0.0,0.0082579190622148226,0.023754172192502337,6.5337231273485443e-06,1.9524271905650927e-05,0.00048003255769992338,1.8675843750169276,0.040600200936122606,0.95047162344678549,-0.010287185841523088,2
1479221190,0.0,42.331662699619606,-71.109914872861609,10.0,0.0,0.0082592867206984586,0.023754172192502337,6.5337231273485443e-06,1.398226301569286e-05,0.00047716178533249953,1.8675843750169276,-0.0034691301751153146,1.7323883927588033,0.0046005395390586326,2
1479221220,0.0,42.331662699619606,-71.109914872861609,10.0,0.0,7.4097486697956509e-06,2.3067178527355352e-05,1.8953894245492204e-07,1.3213760173751331e-05,1.9616924731232346e-05,1.7917594692280547,-0.030821130115134248,2.4149638458645102,0.0061342567935963321,2
1479221250,0.0,42.331662699619606,-71.109914872861609,10.0,0.0,2.0353528225876159e-05,6.8141479121733008e-05,1.8953894245492204e-07,1.0490156444129643e-05,2.4035916770630543e-05,1.945910149055313,-0.03079537065871794,2.4163516760103616,0.007032133882514802,2
1479221280,0.0,42.331662699619606,-71.109914872861609,10.0,0.0,2.072956324886626e-05,6.8141479121733008e-05,2.2567023564334225e-06,7.7787881753185843e-06,2.2043214897988163e-05,1.945910149055313,-0.030847816909217927,2.4170145977049917,0.0093421323133827689,2
1479221310,0.0,42.331662699619606,-71.109914872861609,10.0,0.0,3.5866227787466862e-06,1.278792563496056e-05,2.2567023564334225e-06,7.719461159090573e-06,1.2026275794987828e-05,1.7917594692280547,-0.030879384306531352,2.4170826799155152,0.011441372014967916,2
1479221340,0.0,42.331662699619606,-71.109914872861609,10.0,0.0,3.5091407968814908e-06,1.8861892907922024e-05,7.6413173207292955e-06,8.9746537350346989e-06,1.2149036039572234e-05,1.945910149055313,-0.019511124479819227,2.4178147969072525,0.012126166769920172,2
1479221370,0.0,42.331662699619606,-71.109914872861609,10.0,0.0,0.0040664946916602772,0.011633252634563773,7.6413173207292955e-06,1.0667366843769162e-05,1.6333793102560691e-05,1.8675843750169276,-0.0050384292263514719,2.4177811653314412,0.013356678999490985,2
1479221400,0.0,42.331662699619606,-71.109914872861609,10.0,0.0,0.0043284689996008997,0.011633252634563773,1.1943389683293996e-05,1.1976094163041632e-05,3.6621241929705938e-05,1.7105600837579242,0.0019603778090589732,2.4166361812332267,0.014642847851624584,2
1479221430,0.0,42.331662699619606,-71.109914872861609,10.0,0.0,1.1232297205908386e-05,4.4226424807208134e-05,9.2943002643605483e-06,1.1949881567810468e-05,1.4547407191759902e-05,1.945910149055313,0.0013517713060918399,2.4162604262319869,0.014975986639075485,2
1479221460,0.0,42.331662699619606,-71.109914872861609,10.0,0.0,2.8027257856563465e-06,1.4566647892554923e-05,7.2891864895838488e-06,9.3455694816730063e-06,1.4477781900192051e-05,1.945910149055313,0.0015869171380758686,2.4159002979846926,0.015141581606877971,2
1479221490,0.0,42.331662699619606,-71.109914872861609,10.0,0.0,4.0332231992887668e-06,1.7432706905008076e-05,7.2246893848100278e-06,7.8160995419342531e-06,1.5046575470944085e-05,1.7917594692280547,0.0015804022022210982,2.4155271513850498,0.015153490622797449,2
1479221520,0.0,42.331662699619606,-71.109914872861609,10.0,0.0,3.3131829220939952e-06,1.7432706905008076e-05,7.2246893848100278e-06,1.0173953768517492e-05,1.4521810569215263e-05,1.945910149055313,0.0016347563418403926,2.4155399905996329,0.015088735976896542,2
1479221550,0.0,42.331662699619606,-71.109914872861609,10.0,0.0,1.9816653122760446e-06,1.5425852636153649e-05,8.6579241428409456e-06,1.1452956766262908e-05,1.3414022665962788e-05,1.945910149055313,0.0017096551738559468,2.4151929821479858,0.015121870959062403,2
1479221580,0.0,42.331662699619606,-71.109914872861609,10.0,0.0,4.0514482257209316e-06,1.5425852636153649e-05,3.5972702525208193e-06,1.1671295699985689e-05,1.4766282311828571e-05,1.7917594692280547,0.0011866345568644766,2.415038562678347,0.015036242203928935,2
1479221610,0.0,42.331662699619606,-71.109914872861609,10.0,0.0,1.3158774777368605e-05,4.9059480581127891e-05,3.5972702525208193e-06,1.4379531976564732e-05,1.6566425725721579e-05,1.945910149055313,-0.0056322792967073406,2.3734552569431204,0.014500518997113758,2
1479221640,0.0,42.331662699619606,-71.109914872861609,10.0,0.0,1.3025699256038385e-05,4.9059480581127891e-05,1.0441001934575268e-05,1.500009340609821e-05,3.2494798976092959e-05,1.945910149055313,-0.0155621142894864,2.3105435973511788,0.013242921018465944,2
1479221670,0.0,42.331662699619606,-71.109914872861609,10.0,0.0,1.0285635043213645e-05,3.6117107105284555e-05,7.8889297768755115e-06,1.1225916486625454e-05,2.5307377143260767e-05,1.7917594692280547,-0.022445576535334345,2.2686339288626329,0.011689078545337283,2
1479221700,0.0,42.331662699619606,-71.109914872861609,10.0,0.0,6.5396028650335744e-06,2.4007603777328734e-05,5.5716272267968738e-06,1.073479495982576e-05,1.9810338606471483e-05,1.945910149055313,-0.022288848935455127,2.2691934105651375,0.011496176443285714,2
1479221730,0.0,42.331662699619606,-71.109914872861609,10.0,0.0,6.8643977243073998e-06,2.4007603777328734e-05,5.5716272267968738e-06,8.8393924491114412e-06,1.9810338606471483e-05,1.945910149055313,-0.022203409627049427,2.2692616633035816,0.011589129367565358,2
1479221760,0.0,42.331662699619606,-71.109914872861609,10.0,0.0,2.3270986635551073e-06,1.4759203492683908e-05,7.0958979251223642e-06,1.0661388497525486e-05,1.2462987146281962e-05,1.7917594692280547,-0.022527028802784486,2.2695304805871919,0.012299493415926782,2
1479221790,0.0,42.331662699619606,-71.109914872861609,10.0,0.0,2.5790996580235469e-06,1.9228884827882909e-05,1.0896893070800387e-05,1.2454884194129189e-05,1.5377088710209468e-05,1.945910149055313,-0.019539065337965417,2.2734851434509502,0.013645033341063316,2
1479221820,0.0,42.331662699619606,-71.109914872861609,10.0,0.0,3.2087052282608e-06,1.9228884827882909e-05,8.9180339293428389e-06,1.3495596524456645e-05,1.711889200162786e-05,1.945910149055313,-0.015846242324009399,2.276536887178644,0.014431970922030845,2
1479221850,0.0,42.331662699619606,-71.109914872861609,10.0,0.0,3.6382140840256748e-06,1.8193479774672217e-05,8.9180339293428389e-06,1.0354288160490433e-05,1.6925776054852276e-05,1.7917594692280547,-0.014171251373976049,2.2772795186067332,0.014854413180887935,2
1479221880,0.0,42.331662699619606,-71.109914872861609,10.0,0.0,5.0638526247379749e-06,2.5341212454848449e-05,9.925731413973174e-06,1.2050418350443519e-05,1.868091607534973e-05,1.945910149055313,-0.014037626532405629,2.2771978266572126,0.014897530525096231,2
1479221910,0.0,42.331662699619606,-71.109914872861609,10.0,0.0,5.179085875581831e-06,2.5341212454848449e-05,8.2437301830499854e-06,1.3053673621502662e-05,1.881865631499368e-05,1.945910149055313,-0.013973512403779359,2.2768930563660996,0.014893701793719001,2
1479221940,0.0,42.331662699619606,-71.109914872861609,10.0,0.0,3.7791880844433914e-06,1.7735380214261898e-05,8.2437301830499854e-06,1.0097122613505231e-05,1.6695226523821068e-05,1.7917594692280547,-0.013941136432105332,2.276839954709557,0.014945715734939283,2
1479221970,0.0,42.331662699619606,-71.109914872861609,10.0,0.0,4.1711130164625693e-06,1.9157583244815721e-05,8.427983750517373e-06,9.0812114686741468e-06,1.5999554784133049e-05,1.945910149055313,-0.013931230989131101,2.2771557202219088,0.014970864585101645,2
1479222000,0.0,42.331662699619606,-71.109914872861609,10.0,0.0,4.5697952383138458e-06,1.9157583244815721e-05,8.427983750517373e-06,9.681739285149404e-06,1.8682715690302861e-05,1.945910149055313,-0.013920087083992101,2.2774888652251786,0.014961436541442186,2
1479222030,0.0,42.331662699619606,-71.109914872861609,10.0,0.0,2.9839631942206083e-06,1.9759999803432832e-05,1.1161969988830292e-05,1.5460944131185017e-05,1.8812395761270197e-05,1.7917594692280547,-0.013876847379765583,2.2773509422989582,0.014950076298683015,2
1479222060,0.0,42.331662699619606,-71.109914872861609,10.0,0.0,4.2510665197368001e-06,2.3266590018473834e-05,9.9073796967702971e-06,1.3251125757317431e-05,1.8803437196074898e-05,1.945910149055313,-0.013891903526323286,2.2767150387123101,0.014966346850908812,2
1479222090,0.0,42.331662699619606,-71.109914872861609,10.0,0.0,5.5366002161082207e-06,2.5058708818668202e-05,9.9073796967702971e-06,1.1405482710901173e-05,1.9975113470558359e-05,1.945910149055313,-0.013894604147659915,2.276737552277933,0.014988629518712285,2
1479222120,0.0,42.331662699619606,-71.109914872861609,10.0,0.0,5.8938062138158721e-06,2.5058708818668202e-05,9.2636672681750277e-06,1.2253682411443549e-05,2.2375852617456758e-05,1.7917594692280547,-0.01379704236498105,2.2771256269912299,0.01505390054669215,2
1479222150,0.0,42.331662699619606,-71.109914872861609,10.0,0.0,6.2792263855098404e-06,2.5749198831600476e-05,8.9504208326319824e-06,1.1017067071103994e-05,2.1050715679088153e-05,1.945910149055313,-0.013743171846086899,2.2771971583178257,0.015110348568336885,2
1479222180,0.0,42.331662699619606,-71.109914872861609,10.0,0.0,5.6074925841981814e-06,2.5749198831600476e-05,8.9504208326319824e-06,1.2591360384630043e-05,2.0562966955086853e-05,1.945910149055313,-0.013766812242961486,2.2771111770593211,0.015093067312527058,2
1479222210,0.0,42.331662699619606,-71.109914872861609,10.0,0.0,3.0821958842146938e-06,2.1048559138208247e-05,1.2412253895227124e-05,1.5268746633620412e-05,1.9885457763879879e-05,1.7917594692280547,-0.013753450556805416,2.2771276341973916,0.015061183633359315,2
1479222240,0.0,42.331662699619606,-71.109914872861609,10.0,0.0,3.1554210301487091e-06,1.9465362546934135e-05,1.0151036601441812e-05,1.3109643902524479e-05,1.7499903157202837e-05,1.945910149055313,-0.013707492621962473,2.2773971557825754,0.015066948573949598,2
1479222270,0.0,42.331662699619606,-71.109914872861609,10.0,0.0,5.0323111038612642e-06,2.3905380215434524e-05,9.2595634226595718e-06,1.0441856297856267e-05,1.6430856432404186e-05,1.945910149055313,-0.013720999106794727,2.2772814734005986,0.015103557435797185,2
1479222300,0.0,42.331662699619606,-71.109914872861609,10.0,0.0,9.0534572432425714e-06,3.353248623136814e-05,8.5439256760641543e-06,9.627841565562359e-06,2.208438472337409e-05,1.7917594692280547,-0.015046687306579867,2.2748204161743351,0.013970675017758631,2
1479222330,0.0,42.331662699619606,-71.109914872861609,10.0,0.0,1.3353471371547107e-05,4.9678414067011934e-05,8.5439256760641543e-06,1.4752127789394457e-05,3.1427774763150475e-05,1.945910149055313,-0.019203039301987111,2.2674079470662298,0.010679239396766614,2
1479222360,0.0,42.331662699619606,-71.109914872861609,10.0,0.0,1.3148693544329993e-05,4.9678414067011934e-05,5.6642390147147596e-06,1.4809498374340247e-05,2.6484436422756575e-05,1.945910149055313,-0.020979907130517502,2.2634435307326952,0.010203059260098485,2
1479222390,0.0,42.331662699619606,-71.109914872861609,10.0,0.0,5.7623777658972609e-06,2.3645809550580338e-05,5.6642390147147596e-06,1.6411512893232594e-05,2.0676068620766143e-05,1.7917594692280547,-0.020455851299648831,2.2633969828865599,0.0117292600379722,2
1479222420,0.0,42.331662699619606,-71.109914872861609,10.0,0.0,5.7059342916879295e-06,2.1072602128148781e-05,6.0849022012460434e-06,1.0996017340822325e-05,1.894664438930963e-05,1.945910149055313,-0.020969254028208241,2.2636494633328343,0.013019017499198687,2
1479222450,0.0,42.331662699619606,-71.109914872861609,10.0,0.0,5.5242647442228296e-06,2.1208833140381297e-05,6.0849022012460434e-06,9.3456113541468817e-06,1.7751601598160956e-05,1.945910149055313,-0.021488776594092544,2.2639405295689743,0.014308223772802272,2
1479222480,0.0,42.331662699619606,-71.109914872861609,10.0,0.0,4.6383613355049243e-06,2.5303416341537639e-05,1.2356792641136685e-05,1.386900295553567e-05,2.102600140563382e-05,1.7917594692280547,-0.021304824293863236,2.2638308795168949,0.013799632305668599,2
1479222510,0.0,42.331662699619606,-71.109914872861609,10.0,0.0,6.260377330135211e-06,3.2691651499622957e-05,1.2849960888987354e-05,1.64666039955071e-05,2.2890461271464516e-05,1.945910149055313,-0.021299309900858914,2.2639111532936842,0.012067639150925197,2
1479222540,0.0,42.331662699619606,-71.109914872861609,10.0,0.0,0.0029538001608477183,0.00847508466435405,1.4127670446911115e-05,1.9245488170374404e-05,6.5526052893617081e-05,1.8675843750169276,-0.019907815190671477,2.2304236114606013,-1.1322592725288611e-05,2
1479222570,0.0,42.331662699619606,-71.109914872861609,10.0,0.0,0.0031416719949669118,0.00847508466435405,2.0534560754217051e-05,2.2513680197099505e-05,8.9236671249632102e-05,1.7105600837579242,-0.014352278284338021,2.1056136641402934,-0.036938637490010799,2
1479222600,0.0,42.331662699619606,-71.109914872861609,10.0,0.0,5.1245694083824698e-05,0.00016699435806009344,6.9273941626330256e-06,1.9658345503409642e-05,6.3693601060573182e-05,1.945910149055313,-0.011009590378783228,2.0258772655129471,-0.0580947233250214,2
1479222630,0.0,42.331662699619606,-71.109914872861609,10.0,0.0,5.0999528687871508e-05,0.00016699435806009344,6.9273941626330256e-06,1.8677526548480542e-05,5.4600458565099263e-05,1.945910149055313,-0.0114204231000814,2.0245641483141399,-0.058705482139111594,2
1479222660,0.0,42.331662699619606,-71.109914872861609,10.0,0.0,2.3442606913663315e-05,8.2355663613842175e-05,1.1423546632655973e-05,1.9901912154817876e-05,4.0131933659861798e-05,1.7917594692280547,-0.012089703000672566,2.0220580709449898,-0.060814428591784798,2
1479222690,0.0,42.331662699619606,-71.109914872861609,10.0,0.0,3.1716513163456599e-05,8.9782630109288831e-05,1.1423546632655973e-05,1.3536765238049614e-05,5.3122271850018568e-05,1.945910149055313,-0.029592161087884185,2.0262386837921644,-0.059216007612209701,2
1479222720,0.0,42.331662699619606,-71.109914872861609,10.0,0.0,3.1921742976634e-05,8.9782630109288831e-05,6.7948152686465153e-06,1.1169759432845388e-05,4.7499878940352521e-05,1.945910149055313,-0.070842731253262001,1.9926801145963573,-0.059196715172602762,2
1479222750,1.3669038186753857,42.33165675405629,-71.109916431895599,10.322182216498167,0.022781730311256427,0.00017098013684263365,0.00047998892350556313,6.7948152686465153e-06,7.6118898219715131e-06,6.3640170050518013e-05,1.7917594692280547,-0.083424979622386639,1.6742738454983668,-0.034217104156915944,2
1479222780,1.3669038186753857,42.331641289444953,-71.109919994204446,10.322182216498167,0.022781730311256427,0.00015558388197869084,0.00047998892350556313,7.1987998391195116e-06,3.0155659742290697e-05,7.5524376428819177e-05,1.945910149055313,-0.026284186594544047,1.2880396013395041,-0.00071725446066298569,2
1479222810,0.0,42.331631770396918,-71.109921997479304,10.0,0.0,2.5075188684318735e-05,9.9751523437485821e-05,1.6654847552064119e-05,3.0401528093881361e-05,4.6200610850525589e-05,1.945910149055313,-0.0042904526999700005,1.20185045864006,0.0038604939768067384,2
1479222840,0.0,42.331631770396918,-71.109921997479304,10.0,0.0,1.2860729991097364e-05,4.1103992280898659e-05,1.1747647886273574e-06,1.4949318058857475e-05,3.0143163207728215e-05,1.7917594692280547,-0.0075072418522264747,1.2040305833744716,0.0037789749516424012,2
1479222870,0.0,42.331631770396918,-71.109921997479304,10.0,0.0,1.3786196123800864e-05,4.908591957687852e-05,1.1747647886273574e-06,1.4149174557392944e-05,2.6433077961038479e-05,1.945910149055313,-0.0080570661779535944,1.2041275376735328,0.0039008888346243873,2
1479222900,0.0,42.331631770396918,-71.109921997479304,10.0,0.0,1.1650337558906422e-05,4.908591957687852e-05,1.1040604639139022e-05,1.6459023312558592e-05,2.389859454819773e-05,1.945910149055313,-0.0081580540510223752,1.2042544268245798,0.0040874253032922702,2
1479222930,0.0,42.331631770396918,-71.109921997479304,10.0,0.0,1.492611049942822e-05,5.4910690412094568e-05,1.1040604639139022e-05,1.8853901017822131e-05,3.3203032989259315e-05,1.7917594692280547,-0.0086122970273976845,1.20323731255422,0.0039159966384026395,2
1479222960,0.0,42.331631770396918,-71.109921997479304,10.0,0.0,9.2437351059142838e-05,0.00029401478922392763,1.6516635010989435e-05,1.9612020943970961e-05,5.2157310371763062e-05,1.945910149055313,-0.0096247494230152358,1.2016333268451371,0.0034863271854977465,2
1479222990,0.0,42.331631770396918,-71.109921997479304,10.0,0.0,9.5656544266632828e-05,0.00029401478922392763,1.0673167861121798e-05,1.7585677837549113e-05,3.4911469720825304e-05,1.945910149055313,-0.009620289038260869,1.2023972012975399,0.003616441208458466,2
1479223020,0.0,42.331631770396918,-71.109921997479304,10.0,0.0,6.9441221485378257e-06,3.410463671982658e-05,1.0673167861121798e-05,1.8575990315474994e-05,2.003843720979195e-05,1.7917594692280547,-0.01042934206416247,1.2076374873182933,0.0033668179800395368,2
1479223050,0.0,42.331631770396918,-71.109921997479304,10.0,0.0,2.2319351818232625e-05,7.9333289974283538e-05,1.0400315688952444e-05,1.4779912382372629e-05,2.6936628256151022e-05,1.945910149055313,-0.0121421984458883,1.2105789516438927,0.0027087619389258542,2
1479223080,0.0,42.331631770396918,-71.109921997479304,10.0,0.0,2.2226593248787006e-05,7.9333289974283538e-05,1.0400315688952444e-05,1.4779912382372629e-05,3.0124069999726832e-05,1.945910149055313,-0.012341711087083056,1.2102977286461185,0.00271142615793707,2
1479223110,0.0,42.331631770396918,-71.109921997479304,10.0,0.0,1.8721375362673543e-05,7.4398547111213947e-05,1.6012145926373573e-05,2.4609717029690269e-05,3.3453358574527207e-05,1.7917594692280547,-0.012498482007307082,1.2103607525163815,0.0026035477044142317,2
1479223140,0.0,42.331631770396918,-71.109921997479304,10.0,0.0,2.0705355626144265e-05,7.4398547111213947e-05,1.2898846434016226e-05,1.6005049370612711e-05,4.0837970738404796e-05,1.945910149055313,-0.012675566342366244,1.2102866380524042,0.0024905237590041999,2
1479223170,0.0,42.331631770396918,-71.109921997479304,10.0,0.0,1.1630147365337986e-05,4.7861171958713133e-05,1.151837208929905e-05,1.4358865747482229e-05,1.9588654801431748e-05,1.945910149055313,-0.012736132503437584,1.2102728903492914,0.0025260771285182545,2
1479223200,0.0,42.331631770396918,-71.109921997479304,10.0,0.0,3.3047724642596208e-06,2.2555300896054007e-05,1.151837208929905e-05,1.5595731245468398e-05,1.7853507979953176e-05,1.7917594692280547,-0.012913354836794401,1.2101586612702551,0.002506465260561952,2
1479223230,0.0,42.331631770396918,-71.109921997479304,10.0,0.0,3.5744451223373732e-06,2.2743105059021438e-05,1.3284901751681664e-05,1.4538961057381269e-05,2.0341269056689123e-05,1.945910149055313,-0.012889604128427656,1.2099182974048914,0.00237128443607596,2
1479223260,0.0,42.331631770396918,-71.109921997479304,10.0,0.0,9.5641744375292814e-06,4.3109145602863821e-05,1.3284901751681664e-05,1.5316982823413596e-05,2.5048425200233605e-05,1.945910149055313,-0.012767310263591628,1.2096582573135901,0.0023436358358501141,2
1479223290,0.0,42.331631770396918,-71.109921997479304,10.0,0.0,4.0896399170361556e-05,0.00013484589050682616,1.6461001312661213e-05,1.9445698053175966e-05,4.1880364569005639e-05,1.7917594692280547,-0.012452796639664582,1.2102457546878533,0.0022512816396380634,2
1479223320,0.0,42.331631770396918,-71.109921997479304,10.0,0.0,4.0153719011919854e-05,0.00013484589050682616,1.1839303668567258e-05,1.7993451074497617e-05,4.647282978665986e-05,1.945910149055313,-0.0092406697279929541,1.21602394742394,0.0022769201948866459,2
1479223350,0.0,42.331631770396918,-71.109921997479304,10.0,0.0,1.3208234671363523e-05,5.4751638105888622e-05,1.1839303668567258e-05,1.7134178835323241e-05,2.1049174772106511e-05,1.945910149055313,-0.0097806610177464531,1.2181205707003315,0.0044526318853159996,2
1479223380,0.0,42.331631770396918,-71.109921997479304,10.0,0.0,9.7944639962992528e-06,4.0446783933480236e-05,1.7097420646881672e-05,1.804533660478765e-05,3.6240654159714182e-05,1.7917594692280547,-0.013251439083640749,1.2158000071430866,0.0066855579262361251,2
1479223410,0.0,42.331631770396918,-71.109921997479304,10.0,0.0,1.2999976958843655e-05,4.0446783933480236e-05,8.8937481382427147e-06,1.0073434756254348e-05,3.6081228368807265e-05,1.945910149055313,-0.012304727291184496,1.2158917933802555,0.0059211981828214627,2
1479223440,0.0,42.331631770396918,-71.109921997479304,10.0,0.0,5.3247750156977162e-06,2.1157049565792687e-05,6.570413560276435e-06,9.3995054411578938e-06,1.8350183947090946e-05,1.945910149055313,-0.0096515672157778086,1.2166118644867956,0.0050972447493488355,2
1479223470,0.0,42.331631770396918,-71.109921997479304,10.0,0.0,4.2488522948857136e-06,1.8908274289383601e-05,6.570413560276435e-06,1.5746419336009575e-05,1.8495809009654263e-05,1.7917594692280547,-0.006944234774665093,1.2169381844217968,0.0038923438416635201,2
1479223500,0.0,42.331631770396918,-71.109921997479304,10.0,0.0,2.1436155108643732e-06,1.8908274289383601e-05,1.1380177624307924e-05,1.5950777072309021e-05,1.6907495725346188e-05,1.945910149055313,-0.0069357211937529977,1.2173340553542302,0.003440049884329572,2
1479223530,0.0,42.331631770396918,-71.109921997479304,10.0,0.0,3.8873976867195211e-06,2.3684610623366834e-05,1.1181513359973419e-05,1.397145775322956e-05,1.6907495725346188e-05,1.945910149055313,-0.0062499520098799151,1.2196792218953203,0.0034478593951441645,2
1479223560,0.0,42.331631770396918,-71.109921997479304,10.0,0.0,4.5044852253795164e-06,2.3684610623366834e-05,9.6983202061867502e-06,1.1878546008638883e-05,1.6275372169346708e-05,1.7917594692280547,-0.0032477775089982089,1.22285782810559,0.0030027975853857774,2
1479223590,0.0,42.331631770396918,-71.109921997479304,10.0,0.0,2.8745096809450276e-06,1.862295693742105e-05,9.6983202061867502e-06,1.2807114751329945e-05,1.6584593429562538e-05,1.945910149055313,-0.0010226977195377737,1.2224561864077257,0.0023243764785968427,2
1479223620,0.0,42.331631770396918,-71.109921997479304,10.0,0.0,1.7721028867514511e-05,6.2901415486088324e-05,7.013705575193895e-06,1.1730448665866754e-05,1.8189434382806443e-05,1.945910149055313,-0.0010082021170356448,1.2210027224097015,0.0022042067103558698,2
1479223650,0.0,42.331631770396918,-71.109921997479304,10.0,0.0,1.9616894292069282e-05,6.2901415486088324e-05,6.8008923404376163e-06,8.0301718637867885e-06,1.5681661381474358e-05,1.7917594692280547,-0.00098809467592984456,1.2199928476997417,0.0020158512425295016,2
1479223680,0.0,42.331631770396918,-71.109921997479304,10.0,0.0,3.2542987529236691e-06,1.7039843286814944e-05,6.8008923404376163e-06,1.1573497186000685e-05,1.5358714024774353e-05,1.945910149055313,-0.00089259994010976586,1.2204784008297442,0.0017667871045636344,2
1479223710,0.0,42.331631770396918,-71.109921997479304,10.0,0.0,5.9451111320482531e-06,2.9125126601119429e-05,1.0327195817435273e-05,1.1573497186000685e-05,1.6334679608737121e-05,1.945910149055313,-0.00082791669819159974,1.221248871908827,0.0017172055823092814,2
1479223740,0.0,42.331631770396918,-71.109921997479304,10.0,0.0,6.4184920209692885e-06,2.9125126601119429e-05,1.0327195817435273e-05,1.1482521045818846e-05,1.4917795465798533e-05,1.7917594692280547,-0.00077335812878135291,1.2213683156434818,0.0017429849121414684,2
1479223770,0.0,42.331631770396918,-71.109921997479304,10.0,0.0,1.6722565194622911e-06,1.5438655577240758e-05,9.5068260467638721e-06,1.1850317088119914e-05,1.272977372628203e-05,1.945910149055313,-0.00078879213123149948,1.2209537243112059,0.0017231479134019027,2
1479223800,0.0,42.331631770396918,-71.109921997479304,10.0,0.0,2.6660810423923086e-06,1.6629055721339624e-05,8.6372399532296531e-06,1.1077833316338689e-05,1.4246924627834335e-05,1.945910149055313,-0.00079293448290077505,1.2207652322428386,0.0016700105093002628,2
1479223830,0.0,42.331631770396918,-71.109921997479304,10.0,0.0,5.4818712801374912e-06,2.3395533383671827e-05,8.6372399532296531e-06,1.1133418544993634e-05,2.0447302821379784e-05,1.7917594692280547,-0.00077730050762115949,1.2206627752047317,0.0016217793133714434,2
1479223860,0.0,42.331631770396918,-71.109921997479304,10.0,0.0,5.2844983048127973e-06,2.3395533383671827e-05,1.0165423170689721e-05,1.08046022582138e-05,2.0961926476230517e-05,1.945910149055313,-0.00074367919799198632,1.2206639922053586,0.0016514587913631831,2
1479223890,0.0,42.331631770396918,-71.109921997479304,10.0,0.0,6.034940374430389e-06,2.8248024221434694e-05,1.0165423170689721e-05,1.0988024963565766e-05,1.9025372224559492e-05,1.945910149055313,-0.00072293906821459578,1.2208718730299115,0.0017123401383810771,2
1479223920,0.0,42.331631770396918,-71.109921997479304,10.0,0.0,7.5209957126498744e-06,2.8248024221434694e-05,7.9371481271384259e-06,8.8282572565290447e-06,2.0513497887695737e-05,1.7917594692280547,-0.00035437546563469035,1.217376483611625,0.0027812950398801665,2
1479223950,0.0,42.331631770396918,-71.109921997479304,10.0,0.0,7.7620288801988538e-06,2.8327351151743691e-05,7.9371481271384259e-06,9.4049797320055797e-06,2.3099988610443045e-05,1.945910149055313,-0.0013398975416608154,1.2131955462138644,0.0029161941154399471,2
1479223980,0.0,42.331631770396918,-71.109921997479304,10.0,0.0,6.3439000575244092e-06,2.8327351151743691e-05,9.2731908928711979e-06,1.4491401603791279e-05,2.2669919881724208e-05,1.945910149055313,-0.0019423127490736853,1.2132790445218127,0.0024661428596153188,2
1479224010,0.0,42.331631770396918,-71.109921997479304,10.0,0.0,3.416015446686468e-06,1.8747595997927299e-05,9.2731908928711979e-06,1.3958599707489e-05,1.8252015313797133e-05,1.7917594692280547,-0.0022804638882750728,1.2139948136061767,0.0028987016077488734,2
1479224040,0.0,42.331631770396918,-71.109921997479304,10.0,0.0,0.00092619792252542543,0.0026614467949998707,1.1033465317488192e-05,1.2423557417104671e-05,1.7726015795406466e-05,1.945910149055313,-0.003402534492862081,1.2141276031100272,0.0033275957248693226,2
1479224070,0.0,42.331631770396918,-71.109921997479304,10.0,0.0,0.00092649260961918457,0.0026614467949998707,1.1033465317488192e-05,1.1510569542528553e-05,1.7473426793561694e-05,1.945910149055313,-0.0039476608124480823,1.2139477646393928,0.0036520416180168742,2
1479224100,0.0,42.331631770396918,-71.109921997479304,10.0,0.0,5.801101709669419e-06,2.7210993481500682e-05,9.9061556627468794e-06,1.162222959179789e-05,1.6573266467992208e-05,1.7917594692280547,-0.0044412437590213216,1.2136925495372684,0.0038634273524722298,2
1479224130,0.0,42.331631770396918,-71.109921997479304,10.0,0.0,5.5184652239958494e-06,2.7210993481500682e-05,9.9061556627468794e-06,1.2093082768279888e-05,1.639073844084014e-05,1.945910149055313,-0.0046815526355850909,1.2141937920591801,0.0040574207505147042,2
1479224160,0.0,42.331631770396918,-71.109921997479304,10.0,0.0,1.226490104893805e-05,4.3362024018013241e-05,1.144387070826409e-05,1.2093082768279888e-05,2.7788488084321446e-05,1.945910149055313,-0.0050818900653994189,1.2143078202331201,0.0041994172546702228,2
1479224190,0.0,42.331631770396918,-71.109921997479304,10.0,0.0,1.2613506033815763e-05,4.3362024018013241e-05,9.7985675242136319e-06,1.4345326941675397e-05,3.5929851819131332e-05,1.7917594692280547,-0.0055740184570411029,1.2140622826549201,0.004346242804925164,2
1479224220,0.0,42.331631770396918,-71.109921997479304,10.0,0.0,8.1523475202706908e-06,3.3376035179043815e-05,9.2274621621634027e-06,1.096685986438173e-05,2.266835294969537e-05,1.945910149055313,-0.0056660339776230528,1.2136553333806399,0.0044841709116327259,2
1479224250,0.0,42.331631770396918,-71.109921997479304,10.0,0.0,4.5923980092025435e-06,2.2287010257481424e-05,9.2274621621634027e-06,1.2211324423343769e-05,1.735916795218001e-05,1.945910149055313,-0.0055549044657539261,1.2135938427455197,0.0044954259731704287,2
1479224280,0.0,42.331631770396918,-71.109921997479304,10.0,0.0,2.3913854943273712e-06,1.5117386732601319e-05,7.3813582220063939e-06,1.1554316548077877e-05,1.3300682179384682e-05,1.7917594692280547,-0.0056996706102209931,1.2138335916630734,0.0045433447132477009,2
1479224310,0.0,42.331631770396918,-71.109921997479304,10.0,0.0,4.8839469659139053e-06,2.320426694991378e-05,7.3813582220063939e-06,9.891903533603002e-06,1.3442711549996922e-05,1.945910149055313,-0.0058156062202759174,1.2135758028427557,0.0045686418597065378,2
1479224340,0.0,42.331631770396918,-71.109921997479304,10.0,0.0,5.3225663806714355e-06,2.320426694991378e-05,4.4417351201155146e-06,9.9065608234889633e-06,1.2658303472792778e-05,1.945910149055313,-0.0057318213627656394,1.2137440373418258,0.0045642370954806213,2
1479224370,0.0,42.331631770396918,-71.109921997479304,10.0,0.0,0.00024328343982379935,0.00067143444928316747,4.4417351201155146e-06,9.4211786495128501e-06,5.414234229745834e-05,1.7917594692280547,-0.0056875381365772667,1.2143330154158034,0.0044361719261483351,2
1479224400,0.0,42.331631770396918,-71.109921997479304,10.0,0.0,0.0002285768846894901,0.00067143444928316747,8.7527340240529673e-06,1.0244641763609332e-05,4.0843129658391156e-05,1.945910149055313,-0.0067500977088491487,1.2140069817048713,0.0044995166356972555,2
1479224430,0.0,42.331631770396918,-71.109921997479304,10.0,0.0,2.1555341697059837e-05,7.3458698313764954e-05,9.7771159904683759e-06,1.1738938029679871e-05,2.3793964693022406e-05,1.945910149055313,-0.0078167055841017706,1.2134429489121972,0.0047273934707391151,2
1479224460,0.0,42.331631770396918,-71.109921997479304,10.0,0.0,2.1937957427870661e-05,7.3458698313764954e-05,1.0626675200299349e-05,1.3673775942240697e-05,3.8062849559483495e-05,1.7917594692280547,-0.0081437462860993546,1.2131314334377468,0.0048030754577419489,2
1479224490,0.0,42.331631770396918,-71.109921997479304,10.0,0.0,2.1394945623489128e-05,7.5697073375880733e-05,1.0626675200299349e-05,1.2921158603462604e-05,3.8565414850875394e-05,1.945910149055313,-0.0082419859006056286,1.2129825235419385,0.0048389507588115681,2
1479224520,0.0,42.331631770396918,-71.109921997479304,10.0,0.0,2.1259006341846479e-05,7.5697073375880733e-05,7.7445498054275131e-06,1.4398774527674649e-05,3.5424481345610944e-05,1.945910149055313,-0.0083283279868545286,1.2132297671764001,0.0048821549086272426,2
1479224550,0.0,42.331631770396918,-71.109921997479304,10.0,0.0,1.4316935676396775e-05,4.8829040269472371e-05,7.7445498054275131e-06,1.2310127376132547e-05,2.9228121409637137e-05,1.7917594692280547,-0.0082879691776984524,1.2134895910973185,0.0048198586890060117,2
1479224580,0.0,42.331631770396918,-71.109921997479304,10.0,0.0,1.3903047399017812e-05,4.8829040269472371e-05,9.5975266701457087e-06,1.0644407141773026e-05,2.458041293125103e-05,1.945910149055313,-0.0083139286089099242,1.2131698366064083,0.004793516815513434,2
1479224610,0.0,42.331631770396918,-71.109921997479304,10.0,0.0,8.5384204471444958e-06,3.333123576032402e-05,5.0078330966850772e-06,9.5342955794012875e-06,1.262500959223408e-05,1.945910149055313,-0.0084934896854332014,1.2131149135420256,0.0048468689211296533,2
1479224640,0.0,42.331631770396918,-71.109921997479304,10.0,0.0,2.4556886376791328e-05,7.6666822680048082e-05,5.0078330966850772e-06,1.0070573418807752e-05,1.6118355334036152e-05,1.7917594692280547,-0.0086604358281767713,1.2132935204016617,0.004785642671067597,2
1479224670,0.0,42.331631770396918,-71.109921997479304,10.0,0.0,2.2129045703141298e-05,7.6666822680048082e-05,4.6270578731248519e-06,1.5169980906193146e-05,1.8164242019246716e-05,1.945910149055313,-0.0086455009612222342,1.213354440787823,0.0049472027591013221,2
1479224700,0.0,42.331631770396918,-71.109921997479304,10.0,0.0,3.2041118216265174e-05,0.00010419624542950401,4.6270578731248519e-06,1.2130571402902469e-05,1.8164242019246716e-05,1.945910149055313,-0.0086815171486706224,1.213403469342093,0.0051377829918975697,2
1479224730,0.0,42.331631770396918,-71.109921997479304,10.0,0.0,3.5174424043661816e-05,0.00010419624542950401,4.716710744560359e-06,1.207331067975472e-05,3.9795920219368886e-05,1.7917594692280547,-0.0087153680194284929,1.2133749882705167,0.0050332565466321795,2
1479224760,0.0,42.331631770396918,-71.109921997479304,10.0,0.0,1.9723814618352575e-05,5.4791694687524462e-05,4.716710744560359e-06,1.2920732000490358e-05,4.8683462428039716e-05,1.945910149055313,-0.0085775809605469506,1.2133299980924341,0.0049417629444058553,2
1479224790,0.0,42.331631770396918,-71.109921997479304,10.0,0.0,1.8054524224218559e-05,5.4791694687524462e-05,3.6956405666042892e-06,1.3561670141410032e-05,3.3080774721531659e-05,1.945910149055313,-0.0085143917088404478,1.2126970896716658,0.0048995917898820695,2
1479224820,0.0,42.331631770396918,-71.109921997479304,10.0,0.0,4.963047407888011e-06,1.7771223273329939e-05,3.6956405666042892e-06,1.0894859242687322e-05,1.7159279290973117e-05,1.7917594692280547,-0.0085796008031947119,1.2113681803374732,0.00483025648192815,2
1479224850,0.0,42.331631770396918,-71.109921997479304,10.0,0.0,3.6979273363541269e-05,0.00011756853150355163,1.7186664580946071e-07,1.1863161346122503e-05,2.3157168288332727e-05,1.945910149055313,-0.008764785336816126,1.2110381942628601,0.0049021121820150048,2
1479224880,0.0,42.331631770396918,-71.109921997479304,10.0,0.0,3.6858951725611093e-05,0.00011756853150355163,1.7186664580946071e-07,1.3710356529904838e-05,2.2933963590363051e-05,1.945910149055313,-0.0077528076458853682,1.2117897914029871,0.0049077944366969226,2
1479224910,0.0,42.331631770396918,-71.109921997479304,10.0,0.0,1.488923867055063e-06,1.714300787435591e-05,1.2183982476422158e-05,1.3692756606789357e-05,1.395309098275681e-05,1.7917594692280547,-0.0052725330031761705,1.2123099599505149,0.00405243453647278,2
1479224940,0.0,42.331631770396918,-71.109921997479304,10.0,0.0,3.3318356716831176e-06,1.6813957943129514e-05,6.6775165251204004e-06,9.9296397268186879e-06,1.3823331018752888e-05,1.945910149055313,-0.0037469227943432285,1.2115410393750972,0.002692110280801996,2
1479224970,0.0,42.331631770396918,-71.109921997479304,10.0,0.0,4.269796158001506e-06,1.6813957943129514e-05,6.4123077812268377e-06,7.17640675116781e-06,1.4832717237315804e-05,1.945910149055313,-0.0033686277904704043,1.2111787107528558,0.0022569204710260128,2
1479225000,0.0,42.331631770396918,-71.109921997479304,10.0,0.0,5.3279754340318248e-06,2.148222708575803e-05,6.4123077812268377e-06,8.6907196232793076e-06,1.6477141079275735e-05,1.7917594692280547,-0.0033933252684808812,1.2106980102951901,0.0020715788889994684,2
1479225030,0.0,42.331631770396918,-71.109921997479304,10.0,0.0,3.9619360214943507e-06,2.148222708575803e-05,9.2906426850415692e-06,1.0495382206514915e-05,1.3622653134912134e-05,1.945910149055313,-0.0032710524589709472,1.2106093929183985,0.0020858710532297457,2
1479225060,0.0,42.331631770396918,-71.109921997479304,10.0,0.0,8.6237958568566422e-07,1.2036852806766484e-05,9.7156608388097208e-06,1.017984869735898e-05,1.1615799284738486e-05,1.945910149055313,-0.0031952978327626433,1.21071419629093,0.0021686967739535214,2
1479225090,0.0,42.331631770396918,-71.109921997479304,10.0,0.0,3.3333639818632306e-06,1.7589352773244682e-05,6.6803586012903778e-06,9.9813611282889698e-06,1.2784267432379784e-05,1.7917594692280547,-0.0032232922642752384,1.210495807107125,0.0021515544328692552,2
1479225120,0.0,42.331631770396918,-71.109921997479304,10.0,0.0,3.4923308058917307e-06,1.7589352773244682e-05,6.6803586012903778e-06,9.6508461888652114e-06,1.4322221273920373e-05,1.945910149055313,-0.0032277778911185009,1.2104670453376301,0.0021140108540879314,2
1479225150,0.0,42.331631770396918,-71.109921997479304,10.0,0.0,2.9588491705532402e-06,1.5611036906923193e-05,7.5708916083759935e-06,9.6508461888652114e-06,1.4788932313635427e-05,1.945910149055313,-0.0032260101532077118,1.2103930433921215,0.002103894219691317,2
1479225180,0.0,42.331631770396918,-71.109921997479304,10.0,0.0,2.8935011304266526e-06,1.5593753598007278e-05,7.5708916083759935e-06,8.8221021294843972e-06,1.3545997216169311e-05,1.7917594692280547,-0.0032667953702046897,1.2102732081547318,0.0021602834163100882,2
1479225210,0.0,42.331631770396918,-71.109921997479304,10.0,0.0,7.1560565460399e-06,3.086154313394891e-05,8.2996224524747643e-06,9.9585706849299479e-06,1.3722776015316703e-05,1.945910149055313,-0.0032231058990611558,1.2103557100354971,0.0021130472257245058,2
1479225240,0.0,42.331631770396918,-71.109921997479304,10.0,0.0,6.834793006546313e-06,3.086154313394891e-05,9.5276002093465985e-06,1.0771652661288006e-05,1.4864779614903954e-05,1.945910149055313,-0.0032202957087330703,1.2102942683734828,0.0021063529295515327,2
1479225270,0.0,42.331631770396918,-71.109921997479304,10.0,0.0,2.3511395043653109e-06,1.4515662976061022e-05,8.4402666012996444e-06,9.6138513484750589e-06,1.3734618558674178e-05,1.7917594692280547,-0.0032266345435522804,1.2103519896106334,0.0020699213860646886,2
1479225300,0.0,42.331631770396918,-71.109921997479304,10.0,0.0,3.1530034058869889e-06,1.5092998500235048e-05,6.1731385283967937e-06,7.8547641449503694e-06,1.197595485923116e-05,1.945910149055313,-0.0031822544296748146,1.2107662158908472,0.0020896449893469601,2
1479225330,0.0,42.331631770396918,-71.109921997479304,10.0,0.0,2.1642577873537325e-05,7.191029784912253e-05,6.1731385283967937e-06,7.8547641449503694e-06,1.6633502996643019e-05,1.945910149055313,-0.0031881092716425316,1.2107980289915585,0.0020626926020422742,2
1479225360,0.0,42.331631770396918,-71.109921997479304,10.0,0.0,2.1851663078686499e-05,7.191029784912253e-05,7.5518481651161413e-06,1.2454351630125536e-05,1.8346505699514382e-05,1.7917594692280547,-0.0055952472086950381,1.2093671503379884,0.00263180383883193,2
1479225390,0.0,42.331631770396918,-71.109921997479304,10.0,0.0,4.1086963318398591e-06,1.8691573737703781e-05,7.5518481651161413e-06,1.0717226541677537e-05,1.7216426686956756e-05,1.945910149055313,-0.0083574961793419916,1.2080626395998115,0.0034071372940108141,2
1479225420,0.0,42.331631770396918,-71.109921997479304,10.0,0.0,3.1836983059097636e-06,1.8691573737703781e-05,8.6560355860129062e-06,1.1355017114283764e-05,1.5230974973863449e-05,1.945910149055313,-0.0089616351069263002,1.2083312594744144,0.0036259827873327513,2
1479225450,0.0,42.331631770396918,-71.109921997479304,10.0,0.0,1.3271531333400538e-05,4.675162729696915e-05,8.0474358526449125e-06,1.0539977040744715e-05,1.4117183410637132e-05,1.7917594692280547,-0.0094061437775057131,1.1850648032939533,0.0062961769001389639,2
1479225480,0.0,42.331631770396918,-71.109921997479304,10.0,0.0,1.2792650060665786e-05,4.675162729696915e-05,8.0474358526449125e-06,9.2169675742771199e-06,1.4792832150310695e-05,1.945910149055313,-0.01689862950140833,1.1608859983777129,0.0089179936606717507,2
1479225510,0.0,42.331631770396918,-71.109921997479304,10.0,0.0,3.7591096824943432e-06,1.9082529607420281e-05,8.7945950731499213e-06,9.990572945151237e-06,1.5838013907415272e-05,1.945910149055313,-0.022570093818779242,1.1604013107235756,0.008968726698906266,2
1479225540,0.0,42.331631770396918,-71.109921997479304,10.0,0.0,3.5761815752802391e-06,1.9082529607420281e-05,7.7773466468677082e-06,1.0552328150195461e-05,1.4244998809758234e-05,1.7917594692280547,-0.022627989681867036,1.1602780130820969,0.0088787221633327921,2
1479225570,0.0,42.331631770396918,-71.109921997479304,10.0,0.0,6.0285933769747052e-06,2.7720899058768682e-05,7.7773466468677082e-06,1.0817473755212537e-05,1.3050635544641357e-05,1.945910149055313,-0.02270693951637353,1.1600434701592257,0.0088545907929899834,2
1479225600,0.0,42.331631770396918,-71.109921997479304,10.0,0.0,5.4795515584202764e-06,2.7720899058768682e-05,1.0451052354337705e-05,1.1816516599014485e-05,1.4242537224006139e-05,1.945910149055313,-0.022793395028042927,1.1596982239828715,0.0088749587868211348,2
1479225630,0.0,42.331631770396918,-71.109921997479304,10.0,0.0,3.732017684500703e-06,1.7543267500850641e-05,5.8318302459228205e-06,1.03859465069653e-05,1.4496368858442542e-05,1.7917594692280547,-0.022859498489523917,1.1597354848240502,0.0089819666361160982,2
1479225660,0.0,42.331631770396918,-71.109921997479304,10.0,0.0,4.0095795245944811e-06,1.7543267500850641e-05,5.3466910541488668e-06,7.8287517969731794e-06,1.3178511941824678e-05,1.945910149055313,-0.022733838374946674,1.1600346188642343,0.008828463227236627,2
1479225690,0.0,42.331631770396918,-71.109921997479304,10.0,0.0,3.7875189455473071e-06,1.3637187587064888e-05,3.5422581007049961e-06,8.244888277682757e-06,1.3178511941824678e-05,1.945910149055313,-0.02259651325987613,1.1597623367753271,0.0086552747791479642,2
1479225720,0.0,42.331631770396918,-71.109921997479304,10.0,0.0,4.2867515841422642e-06,1.4383392032812613e-05,3.5422581007049961e-06,5.4813774693498153e-06,1.3113599167118184e-05,1.7917594692280547,-0.022705598056051619,1.1594981315092217,0.0086692008499524974,2
1479225750,0.0,42.331631770396918,-71.109921997479304,10.0,0.0,3.4569570652289836e-06,1.4383392032812613e-05,5.3877216936660507e-06,5.8652725623647372e-06,1.1549530293477574e-05,1.945910149055313,-0.024835394775337076,1.1591342903355757,0.0090916049726401538,2
1479225780,0.0,42.331631770396918,-71.109921997479304,10.0,0.0,4.970626998306616e-06,1.8691978088807061e-05,5.9682003283283644e-06,7.1481182136241838e-06,1.5468915642518189e-05,1.945910149055313,-0.030981621717295852,1.1591973405398888,0.010023403943547634,2
1479225810,0.0,42.331631770396918,-71.109921997479304,10.0,0.0,4.3319568932690435e-06,1.8691978088807061e-05,8.1508942831701756e-06,9.1398768437876402e-06,1.6744319067319787e-05,1.7917594692280547,-0.037037345482478425,1.1600367698131866,0.011081848430863036,2
1479225840,0.0,42.331631770396918,-71.109921997479304,10.0,0.0,2.7655817711606745e-05,8.7979485591867991e-05,5.297145666957187e-06,7.1645121670919873e-06,1.3118267879070887e-05,1.945910149055313,-0.036987429033571002,1.1604557930026356,0.01142899403558313,2
1479225870,0.0,42.331631770396918,-71.109921997479304,10.0,0.0,2.7549092395957394e-05,8.7979485591867991e-05,5.297145666957187e-06,7.2615055247677379e-06,2.1002727005204369e-05,1.945910149055313,-0.037179562243129072,1.1606358421131087,0.011493353776424856,2
1479225900,0.0,42.331631770396918,-71.109921997479304,10.0,0.0,9.8507698818274352e-06,3.2188490858565624e-05,6.762017847169935e-06,8.8777287532213087e-06,2.3601267729677234e-05,1.7917594692280547,-0.038285992058985134,1.1642057615480967,0.011504598836989918,2
1479225930,0.0,42.331631770396918,-71.109921997479304,10.0,0.0,8.5091146832637055e-06,3.2188490858565624e-05,6.762017847169935e-06,9.9824334917683148e-06,2.0230777057816195e-05,1.945910149055313,-0.040067771177813113,1.169605363006037,0.011217713868713957,2
1479225960,0.0,42.331631770396918,-71.109921997479304,10.0,0.0,5.7517305649222552e-06,2.4450788476776503e-05,6.778408802771961e-06,8.2868500169213094e-06,1.5596262794738927e-05,1.945910149055313,-0.040778525676438582,1.171140532093693,0.010616063234062301,2
1479225990,0.0,42.331631770396918,-71.109921997479304,10.0,0.0,2.1943074881442145e-06,1.3689131312181144e-05,6.778408802771961e-06,9.4157743586899025e-06,1.1776581574503706e-05,1.7917594692280547,-0.040744155030352898,1.1719830008183598,0.01006117746220451,2
1479226020,0.0,42.331631770396918,-71.109921997479304,10.0,0.0,2.47337172490905e-06,1.4290245351638766e-05,6.5558814581984798e-06,9.4815282368726541e-06,1.238781448207042e-05,1.945910149055313,-0.040696261474357467,1.1723991760412129,0.0098923437032066054,2
1479226050,0.0,42.331631770396918,-71.109921997479304,10.0,0.0,3.1016640835232052e-06,1.4290245351638766e-05,4.6653517244634634e-06,7.6784762891159538e-06,1.138531544439339e-05,1.945910149055313,-0.040738392132433646,1.1718670779687186,0.0098623064300370645,2
1479226080,0.0,42.331631770396918,-71.109921997479304,10.0,0.0,2.6172662247941775e-06,1.2927702627428106e-05,4.6653517244634634e-06,7.2220291230849323e-06,1.008724436969642e-05,1.7917594692280547,-0.040716204685140735,1.1711288430661766,0.0098882870141754012,2
1479226110,0.0,42.331631770396918,-71.109921997479304,10.0,0.0,3.1105465815404443e-06,1.3231638897698839e-05,3.1590125333375746e-06,5.9072577680292128e-06,9.4934330802226546e-06,1.945910149055313,-0.037437727136105999,1.1705508105990887,0.0078153463843095346,2
1479226140,0.0,42.331631770396918,-71.109921997479304,10.0,0.0,5.5084606427697412e-06,1.7594400650497457e-05,3.1590125333375746e-06,5.9072577680292128e-06,1.5995649209474582e-05,1.945910149055313,-0.035302601511526414,1.1694845201192201,0.0061656488809231089,2
1479226170,0.0,42.331631770396918,-71.109921997479304,10.0,0.0,3.1205747623308083e-06,2.4634636696477481e-05,1.5989252550380798e-05,1.6400134564050639e-05,2.1017310298455186e-05,1.7917594692280547,-0.0357153000614681,1.1666575354483901,0.0060187456470065211,2
1479226200,0.0,42.331631770396918,-71.109921997479304,10.0,0.0,7.2732623987599729e-06,2.4634636696477481e-05,4.8854151163500559e-06,7.5419162182766604e-06,2.04309101859579e-05,1.945910149055313,-0.035585845878214159,1.1651992443666557,0.0060674757254347697,2
1479226230,0.0,42.331631770396918,-71.109921997479304,10.0,0.0,4.4908861152851335e-06,1.6402411152228728e-05,4.3033525505406198e-06,5.3704749862946025e-06,1.155363274675322e-05,1.945910149055313,-0.035476003301577956,1.1663779773279142,0.0061094208968066749,2
1479226260,2.328185326960808,42.331630449548676,-71.109920930183634,10.440230637636176,0.038803088782680135,0.061389285969328328,0.16682882118261536,4.3033525505406198e-06,8.0580345468162996e-06,0.0079261679852456,1.6581101035673729,0.31173679115666009,1.4181443985317985,-0.48261720090273208,2
1479226290,5.548765326506421,42.33163774809087,-71.109909266765357,25.163309398581493,0.09247942210844036,0.057058465595371949,0.16682882118261536,0.00067625433490674973,0.0019208018760805789,0.0370154074776987,1.8640435797520258,-0.66851621628618829,1.5283628064839001,-1.1844643995137238,2
1479226320,3.0339265854639077,42.33162874083294,-71.109908097551795,48.41163419776926,0.05056544309106513,0.021765609735615993,0.063687223252557434,8.4171093416802134e-06,0.00027782840591428459,0.0061343361704516031,1.8056165767134953,-1.4398697583917002,0.67916899515059714,-1.3774619000102615,2
1479226350,6.0735786116282195,42.331622976877533,-71.109895832033473,44.83555369692219,0.10122631019380365,0.0004042108971948146,0.0011164997490245526,6.809099870436268e-06,8.5025203396891635e-06,0.00047742314152010871,1.7917594692280547,-1.1291015490073446,-0.27025768179698467,-1.4001170930565452,2
1479226380,5.235720168371414,42.331653987329794,-71.109864918115676,33.041508102837504,0.08726200280619024,0.029523284276130577,0.084765796676409863,6.6677240634236684e-06,1.6383542621233684e-05,0.0010616961050741503,1.8675843750169279,-0.84879169955408629,-1.0471631903459986,-1.3557783553157716,2
1479226410,0.0,42.331673135089105,-71.109855696625218,33.455686352145129,0.0,0.029601419551868235,0.084765796676409863,2.5182511873099884e-06,1.0129266408237903e-05,0.00051642522324788962,1.8675843750169276,-0.87522799350317304,-0.69800076395306776,-1.34202845612968,2
1479226440,11.43336940369282,42.331670332739471,-71.109877798306883,26.223027843312348,0.19055615672821366,9.9612193274107555e-05,0.00024136438418384784,2.5182511873099884e-06,1.3851494112370089e-05,0.00016022442917333789,1.7917594692280547,-1.3954894593532476,0.38751878643887666,-1.39413448836359,2
1479226470,17.417684445258775,42.331629114032111,-71.109934577318953,14.881657747606283,0.29029474075431294,0.07636023053444066,0.22107762892746396,4.0678026633892627e-06,4.7259015831778667e-05,0.012505316488791924,1.8056165767134955,-1.0473497238262361,0.21529288044873399,-1.3828092415651656,2
1479226500,18.169523901117405,42.331566516582228,-71.109972886807384,10.674260941038881,0.30282539835195676,0.18710662153291113,0.50452155313245883,4.0678026633892627e-06,0.012419818273746755,0.30983437176181239,1.8891591637540217,-0.78110904178342633,-0.62344554452352063,-1.2590645689364288,2
1479226530,41.03773780387686,42.331596598534226,-71.10982605821556,10.454454527339042,0.683962296731281,1.0615582077500203,3.2538086684367129,0.14080858556176412,0.42507372423023537,0.56104722019188058,1.791759469228055,-0.32782441341897028,-1.1218253046547846,-1.2515281570049883,2
1479226560,16.710528562522708,42.331798000999108,-71.10970515624723,10.0,0.2785088093753785,1.0288635932491104,3.2538086684367129,0.071040495868792047,0.26633103410738457,0.55601775020354904,1.9459101490553139,0.47335561745924898,0.97476760840261945,-1.1598180123967659,2
1479226590,53.74512522233266,42.33196956458719,-71.109808201967837,10.0,0.8957520870388777,0.14675403712436594,0.37965288719509049,0.00071845058403220761,0.0049396020970688299,0.26633103410738457,1.8891591637540215,0.32853559106515318,1.5755957225559125,-0.49308079159285551,2
1479226620,19.450136270135776,42.332023366626665,-71.109961139570089,10.0,0.32416893783559625,0.0021622262588764573,0.0050154622972993657,1.6905026772190999e-06,0.00019341477302644628,0.0038699112200459343,1.7105600837579242,-0.051619799858727854,1.6929133850994864,0.22621054559128917,2
1479226650,67.65737380999327,42.332113030022249,-71.109908397472637,10.0,1.1276228968332211,0.010445900334232296,0.025520694429600584,1.6905026772190999e-06,0.00045341101284669005,0.018247286165528311,1.7770332013812695,-0.11960974638433866,0.93900041122704514,0.23176327128744903,2
1479226680,322.20359801851885,42.332707245508089,-71.108920874210654,10.0,5.370059966975314,0.0093434603334057922,0.025520694429600584,0.0011342463529278131,0.0019878052058869573,0.018247286165528311,1.8640435797520256,-0.12591002082175043,-1.0708082567813193,0.22939195162005044,2
1479226710,369.7931311838731,42.333301181822662,-71.107259452305428,10.0,6.163218853064551,0.0039244749545030424,0.011154105797280548,3.7049766713802046e-06,0.00028874683727969484,0.0045821656049023704,1.7480673485460896,-0.10951796659908536,-2.0213066277054668,0.22009007871970865,2
1479226740,169.7655547758769,42.333484007550716,-71.106167912083777,10.0,2.8294259129312818,0.0022604797258995815,0.005251965726480911,3.7049766713802046e-06,5.9143067848115112e-06,0.0040760195409138287,1.8675843750169276,-0.11193262724054083,-1.7322158610193554,0.19005978330822501,2
1479226770,106.03659402052226,42.333732371723592,-71.105658299355852,10.0,1.7672765670087043,0.0018487799849530419,0.0048840539274369729,4.914948172634243e-06,1.9387053711047379e-05,0.0028772945903956793,1.945910149055313,-0.082481676794466732,-1.7180302350681658,0.15301134365430527,2
1479226800,21.994342739438903,42.333898400461607,-71.105383607625129,10.0,0.3665723789906484,0.0016618326201734621,0.0044968688398339248,6.2409491172159401e-06,1.3759721779024578e-05,0.0022760751241316709,1.7917594692280547,-0.020260549690462478,-1.7705622887059818,0.13203040257561785,2
1479226830,4.974983091743384,42.333947810383826,-71.105343727926808,10.0,0.08291638486238974,0.0015009306416294034,0.0044968688398339248,7.5019096037398302e-06,6.6712202289398537e-05,0.0016596133446235455,1.945910149055313,-0.023946224578163543,-1.7558811706104085,0.16658828283594826,2
1479226860,169.76399590491707,42.334070655556722,-71.105076596672745,10.0,2.829399931748618,0.0032799763958970317,0.0098071072060754386,2.2751928713030771e-05,6.6712202289398537e-05,0.0014217296473964689,1.8675843750169276,-0.050231094553988616,-1.7500167076716457,0.17494497125180636,2
1479226890,468.00568788552033,42.334653612731344,-71.103524688697519,10.0,7.8000947980920055,0.0032412830056943601,0.0098071072060754386,2.2751928713030771e-05,0.0016458965676803259,0.0057229580771642613,1.7480673485460896,-0.062244672851428297,-1.7721500615885384,0.15691784811898699,2
1479226920,424.39036010347036,42.335386482339679,-71.101469211346568,10.0,7.073172668391172,0.0043729906657895981,0.014397527166413111,0.00011999833415647727,0.0020593739017157916,0.0054199238135189502,1.8842428460867393,-0.068361171286574526,-1.7494880378324915,0.15985843934854829,2
1479226950,297.419546677573,42.335943280991494,-71.099946440263736,10.333333333333334,4.956992444626217,0.0046822328895575714,0.014397527166413111,0.00011999833415647727,0.00075871130729164777,0.0027852526076088289,1.8675843750169276,-0.072074489325659227,-1.719444593601716,0.16687011919933176,2
1479226980,174.44013045948958,42.336415312059543,-71.098800448301347,12.0,2.9073355076581597,0.00067035195481101087,0.0019008604780388614,5.8369920712289338e-05,7.167999301859803e-05,0.00087746457629345707,1.7917594692280547,-0.031582145954025066,-1.7506259003322782,0.17636016855424272,2
1479227010,31.070257509126645,42.336629299040546,-71.098367579600819,11.666666666666666,0.5178376251521107,0.015161216325667646,0.044096134301335778,5.8369920712289338e-05,7.6850030238111654e-05,0.002366564466678231,1.8675843750169276,-0.050590963238597811,-1.6146246902185588,0.19669535477507474,2
1479227040,163.37367954354193,42.337353397976706,-71.097987833888581,10.0,2.722894659059032,0.015153398859333136,0.044096134301335778,0.00039295710454610798,0.002366564466678231,0.019483369066203543,1.8640435797520256,-0.12301205100640622,-1.4456372165976674,0.19614649589510952,2
1479227070,602.2646953262303,42.33903844619612,-71.096482434998805,10.0,10.037744922103837,0.0091400854635188891,0.027877622766967189,0.00042159461209726547,0.0027150261688023173,0.010173232203906049,1.7347645210257749,-0.18893053910697744,-1.6712691937807385,0.18651500812796107,2
1479227100,692.3392064632203,42.341191999544641,-71.093505364573062,10.0,11.538986774387006,0.0018267700837034918,0.0054257312885665279,0.00042159461209726547,0.0022469471694188097,0.0052732427228729811,1.9361470098309517,-0.16281732075823316,-1.8441498315595359,0.17515217078369899,2
1479227130,307.02721044428256,42.343183001603492,-71.091215132489552,10.0,5.117120174071376,0.0016460618370649988,0.0053789259456680436,0.00037554918592540932,0.0022099882303342447,0.0040488042058110553,1.8842428460867393,-0.15874284210784717,-1.2631085964255402,0.17695596924208473,2
