TIMESTAMP,DISTANCE,AVG_LAT,AVG_LNG,GPS_ACCURACY,AVG_SPEED_BY_GPS,ACCLERATOR_STD,MAX_ACCLERATOR,MIN_ACCLERATOR,PERCENTILE_25_ACCLERATOR,PERCENTILE_75_ACCLERATOR,ACCLERATOR_ENTROPY,AVG_ROLL,AVG_YAW,AVG_PITCH,WEEK_DAY
1479569880,83.20577665868815,42.331730669034108,-71.109382378212558,51.111111111111114,1.3867629443114693,0.030255641080742624,0.06057291491453419,6.1632753048944581e-05,0.015189453293420255,0.045445094374162873,0.69314718055994529,0.11681022721297765,-0.2776268337041865,0.3506909628822481,6
1479569910,78.80628196580284,42.331760005263128,-71.109205391659003,34.871794871794869,1.3134380327633806,0.024210210007329914,0.06057291491453419,3.4530960465893169e-05,3.8483383256293249e-05,6.1632753048944581e-05,1.5284657100610246,0.040002801160372477,-0.39190199944263537,0.14136204541578801,6
1479569940,4.497110715001745,42.331763550678595,-71.109158116924647,30.0,0.07495184525002908,7.1066701364804279e-06,5.4933323919938009e-05,3.4180973176571075e-05,3.515645103379526e-05,4.138469709121343e-05,1.7917594692280547,-0.0111666312384012,-0.46808105815544732,0.001824897325767175,6
1479569970,3.059389275516286,42.331741632001787,-71.109173527053642,30.0,0.05098982125860477,4.3859247763725936e-06,4.3944658778860034e-05,3.0962965752781876e-05,3.5606947957036298e-05,4.18958373601677e-05,1.945910149055313,-0.011184431395970326,-0.46822448724645344,0.0018706966451262112,6
1479570000,8.891307851383107,42.331713642731621,-71.109200522369804,30.0,0.14818846418971846,6.6677475716457479e-06,4.6517507099347521e-05,2.6502301306686752e-05,3.3549234757335479e-05,4.2692265898170971e-05,1.945910149055313,-0.011258545474997671,-0.46747113768465576,0.001855079282002934,6
1479570030,44.602796928680505,42.331680402897625,-71.109265190149728,25.666666666666668,0.7433799488113417,0.044246902912838483,0.11876146391236098,2.0961245294787051e-05,2.8910601920487336e-05,4.5567738682708947e-05,1.710560083757924,-0.012102083575610614,-0.57927103817658476,0.023168245336194031,6
1479570060,41.2355685307664,42.331602989735394,-71.109460566724749,15.666666666666666,0.6872594755127733,0.041539578518793904,0.11876146391236098,2.0961245294787051e-05,3.2934575221227875e-05,9.2024841547215416e-05,1.8675843750169276,-0.0088714649534997227,-0.9548681199986403,0.052441235375789055,6
1479570090,7.905811382235842,42.331547383491248,-71.109628820858063,10.0,0.13176352303726405,3.2527922964682752e-05,0.00012615626640106298,2.6184975112477585e-05,3.2934575221227875e-05,4.7209315405219237e-05,1.945910149055313,-0.0048054306538592856,-1.1475708945533185,0.050016172690013065,6
1479570120,7.905811382235842,42.331547194898455,-71.10966436012751,10.0,0.13176352303726405,7.2416461617524544e-06,4.737684507150291e-05,2.6184975112477585e-05,2.7562402152979149e-05,3.6244970468039846e-05,1.7917594692280547,-0.0022116221848935001,-1.1387083208757052,0.037050726609712953,6
1479570150,5.2020505288214585,42.331547542747444,-71.109682094837638,10.0,0.08670084214702431,6.7325432899379731e-06,4.737684507150291e-05,2.6203407364382067e-05,2.7379827097974491e-05,3.2625647650550845e-05,1.945910149055313,-0.0038891286995552422,-1.0835353736645212,0.041313670352970844,6
1479570180,4.284616267822305,42.331562135640844,-71.109702602560759,10.0,0.07141027113037175,4.4211431029786311e-06,3.3611908782331303e-05,2.0547006042065836e-05,2.4457959119026154e-05,3.0700000592122414e-05,1.945910149055313,-0.0076017680898259983,-0.93947202025358278,0.044795020059389935,6
1479570210,2.0863451886073974,42.33158806715376,-71.109717534921273,10.0,0.03477241981012329,6.8043375469312744e-06,4.0997486872271368e-05,2.0547006042065836e-05,2.3740781200357329e-05,3.1924973635566432e-05,1.7917594692280547,-0.0096222023226148114,-0.79991456532620908,0.043250198743171341,6
1479570240,0.0,42.331599835345813,-71.109714293918714,10.0,0.0,7.5795933346740671e-06,4.9915250862048805e-05,2.7363738624142991e-05,2.9220914096348156e-05,3.668503601556292e-05,1.945910149055313,-0.009583188932609496,-0.80045854974638375,0.043121077471772469,6
1479570270,0.0,42.331599835345813,-71.109714293918714,10.0,0.0,7.4739119785843619e-06,4.9915250862048805e-05,2.6576679787831729e-05,2.8435517843359012e-05,3.3694493320882618e-05,1.945910149055313,-0.0095857450844708588,-0.80061851982721743,0.043065521645776185,6
1479570300,0.0,42.331599835345813,-71.109714293918714,10.0,0.0,3.2600004043410979e-06,3.6231832400281854e-05,2.6576679787831729e-05,2.9840475934716394e-05,3.3883206796295332e-05,1.7917594692280547,-0.0095795653984958474,-0.80061237542824981,0.043030697953089857,6
1479570330,0.0,42.331599835345813,-71.109714293918714,10.0,0.0,7.6066137305543007e-06,5.2066592668674384e-05,2.8806275788045336e-05,2.9575774229626706e-05,3.4125015562733823e-05,1.945910149055313,-0.009558274072381542,-0.80097510618722478,0.043115903305558922,6
1479570360,0.0,42.331599835345813,-71.109714293918714,10.0,0.0,8.0897546016607357e-06,5.2066592668674384e-05,2.8010763742821483e-05,2.8471445182614933e-05,3.1424530222636728e-05,1.945910149055313,-0.0095532426441220508,-0.80133709364463634,0.043141510989983381,6
1479570390,0.0,42.331599835345813,-71.109714293918714,10.0,0.0,3.1742987856071515e-06,3.5985365605088198e-05,2.8010763742821483e-05,2.8207193681972678e-05,3.2633186249204709e-05,1.7917594692280547,-0.0095521763155055773,-0.80138198312870568,0.043114273782014219,6
1479570420,0.0,42.331599835345813,-71.109714293918714,10.0,0.0,3.9124892416693361e-06,3.975938041453687e-05,2.8133730189810942e-05,3.1157365930514771e-05,3.5774956848984892e-05,1.945910149055313,-0.0095826668126517446,-0.80235785200345522,0.043046753885925847,6
1479570450,0.0,42.331599835345813,-71.109714293918714,10.0,0.0,4.0977029105435609e-06,3.975938041453687e-05,2.7429141471624567e-05,2.9895966762348345e-05,3.5508537988560777e-05,1.945910149055313,-0.0096146708814389137,-0.8033599929539319,0.042987407251746483,6
1479570480,0.0,42.331599835345813,-71.109714293918714,10.0,0.0,3.2529437583980372e-06,3.4788064456826371e-05,2.558563277839978e-05,2.7971729807104547e-05,3.3088059255438859e-05,1.7917594692280547,-0.0096160033054807446,-0.80354564011673757,0.042999363504460049,6
1479570510,0.0,42.331599835345813,-71.109714293918714,10.0,0.0,4.6802437270631738e-06,3.4063487781951924e-05,2.1054130263443094e-05,2.7592563795972137e-05,3.3675359921204364e-05,1.945910149055313,-0.0095909194892667918,-0.80297228955600242,0.042978415717055553,6
1479570540,0.0,42.331599835345813,-71.109714293918714,10.0,0.0,5.2908484777958813e-06,3.4063487781951924e-05,2.1054130263443094e-05,2.3543224716656468e-05,3.3490438302755384e-05,1.945910149055313,-0.0098458677554624612,-0.80181447364628389,0.043270660471115344,6
1479570570,0.0,42.331599835345813,-71.109714293918714,10.0,0.0,2.8551756945405615e-06,3.0909041948346908e-05,2.1382804310998479e-05,2.5980302858412243e-05,2.7781119193780822e-05,1.7917594692280547,-0.010163696126637601,-0.80008534179965551,0.043676762804315934,6
1479570600,3.918051409730337,42.331600417189591,-71.109716246902153,10.0,0.06530085682883895,3.333112814868548e-06,3.0909041948346908e-05,2.1567184697486663e-05,2.4936819673822655e-05,2.9166680122134418e-05,1.945910149055313,-0.012006051211873101,-0.80551568832294806,0.044318282103979645,6
1479570630,3.918051409730337,42.331606054019488,-71.109733765079739,10.0,0.06530085682883895,2.0316737049629544e-05,8.5083026509791932e-05,2.1567184697486663e-05,2.5093532013409653e-05,3.7648059545010134e-05,1.945910149055313,-0.016892866441440987,-0.8230522934745873,0.044658922953957125,6
1479570660,0.0,42.331611109005607,-71.1097493302739,10.0,0.0,2.2030810411976961e-05,8.5083026509791932e-05,2.140980066360517e-05,2.2566149009293721e-05,3.7704501706796486e-05,1.7917594692280547,-0.020812895122163132,-0.84090248395040934,0.042911443043322429,6
1479570690,0.0,42.331611109005607,-71.1097493302739,10.0,0.0,5.8563951573025505e-06,3.7339224003056721e-05,2.140980066360517e-05,2.2706502248667585e-05,3.0284743401997055e-05,1.945910149055313,-0.022261082589976687,-0.84200584162090863,0.043793447891213713,6
1479570720,0.0,42.331611109005607,-71.1097493302739,10.0,0.0,5.4377341708084881e-05,0.00018858209798608855,2.3960949233895159e-05,3.0080603275445393e-05,4.2989004530120634e-05,1.945910149055313,-0.022196412273873457,-0.83875525491134817,0.043484322745659325,6
1479570750,6.6620134921562535,42.331608983494668,-71.10976628686403,10.0,0.11103355820260423,5.8101184898521669e-05,0.00018858209798608855,2.284431524319114e-05,3.0359138513233495e-05,4.4709323185110416e-05,1.7917594692280547,-0.014249093514552768,-0.82655963518095543,0.033636202243651082,6
1479570780,6.6620134921562535,42.331605232593013,-71.109796210258395,10.0,0.11103355820260423,0.0001046809458922448,0.0003297931935600882,2.284431524319114e-05,2.7621216611361347e-05,3.9868548170879286e-05,1.945910149055313,-0.0077930317121685036,-0.81893044352700639,0.025788649721504787,6
1479570810,0.0,42.331603607202297,-71.109809177062616,10.0,0.0,0.00010439412107904183,0.0003297931935600882,2.5042259216149801e-05,2.8968992094482796e-05,3.9868548170879286e-05,1.945910149055313,-0.0070055813386207411,-0.81856828477143984,0.024930708571372785,6
1479570840,0.0,42.331603607202297,-71.109809177062616,10.0,0.0,6.1573335887139571e-06,3.0132417882944003e-05,1.4319103782030659e-05,1.8899868396309603e-05,2.9441179926749709e-05,1.7917594692280547,-0.0064435077053292831,-0.81873762147994622,0.024637825047362949,6
1479570870,0.0,42.331603607202297,-71.109809177062616,10.0,0.0,7.0866377409947921e-06,3.4919478896299192e-05,1.4319103782030659e-05,1.9208041681484141e-05,3.0888813913787909e-05,1.945910149055313,-0.0060793560282388515,-0.81869671834927349,0.024647965934060156,6
1479570900,0.0,42.331603607202297,-71.109809177062616,10.0,0.0,5.5581303074580527e-06,3.4919478896299192e-05,1.7970126827201687e-05,2.4778089163821853e-05,3.2427960156686708e-05,1.945910149055313,-0.0059533082978312692,-0.81850923076277848,0.024610622248739285,6
1479570930,0.0,42.331603607202297,-71.109809177062616,10.0,0.0,8.6708094779800972e-06,4.5045393672049989e-05,1.7970126827201687e-05,2.5811956175106019e-05,3.5329902892992996e-05,1.7917594692280547,-0.0058810517543382247,-0.81830664664896646,0.024495701173794664,6
1479570960,0.0,42.331603607202297,-71.109809177062616,10.0,0.0,6.3587255114721672e-06,4.5045393672049989e-05,2.5831339255834844e-05,2.6608123463266242e-05,3.4086567104559871e-05,1.945910149055313,-0.005835237673650023,-0.81841322110312376,0.024440980574559117,6
1479570990,0.0,42.331603607202297,-71.109809177062616,10.0,0.0,3.4857643363333227e-06,3.1762047161056708e-05,2.0691716335989656e-05,2.6029091989968327e-05,3.0313389240409536e-05,1.945910149055313,-0.005799031299265513,-0.81886291862926996,0.024430848354771301,6
1479571020,0.0,42.331603607202297,-71.109809177062616,10.0,0.0,5.5788038177784932e-06,3.8264679513733413e-05,2.0691716335989656e-05,2.7715839700034967e-05,3.3656099561285063e-05,1.7917594692280547,-0.0057743305309339932,-0.81923231732203394,0.024419973411256953,6
1479571050,0.0,42.331603607202297,-71.109809177062616,10.0,0.0,6.5267767576394135e-06,3.8730191771744349e-05,2.3052273423607827e-05,2.5161296421934499e-05,3.7731237254279531e-05,1.945910149055313,-0.0057288207072678588,-0.81935081694769363,0.024423559678082414,6
1479571080,0.0,42.331603607202297,-71.109809177062616,10.0,0.0,6.8068966201840188e-06,3.8730191771744349e-05,2.0193897474016627e-05,2.3233697762467657e-05,3.5221595205875167e-05,1.945910149055313,-0.0057303825053380067,-0.81952209017168387,0.024392758305916102,6
1479571110,0.0,42.331603607202297,-71.109809177062616,10.0,0.0,7.4899809901810628e-06,3.3245395416924678e-05,1.2483239053930421e-05,2.2218515416946952e-05,3.1791441252163342e-05,1.7917594692280547,-0.005778719574016003,-0.81960067734618158,0.024412788871294635,6
1479571140,0.0,42.331603607202297,-71.109809177062616,10.0,0.0,6.2031755365251862e-06,3.1996294313835588e-05,1.2483239053930421e-05,2.1201411894781719e-05,2.8282452972233817e-05,1.945910149055313,-0.0057182721337273026,-0.81920540806584541,0.024444362094517509,6
1479571170,0.0,42.331603607202297,-71.109809177062616,10.0,0.0,8.1777890436615294e-06,4.6081746764887532e-05,2.0250275573657343e-05,2.2281420762510539e-05,2.7234680769924364e-05,1.945910149055313,-0.0056739597632804572,-0.81909781446169938,0.024377242997293012,6
1479571200,0.0,42.331603607202297,-71.109809177062616,10.0,0.0,8.5276614369736872e-06,4.6081746764887532e-05,2.0172489196304995e-05,2.5530309388584191e-05,3.5725057154885392e-05,1.7917594692280547,-0.0056463375116179325,-0.81936698626073079,0.024287437421766988,6
1479571230,0.0,42.331603607202297,-71.109809177062616,10.0,0.0,5.2005543562909497e-06,3.7580993552263312e-05,2.0172489196304995e-05,2.432007123897134e-05,2.9537794294298952e-05,1.945910149055313,-0.0056517828045564069,-0.81961486686548857,0.024238126417053012,6
1479571260,0.0,42.331603607202297,-71.109809177062616,10.0,0.0,3.7542223012804889e-06,3.0012044873779971e-05,1.9692871331664505e-05,2.1580862096350246e-05,2.7777462873044318e-05,1.945910149055313,-0.005659296887726417,-0.81943096007534832,0.02424697176640923,6
1479571290,0.0,42.331603607202297,-71.109809177062616,10.0,0.0,6.5677032031848638e-06,3.8086438617454424e-05,1.9692871331664505e-05,2.05052784465118e-05,2.9307196657166306e-05,1.7917594692280547,-0.0056298489283249098,-0.81907810671150461,0.024227210474996153,6
1479571320,0.0,42.331603607202297,-71.109809177062616,10.0,0.0,6.9270910001348541e-06,3.8086438617454424e-05,1.9034442067930443e-05,2.2467513438255569e-05,3.2305360325842843e-05,1.945910149055313,-0.0056510769172720228,-0.81923482866723862,0.024213642246194083,6
1479571350,0.0,42.331603607202297,-71.109809177062616,10.0,0.0,5.3761860222559799e-06,3.7418068644360378e-05,1.9034442067930443e-05,2.497162189922087e-05,2.9558969708425039e-05,1.945910149055313,-0.0056750850512724705,-0.81923772697673047,0.024228683940152724,6
1479571380,0.0,42.331603607202297,-71.109809177062616,10.0,0.0,3.5080440880050978e-06,3.2478106723082916e-05,2.2059138809833829e-05,2.6062065065270733e-05,3.05163863320941e-05,1.7917594692280547,-0.0056521502153205234,-0.81874258998969818,0.024210443454902485,6
1479571410,0.0,42.331603607202297,-71.109809177062616,10.0,0.0,1.0469134631138683e-05,5.4752216894496267e-05,2.2059138809833829e-05,2.4500631679720025e-05,3.5258259427267754e-05,1.945910149055313,-0.0056907613821349304,-0.81887302538602036,0.024154244551525771,6
1479571440,0.0,42.331603607202297,-71.109809177062616,10.0,0.0,1.1473957482781e-05,5.4752216894496267e-05,1.7175736232016308e-05,2.3836245269133118e-05,3.5117090920283708e-05,1.945910149055313,-0.0057196069313454195,-0.81959396739411061,0.024101236033974897,6
1479571470,0.0,42.331603607202297,-71.109809177062616,10.0,0.0,1.1849006369143922e-05,5.3534521170040425e-05,1.7175736232016308e-05,2.2204636877390987e-05,2.6890424679494687e-05,1.7917594692280547,-0.0057032074106821472,-0.82002466404395502,0.024125402588349502,6
1479571500,0.0,42.331603607202297,-71.109809177062616,10.0,0.0,1.0249643510261879e-05,5.3534521170040425e-05,2.1951828837536975e-05,2.3896088479226851e-05,2.8750683396673741e-05,1.945910149055313,-0.0057409111974115684,-0.81997097229815008,0.024124110165080381,6
1479571530,0.0,42.331603607202297,-71.109809177062616,10.0,0.0,3.0732043210090747e-06,3.189206578641436e-05,2.2479603012244155e-05,2.5205750190046565e-05,2.8104929958908715e-05,1.945910149055313,-0.0057145867994642854,-0.8198489288172135,0.024082846583665187,6
1479571560,0.0,42.331603607202297,-71.109809177062616,10.0,0.0,2.5986031081007595e-06,3.0499601290806117e-05,2.2479603012244155e-05,2.5558664038128021e-05,2.8615106220617391e-05,1.7917594692280547,-0.0056963555751353527,-0.81967871042981344,0.024076927584146715,6
1479571590,0.0,42.331603607202297,-71.109809177062616,10.0,0.0,2.171436945659312e-06,2.9419316309218124e-05,2.277683135867393e-05,2.5850622031290779e-05,2.8757823109672654e-05,1.945910149055313,-0.0057246132986265756,-0.8194557016608145,0.024102988037778272,6
1479571620,0.0,42.331603607202297,-71.109809177062616,10.0,0.0,2.0025679677959044e-06,2.9419316309218124e-05,2.277683135867393e-05,2.6587335807546166e-05,2.8346926416184884e-05,1.945910149055313,-0.0056975883472154638,-0.81913316116398993,0.024062918083946255,6
1479571650,0.0,42.331603607202297,-71.109809177062616,10.0,0.0,2.0553558135732231e-06,3.1308398732588064e-05,2.4771108017276168e-05,2.6158128854114047e-05,2.7993504518640611e-05,1.7917594692280547,-0.0056816200565979131,-0.81916850862481694,0.0240755561592291,6
1479571680,0.0,42.331603607202297,-71.109809177062616,10.0,0.0,3.5696906030261782e-06,3.1308398732588064e-05,1.8568546012551398e-05,2.4353045040366946e-05,2.6741797650053644e-05,1.945910149055313,-0.0056990184945288416,-0.81946623281696918,0.024093722375283757,6
1479571710,0.0,42.331603607202297,-71.109809177062616,10.0,0.0,3.4865988326788836e-06,2.8923188236829597e-05,1.8568546012551398e-05,2.2873178223906549e-05,2.7907118532309099e-05,1.945910149055313,-0.0057282504798238749,-0.8193168513722181,0.024049155750126113,6
1479571740,0.0,42.331603607202297,-71.109809177062616,10.0,0.0,5.4992869908677239e-06,2.8923188236829597e-05,1.2344941539115308e-05,2.1017506172907576e-05,2.7027399487406314e-05,1.7917594692280547,-0.0057576440171291854,-0.81937131814018793,0.024057516569430833,6
1479571770,0.0,42.331603607202297,-71.109809177062616,10.0,0.0,5.3695732953390017e-06,3.1537989984268072e-05,1.2344941539115308e-05,1.9857089692842329e-05,2.3744965277476963e-05,1.945910149055313,-0.0057167841234055609,-0.81970130196848368,0.024029386701335132,6
1479571800,0.0,42.331603607202297,-71.109809177062616,10.0,0.0,5.3096193053310976e-06,3.1537989984268072e-05,1.6244147796521988e-05,1.9940599814395163e-05,2.7229533913820849e-05,1.945910149055313,-0.0056873106317828987,-0.8197086387623308,0.024030685623128711,6
1479571830,0.0,42.331603607202297,-71.109809177062616,10.0,0.0,5.0541833431652706e-06,3.043585457333512e-05,1.624377142752407e-05,1.7521890585798501e-05,2.5073952557664428e-05,1.7917594692280547,-0.0057044028939183715,-0.81966213600616011,0.024065680610445551,6
1479571860,0.0,42.331603607202297,-71.109809177062616,10.0,0.0,4.4400120352003483e-06,2.7931209669213812e-05,1.5463949502372178e-05,1.9432617217944607e-05,2.5330597278443714e-05,1.945910149055313,-0.0057224962757449855,-0.81933878861143317,0.024066113964033315,6
1479571890,0.0,42.331603607202297,-71.109809177062616,10.0,0.0,5.0817225345346139e-06,3.1981986364579957e-05,1.5463949502372178e-05,2.3414324163995458e-05,2.9040977309141868e-05,1.945910149055313,-0.005726348457230539,-0.81879862408609738,0.024048704313469831,6
1479571920,0.0,42.331603607202297,-71.109809177062616,10.0,0.0,5.4357847999417415e-06,3.9045639840875368e-05,2.2541143913917262e-05,2.6170788668239777e-05,3.283978918771461e-05,1.7917594692280547,-0.0057165775004221729,-0.81850778852598982,0.024031482146015568,6
1479571950,6.433914928499139,42.331601274239247,-71.109818788311586,10.0,0.10723191547498565,8.2676495353645935e-06,3.9045639840875368e-05,1.3483459682020091e-05,2.0526021151289287e-05,3.0275713130736453e-05,1.945910149055313,-0.005735530335058297,-0.81873753836440299,0.024036943949261758,6
1479571980,6.433914928499139,42.331594275350099,-71.109847622058467,10.0,0.10723191547498565,5.0676350540744812e-06,2.7425702799380079e-05,1.3483459682020091e-05,1.7156259639551903e-05,2.5790431409488196e-05,1.945910149055313,-0.0057382777297096616,-0.8192179440518601,0.024021806964843084,6
1479572010,0.0,42.331589609424,-71.109866844556393,10.0,0.0,5.4468091209963133e-06,3.2662962812567392e-05,1.5316118741086232e-05,1.9030356312236669e-05,2.3747142270238022e-05,1.7917594692280547,-0.0057383590330145964,-0.81994133834598903,0.024044725503808869,6
1479572040,0.0,42.331589609424,-71.109866844556393,10.0,0.0,8.4668836270433429e-06,3.5370877973892381e-05,9.0147785832149138e-06,1.8704843232214748e-05,2.7831895129820254e-05,1.945910149055313,-0.0073074947904144495,-0.82350479738680415,0.024012628569104626,6
1479572070,0.0,42.331589609424,-71.109866844556393,10.0,0.0,7.2292840063497943e-06,3.5370877973892381e-05,9.0147785832149138e-06,2.2177042355390796e-05,2.5740556889286632e-05,1.945910149055313,-0.008905848354500449,-0.82579673565961742,0.023852337605223171,6
1479572100,0.0,42.331589609424,-71.109866844556393,10.0,0.0,3.9747648510782592e-06,3.3839108956567563e-05,2.1375549826882206e-05,2.5561213785491783e-05,2.9467765220283675e-05,1.7917594692280547,-0.0093202243344588011,-0.82368699486899599,0.023951018155529247,6
1479572130,0.0,42.331589609424,-71.109866844556393,10.0,0.0,6.3398197188457213e-06,4.0163337281221894e-05,1.973874778392121e-05,2.4633350083750861e-05,3.2198621194307343e-05,1.945910149055313,-0.0091950545294395922,-0.82177792697084684,0.024182821278157657,6
1479572160,0.0,42.331589609424,-71.109866844556393,10.0,0.0,6.8196944172840081e-06,4.0163337281221894e-05,1.9090936255268221e-05,2.1404393683214802e-05,2.9640663899844375e-05,1.945910149055313,-0.0092042232275772774,-0.82178385590378811,0.024174140450420316,6
1479572190,0.0,42.331589609424,-71.109866844556393,10.0,0.0,3.2654035936145918e-06,2.877882410702786e-05,1.9090936255268221e-05,2.0080803371449922e-05,2.3590449513669224e-05,1.7917594692280547,-0.0091741124193649975,-0.82193186069691893,0.024188034348252549,6
1479572220,0.0,42.331589609424,-71.109866844556393,10.0,0.0,3.3521981839887642e-06,2.948191974009774e-05,1.9713746102969401e-05,2.1470149317447173e-05,2.6873738806432246e-05,1.945910149055313,-0.0091109536628966054,-0.82215295055422843,0.024185585071372227,6
1479572250,0.0,42.331589609424,-71.109866844556393,10.0,0.0,2.0202237909748607e-06,2.948191974009774e-05,2.36035782055315e-05,2.4019288585838076e-05,2.6873738806432246e-05,1.945910149055313,-0.0090494833918056926,-0.82211104528937873,0.024214449478005658,6
1479572280,0.0,42.331589609424,-71.109866844556393,10.0,0.0,1.8323667207284536e-06,2.6470694173811544e-05,2.1070395272946579e-05,2.3635454008236489e-05,2.5840050382892594e-05,1.7917594692280547,-0.0091227678763065537,-0.82190118532412682,0.024185830253675804,6
1479572310,0.0,42.331589609424,-71.109866844556393,10.0,0.0,2.9014715998487047e-06,2.6470694173811544e-05,1.9003332569691235e-05,1.9778929924938065e-05,2.4482543748530719e-05,1.945910149055313,-0.0091599462227910083,-0.82205500179972468,0.024152647003568124,6
1479572340,0.0,42.331589609424,-71.109866844556393,10.0,0.0,1.5683131551736086e-06,2.2614185571646216e-05,1.7118837463691355e-05,1.9229134140992017e-05,2.0456939756792589e-05,1.945910149055313,-0.0091134858097545908,-0.82205060130811847,0.024163067667926631,6
1479572370,0.0,42.331589609424,-71.109866844556393,10.0,0.0,3.814215110065126e-06,2.4052237032462688e-05,1.1671804413844845e-05,1.7195627945216747e-05,2.0558204237429793e-05,1.7917594692280547,-0.0091216277024871884,-0.82179745046002617,0.024140611039408916,6
1479572400,0.0,42.331589609424,-71.109866844556393,10.0,0.0,5.1718076113467092e-06,2.8348192535329812e-05,1.1671804413844845e-05,1.9889369256817288e-05,2.4826987631629195e-05,1.945910149055313,-0.0091479269219445925,-0.82139212837212683,0.024165711482606302,6
1479572430,0.0,42.331589609424,-71.109866844556393,10.0,0.0,5.5387132591556668e-06,3.0752296886518434e-05,1.2134235948589405e-05,2.2917014553340505e-05,2.7168950075353291e-05,1.945910149055313,-0.0091231269097912602,-0.8211651685211464,0.024146131941723825,6
1479572460,0.0,42.331589609424,-71.109866844556393,10.0,0.0,6.1461262864155359e-06,3.0752296886518434e-05,1.2134235948589405e-05,1.7224461108637218e-05,2.4818478243703914e-05,1.7917594692280547,-0.0090935725254911882,-0.8211150922648186,0.024163056325382765,6
1479572490,0.0,42.331589609424,-71.109866844556393,10.0,0.0,5.1643346675324757e-06,3.2869836912644241e-05,1.6998992978034503e-05,1.7242036139039374e-05,2.1208350920451122e-05,1.945910149055313,-0.0091072770680825869,-0.82082651674824181,0.024172926762812286,6
1479572520,0.0,42.331589609424,-71.109866844556393,10.0,0.0,6.8018825139965008e-06,3.6949277766252153e-05,1.6998992978034503e-05,2.0450408548274298e-05,2.8645374475000485e-05,1.945910149055313,-0.0091285333436849029,-0.82080926044688429,0.024126061392298941,6
1479572550,0.0,42.331589609424,-71.109866844556393,10.0,0.0,5.5506797464941422e-06,3.6949277766252153e-05,1.9827055081394691e-05,2.1944263815912934e-05,2.4639533785827804e-05,1.7917594692280547,-0.0091483676268851281,-0.82122084475246793,0.024118094023293703,6
1479572580,0.0,42.331589609424,-71.109866844556393,10.0,0.0,2.1853240429726219e-06,2.471240770198483e-05,1.7824912908176179e-05,1.9783904472480748e-05,2.2362702713177151e-05,1.945910149055313,-0.0091569613076980805,-0.82225144238648251,0.02415307760207084,6
1479572610,0.0,42.331589609424,-71.109866844556393,10.0,0.0,2.7831935711326805e-06,2.4087638918350736e-05,1.4783769732483839e-05,1.7629625479407942e-05,2.0854763479526616e-05,1.945910149055313,-0.0091727590579467385,-0.82269869272542706,0.024158623797343657,6
1479572640,0.0,42.331589609424,-71.109866844556393,10.0,0.0,3.4805774508411278e-06,2.4087638918350736e-05,1.4783769732483839e-05,1.8117904683069414e-05,2.3622233409585166e-05,1.7917594692280547,-0.0090954961374174487,-0.8222325377052182,0.024164168171712585,6
1479572670,0.0,42.331589609424,-71.109866844556393,10.0,0.0,3.0866284670483891e-06,2.7796753189523364e-05,1.922084190716638e-05,2.0850285964713774e-05,2.5584960160411334e-05,1.945910149055313,-0.0090597457783900045,-0.82166103471297947,0.024168414258164912,6
1479572700,0.0,42.331589609424,-71.109866844556393,10.0,0.0,4.5266854015863671e-06,2.7796753189523364e-05,1.6504333472931733e-05,1.7894134744308496e-05,2.6513605881459859e-05,1.945910149055313,-0.0090846718499846563,-0.82166387687454423,0.024147450588784071,6
1479572730,0.0,42.331589609424,-71.109866844556393,10.0,0.0,4.8823704929838315e-06,3.0181237686423421e-05,1.6504333472931733e-05,1.782123069006646e-05,2.5230452803869118e-05,1.7917594692280547,-0.0090576011629072469,-0.82209531819547621,0.024143582285043597,6
1479572760,0.0,42.331589609424,-71.109866844556393,10.0,0.0,3.0542501348464573e-06,3.0181237686423421e-05,2.1582640015913999e-05,2.345463518865006e-05,2.828603967663474e-05,1.945910149055313,-0.0091139766038433514,-0.82222080015186472,0.024138366462030301,6
1479572790,0.0,42.331589609424,-71.109866844556393,10.0,0.0,3.6227449553664393e-06,2.9277632691788037e-05,1.7477149380510378e-05,2.3554255048554432e-05,2.7453876888042846e-05,1.945910149055313,-0.0091471067402449733,-0.82218051950188042,0.024093551831719056,6
1479572820,0.0,42.331589609424,-71.109866844556393,10.0,0.0,5.0921145936961635e-06,2.761330711460425e-05,1.3784352040067655e-05,1.6297905826738769e-05,2.4734553541230841e-05,1.7917594692280547,-0.0090996069810613516,-0.82200687729663657,0.024076212478755552,6
1479572850,0.0,42.331589609424,-71.109866844556393,10.0,0.0,5.0023956264445616e-06,2.6703220038910657e-05,1.284736157299189e-05,1.4844588341107943e-05,2.3048479662835893e-05,1.945910149055313,-0.0091021831158035853,-0.82215930577112128,0.024087717436293902,6
1479572880,0.0,42.331589609424,-71.109866844556393,10.0,0.0,5.7720983378635293e-06,3.099105382324049e-05,1.284736157299189e-05,1.7444662259663403e-05,2.4853929920271165e-05,1.945910149055313,-0.0091095280471702837,-0.82221603828209366,0.024111082039574874,6
1479572910,0.0,42.331589609424,-71.109866844556393,10.0,0.0,4.4038936664915188e-06,3.099105382324049e-05,1.8852269760942729e-05,1.9959775925914574e-05,2.6842309451751683e-05,1.7917594692280547,-0.0091545378527728687,-0.82220551348686077,0.024147048672097784,6
1479572940,0.0,42.331589609424,-71.109866844556393,10.0,0.0,5.4062268724842031e-06,3.4427858319811595e-05,1.7755508713200595e-05,2.2246866823021477e-05,2.8437569483150089e-05,1.945910149055313,-0.0091981853506234827,-0.82223645506175291,0.024120090124461296,6
1479572970,0.0,42.331589609424,-71.109866844556393,10.0,0.0,6.9432997964986074e-06,3.4427858319811595e-05,1.7676133523501251e-05,1.8303980087138001e-05,3.1968705285881492e-05,1.945910149055313,-0.0091397173998047608,-0.8220017007768935,0.024137303234209855,6
1479573000,0.0,42.331589609424,-71.109866844556393,10.0,0.0,6.5870008105989624e-06,3.4054564056391624e-05,1.7676133523501251e-05,1.9146053238398505e-05,3.1197662729450582e-05,1.7917594692280547,-0.0091586491956356375,-0.82195979026563959,0.024144431672326518,6
1479573030,0.0,42.331589609424,-71.109866844556393,10.0,0.0,4.1161802325998594e-06,3.270649566438113e-05,2.0026858570367797e-05,2.0843549063353889e-05,2.5657175771453695e-05,1.945910149055313,-0.0091821756983088126,-0.82221795374507334,0.024155556454058511,6
1479573060,0.0,42.331589609424,-71.109866844556393,10.0,0.0,1.5330293575295305e-06,2.464318761824846e-05,2.0707315853907756e-05,2.1858920670409708e-05,2.4461220755689961e-05,1.945910149055313,-0.0091772983382486552,-0.82210923437216166,0.024198145249942554,6
1479573090,0.0,42.331589609424,-71.109866844556393,10.0,0.0,3.2541194967874187e-06,2.4599874066457711e-05,1.6570458222855922e-05,1.7316133994895584e-05,2.3087337540013234e-05,1.7917594692280547,-0.0091821097956511066,-0.82181261029277153,0.024222380375773286,6
1479573120,0.0,42.331589609424,-71.109866844556393,10.0,0.0,4.6749929254725366e-06,3.0410892229763967e-05,1.6149675589231941e-05,1.6895850706102283e-05,1.9192963396006171e-05,1.945910149055313,-0.0091601386504888884,-0.82135763420797114,0.024199159142270932,6
1479573150,0.0,42.331589609424,-71.109866844556393,10.0,0.0,4.2972743636238522e-06,3.0410892229763967e-05,1.6149675589231941e-05,1.8824929938258046e-05,2.2035987837570608e-05,1.945910149055313,-0.0091808053237849175,-0.82120670362494597,0.024150636915296304,6
1479573180,0.0,42.331589609424,-71.109866844556393,10.0,0.0,3.5549017853324605e-06,2.3266790672511304e-05,1.2826334138691299e-05,2.0254002483689655e-05,2.2743615232756961e-05,1.7917594692280547,-0.0091826425231572462,-0.82187226184673834,0.02410945389481085,6
1479573210,0.0,42.331589609424,-71.109866844556393,10.0,0.0,5.3467600445262985e-06,3.0723034959777732e-05,1.2826334138691299e-05,1.9611093450006664e-05,2.5062171221542937e-05,1.945910149055313,-0.0091680090282787018,-0.82241269157877694,0.024134851864697958,6
1479573240,0.0,42.331589609424,-71.109866844556393,10.0,0.0,4.2376871840113682e-06,3.0723034959777732e-05,1.837267783615769e-05,1.9611093450006664e-05,2.6194659874032593e-05,1.945910149055313,-0.0091696703520732954,-0.82252474002247955,0.024168240430925601,6
1479573270,0.0,42.331589609424,-71.109866844556393,10.0,0.0,3.5654278685865721e-06,2.6263726545014766e-05,1.6357351730811438e-05,1.9140705561951695e-05,2.4786204346681713e-05,1.7917594692280547,-0.0091556350318559108,-0.82277598699161214,0.024160814891937037,6
1479573300,0.0,42.331589609424,-71.109866844556393,10.0,0.0,3.8670904859787177e-06,2.8028421524684776e-05,1.6357351730811438e-05,2.0061954955094171e-05,2.5578414103852959e-05,1.945910149055313,-0.0091460452388408692,-0.82325264184855818,0.024119928549724303,6
1479573330,0.0,42.331589609424,-71.109866844556393,10.0,0.0,3.1335337779287947e-06,2.8028421524684776e-05,1.8679121170854626e-05,2.2158291689571551e-05,2.6831238499776228e-05,1.945910149055313,-0.0091565351132112428,-0.8235894997793537,0.024069722096544129,6
1479573360,0.0,42.331589609424,-71.109866844556393,10.0,0.0,2.4037081076286914e-06,2.7244560680380174e-05,2.157457904191029e-05,2.2105640224003989e-05,2.6652078879538624e-05,1.7917594692280547,-0.0091423834435436155,-0.82376039994766448,0.024039969916185382,6
1479573390,0.0,42.331589609424,-71.109866844556393,10.0,0.0,3.1257274480150247e-06,2.978785036842026e-05,2.1536400694851396e-05,2.1740436212745753e-05,2.7088079651087943e-05,1.945910149055313,-0.0091520004913205645,-0.82329365577509039,0.02404787496807903,6
1479573420,0.0,42.331589609424,-71.109866844556393,10.0,0.0,3.4085433433935839e-06,2.978785036842026e-05,1.9843343780928082e-05,2.1842759478462018e-05,2.7206822202198235e-05,1.945910149055313,-0.0091662948966102411,-0.82285063876528575,0.024083439308564044,6
1479573450,0.0,42.331589609424,-71.109866844556393,10.0,0.0,4.1162999788960495e-06,2.9018401745327525e-05,1.7057667759541268e-05,2.0107470684664817e-05,2.576299319192916e-05,1.7917594692280547,-0.0091318101481377544,-0.82304738834883218,0.024099259886744953,6
1479573480,0.0,42.331589609424,-71.109866844556393,10.0,0.0,4.1727729028069686e-06,2.9018401745327525e-05,1.7057667759541268e-05,1.9561222571358036e-05,2.6274141186472608e-05,1.945910149055313,-0.0091389352605302423,-0.82359686911254915,0.024087418628527729,6
1479573510,0.0,42.331589609424,-71.109866844556393,10.0,0.0,3.9710469634850051e-06,2.7139798041412994e-05,1.668005146852201e-05,1.7664086903947846e-05,2.4971434079753897e-05,1.945910149055313,-0.0091475746521227971,-0.82350218304512679,0.024063375111575198,6
1479573540,0.0,42.331589609424,-71.109866844556393,10.0,0.0,4.2321571521979511e-06,2.8226524019029361e-05,1.668005146852201e-05,1.7332331207541803e-05,2.368224761143135e-05,1.7917594692280547,-0.0090997556235607197,-0.82317542257835719,0.024065433686952714,6
1479573570,0.0,42.331589609424,-71.109866844556393,10.0,0.0,3.8696830894593684e-06,2.9260950688012323e-05,1.8012584647003264e-05,2.1735801679456354e-05,2.7146669085881583e-05,1.7917594692280547,-0.0090873722159980699,-0.82329690281378232,0.024050030764856799,6
1479573600,0.0,42.331589609424,-71.109866844556393,10.0,0.0,3.075434016868589e-06,2.9260950688012323e-05,1.9443641866392024e-05,2.3667748187516278e-05,2.6635452110391061e-05,1.945910149055313,-0.0091306162792982575,-0.82317400446966804,0.024037907960489713,6
1479573630,0.0,42.331589609424,-71.109866844556393,10.0,0.0,3.1924910666916722e-06,2.8574316610193759e-05,1.8593442849425072e-05,2.0219985335752475e-05,2.4312507832704749e-05,1.945910149055313,-0.0091098578722067381,-0.82286893579980691,0.024074307948237672,6
1479573660,0.0,42.331589609424,-71.109866844556393,10.0,0.0,3.6492879684097873e-06,3.0039237274316746e-05,1.8593442849425072e-05,2.0627263590467335e-05,2.3628526024588005e-05,1.7917594692280547,-0.0090894467928501303,-0.82279079982411163,0.024067865783022713,6
1479573690,0.0,42.331589609424,-71.109866844556393,10.0,0.0,4.1383132960150177e-06,3.0039237274316746e-05,1.7042274532295511e-05,1.9335714674891099e-05,2.4044451074234465e-05,1.945910149055313,-0.0091612315569714591,-0.82336909310981254,0.024079572276939489,6
1479573720,0.0,42.331589609424,-71.109866844556393,10.0,0.0,4.9750582019031128e-06,2.6449621534423318e-05,1.2069477758065823e-05,1.7637549288697427e-05,2.5503921547589757e-05,1.945910149055313,-0.0091405925982431767,-0.82362610752886167,0.024062808089803083,6
1479573750,0.0,42.331589609424,-71.109866844556393,10.0,0.0,6.6400873009477463e-06,3.3778698156549067e-05,1.2069477758065823e-05,2.1728371047646434e-05,2.6403593239484302e-05,1.7917594692280547,-0.0092207325761811537,-0.82382855519101483,0.0242629744281634,6
1479573780,0.0,42.331589609424,-71.109866844556393,10.0,0.0,1.1442216184352087e-05,4.9787150844526448e-05,1.2216587554347296e-05,2.3343708062331386e-05,3.6614087857645555e-05,1.945910149055313,-0.0099692262395467985,-0.82462455210606733,0.025583367676060929,6
1479573810,0.0,42.331589609424,-71.109866844556393,10.0,0.0,1.1388275319856855e-05,4.9787150844526448e-05,1.2216587554347296e-05,2.3193539359154906e-05,3.6581813145498778e-05,1.945910149055313,-0.010657009794952418,-0.82497043028347972,0.02605113624332683,6
1479573840,0.0,42.331589609424,-71.109866844556393,10.0,0.0,5.6225295040266513e-06,3.3714148732255505e-05,1.8205951554867734e-05,2.2430717248798203e-05,3.1638158555081497e-05,1.7917594692280547,-0.010990717432839968,-0.82472053965343706,0.025734186418367281,6
1479573870,0.0,42.331589609424,-71.109866844556393,10.0,0.0,6.8331029667833537e-06,3.2764967552597619e-05,1.0756209824521724e-05,1.7941915083860357e-05,2.6432080902885425e-05,1.945910149055313,-0.010998663057125629,-0.82454213810724608,0.025946013616831638,6
1479573900,0.0,42.331589609424,-71.109866844556393,10.0,0.0,0.0014082912740772001,0.0040436208808528771,1.0756209824521724e-05,1.670447178545249e-05,2.5516057060938705e-05,1.945910149055313,0.22913317626916299,-0.89333517798343531,0.014904813631772731,6
1479573930,0.0,42.331589609424,-71.109866844556393,10.0,0.0,0.0014308800925797718,0.0040436208808528771,1.5731064958051998e-05,7.985835996903908e-05,0.0016339888111461757,1.7917594692280547,1.1727720089901321,-0.84806778359926793,-0.04562349971505867,6
1479573960,0.0,42.331589609424,-71.109866844556393,10.0,0.0,0.041435788878504451,0.11102313959081901,4.2066831773373166e-05,0.00059660570129440585,0.037697642935862016,1.7770332013812693,1.6628465930573602,-1.0534468920053626,-0.20430663140392355,6
1479573990,0.0,42.331589609424,-71.109866844556393,10.0,0.0,0.038089171325676179,0.11102313959081901,4.2066831773373166e-05,0.0037857653777393914,0.057068777087470803,1.8891591637540215,1.5985035540440857,-0.91427570720508322,-0.1646882367692292,6
1479574020,18.568918471479236,42.331585827788672,-71.109908555700542,10.0,0.3094819745246539,0.019329060475438305,0.048478963813602297,0.00032343078674322882,0.0059655513812797486,0.042432337458405023,1.7480673485460896,1.6681606096545567,0.74091805345118755,0.040329674202223185,6
1479574050,16.227121156384108,42.331541461676672,-71.109921187228622,10.0,0.27045201927306844,0.30492608838448831,0.90415741486507306,0.00032343078674322882,0.018168506674455909,0.0977652459479256,1.8043716191528454,1.6744120486167389,0.99112242928030359,0.034189584645019915,6
1479574080,42.752823956369525,42.331425019579321,-71.109777791026147,10.0,0.7125470659394921,0.29847733637591545,0.90415741486507306,0.016406022188639291,0.084673139377215281,0.35446384457921953,1.8891591637540217,1.6471253445716016,-0.061530462525140148,-0.015014457554691061,6
1479574110,23.611620256884684,42.331184389807603,-71.109660097929762,10.0,0.3935270042814114,0.24792017356986415,0.75398067355971377,0.0062131082414636635,0.17371212321965529,0.47748560476317747,1.791759469228055,1.6729626508107565,-0.58866216916103642,-0.007323841699086904,6
1479574140,48.908922802828805,42.330908156505167,-71.109557654309185,10.0,0.8151487133804801,0.22210500850099898,0.75398067355971377,0.0062131082414636635,0.17236901657209555,0.38994798419954513,1.9459101490553139,1.6610898783640013,0.098396387470676444,0.025324431259848883,6
1479574170,98.27975366484499,42.330747569717779,-71.109223886924894,10.0,1.637995894414083,0.14444582985427845,0.5259339787374786,0.095331416302589234,0.17236901657209555,0.38994798419954513,1.9459101490553139,1.6187552337824813,0.68029102229978577,0.028556992365376486,6
1479574200,52.27478853736264,42.330582592908613,-71.108854926723154,10.0,0.8712464756227106,0.14037488792827846,0.5259339787374786,0.095331416302589234,0.18153527337656683,0.34649817267925609,1.791759469228055,1.6535838334001951,0.16680825622186526,0.035858252556713884,6
1479574230,30.989890994730622,42.330295761388108,-71.108786710604193,10.0,0.5164981832455103,0.10387242540080681,0.36320020483852311,0.028500150861689014,0.19129412547837876,0.30060928738393533,1.9459101490553139,1.6144475079467402,-0.63796361215958441,-0.027597508767971839,6
1479574260,29.669091582029285,42.329937300917074,-71.108899922176363,10.0,0.4944848597004881,0.14594427208295832,0.5362731962078584,0.028500150861689014,0.18527328828253664,0.30060928738393533,1.9459101490553139,1.5947695861440114,-0.58815456366282048,-0.12394071765796309,6
1479574290,33.07056681727996,42.329583603462517,-71.108864371731045,10.0,0.5511761136213327,0.30522256095657707,0.96130253371529339,0.17470686822988571,0.18197604638323259,0.67863626173024749,1.791759469228055,1.6786214208480432,-0.45605537979146699,-0.31694924226777965,6
1479574320,10.927878714622636,42.329404584870062,-71.108757379531028,10.0,0.18213131191037726,0.35342122076904564,0.96130253371529339,0.0040576811716217069,0.034474923162739667,0.46112633557525562,1.9459101490553139,1.1808877221943614,0.37581646788517553,-0.27749785949831718,6
1479574350,88.60049471058183,42.329855411572645,-71.108781230879146,10.0,1.4766749118430305,0.06562744364354825,0.19616205424613409,0.00091168410236384988,0.0028316535903062873,0.042113414183014751,1.8043716191528454,1.5959793066893673,1.4631081013233869,-0.04305736629200263,6
1479574380,150.38095991842928,42.331297767089552,-71.109209184359827,10.0,2.5063493319738215,0.0091965153864882552,0.025024830983053418,0.00091168410236384988,0.0016298984088564132,0.014719864937823247,1.6609474332869181,2.6097389297870732,1.7265682861465865,0.17351502475585601,6
1479574410,201.5875668463701,42.332696487638323,-71.109369351490486,10.0,3.359792780772835,0.005864082707761546,0.017446997729772835,3.1750328527608098e-05,0.0016707992233693024,0.01047220263348847,1.9036483899019154,-0.35559762908064435,1.4806558426795253,0.12270100227534771,6
1479574440,275.6264622869648,42.333207383741609,-71.108227312503431,10.0,4.593774371449413,0.030613790864338318,0.090393682935793487,3.1750328527608098e-05,0.00015768715161121026,0.01047220263348847,1.8562701281920886,-2.5387005199980273,1.0312920017925271,0.16695488265624256,6
1479574470,195.57264063927275,42.333391663424983,-71.106734112436982,10.0,3.2595440106545457,0.036557253484407554,0.090393682935793487,0.00010741794430116902,0.00018850014446549428,0.048260192852709854,1.6581101035673731,-2.5590939997066848,0.70334113430074618,0.37129451174086864,6
1479574500,299.6901792967827,42.333706803426473,-71.105785761560398,10.0,4.994836321613045,0.022043819877027925,0.063092545651494331,0.00018201473964690854,0.0022908869341715381,0.029628167109443167,1.7770332013812697,-2.5434742426950727,1.0195651663735383,0.39839270028866558,6
1479574530,545.428593190072,42.334389269857056,-71.1041031140565,10.0,9.090476553167866,0.012761297531572671,0.03720955994442722,0.00064076647200247917,0.0014427151299163674,0.015721817744848002,1.7770332013812695,-2.6068535081873532,1.1121874090553849,0.4237923499805184,6
1479574560,399.7674561787419,42.335253266657098,-71.101775959665986,10.0,6.662790936312365,0.003596846850091638,0.0093968612152368885,0.00060882257484731652,0.00074567170061455449,0.006355602999782644,1.7480673485460896,-2.7419191574695887,1.1955395891572234,0.46081080130511448,6
1479574590,267.9651567901613,42.335753159171297,-71.10035208526169,10.0,4.466085946502688,0.0025604816147490484,0.0077852070504281674,0.00020084882549618047,0.00043083739671931451,0.0033134123238414692,1.8675843750169276,-2.789805926598774,1.3396795636720842,0.51887064156820861,6
1479574620,313.1002787929594,42.33647060156774,-71.099086429094228,10.0,5.218337979882657,0.028515997427399728,0.084325266862312356,0.00020084882549618047,0.0011660618002481175,0.011534286675408473,1.8056165767134955,-2.8304825879543487,1.8016171419430411,0.55399272054747317,6
1479574650,323.3687458882134,42.337965660392079,-71.097583323760048,10.0,5.38947909813689,0.029476055612160545,0.084325266862312356,0.0015181999131264091,0.0025666714529228238,0.016213566321898455,1.6609474332869181,-2.9321447636866753,2.2480909773920819,0.59933485449148394,6
1479574680,636.3032435407534,42.339766867263009,-71.095501319781434,10.0,10.605054059012557,0.0027831939269718133,0.0077935673790913334,0.00091976277442170165,0.0018264405800933244,0.0073138253275017561,1.9361470098309514,-3.0343383027853297,1.9598457290133913,0.60523183529250246,6
1479574710,518.9670825861992,42.341631762163018,-71.092790217245863,10.0,8.649451376436653,0.0025190104961289967,0.0077935673790913334,0.00091976277442170165,0.0018081524805313768,0.0058507335119954498,1.8842428460867393,-2.2019153091772443,2.1753447968689401,0.54140601687382062,6
1479574740,178.82204259409656,42.343293541586796,-71.091219308399957,10.0,2.980367376568276,0.0019031891631542854,0.0056054823727579479,4.2991299372740697e-05,0.0015312769218790796,0.0042287363231263983,1.710560083757924,-0.0044961163342317105,2.5876305876090249,0.55967770719967158,6
1479574770,121.67209489588946,42.344026293674041,-71.090733426750106,10.0,2.0278682482648245,0.0035712654044829672,0.010941128291488248,4.2991299372740697e-05,0.0009338436103329945,0.004952503375443491,1.8842428460867393,2.0315132035354084,2.2542617851992413,0.50811173960462364,6
1479574800,205.97199557380895,42.343761737742419,-71.09019253232124,10.0,3.432866592896816,0.0062557714957627254,0.018548465571783381,0.0004851391972510318,0.00095388604626475064,0.0076203263348086411,1.8056165767134955,2.4273151924755085,1.7942691994098527,0.12939025536225052,6
1479574830,304.543016866921,42.343167059980026,-71.088884507988524,10.0,5.075716947782016,0.0071706559008637696,0.018548465571783381,8.5591464764266936e-05,0.00043313862348300905,0.010371454387762673,1.6581101035673729,1.925382015352435,1.9480404995851346,-0.29175565055560354,6
1479574860,195.0432372527396,42.342686197750602,-71.087456329785127,10.0,3.2507206208789934,0.0061348189224881269,0.017023883623238558,8.5591464764266936e-05,0.0011657336429038892,0.0088650751258407441,1.8056165767134955,1.8849988634939945,1.9040327898393861,-0.29530037049338659,6
1479574890,88.74365247620668,42.342196939031815,-71.087202678473744,10.0,1.4790608746034446,0.0054043259613312531,0.017023883623238558,0.00015790926592154398,0.0011140121667286814,0.0044443256549003499,1.8675843750169279,1.8656674655609529,1.1829537744625107,-0.2857876763341648,6
1479574920,122.19685722477338,42.341703055209024,-71.087852245086111,10.0,2.0366142870795563,0.051504747867269163,0.13978632454609316,0.0001495303529846196,0.00019318208008834516,0.0038956471038252335,1.710560083757924,1.7769476650524518,0.26950622087169696,-0.29242376599755854,6
1479574950,12.327528245927347,42.341501222024213,-71.088252984989836,11.0,0.2054588040987891,0.08432449882736065,0.20560146241713559,0.0001495303529846196,0.0031986015235986433,0.15483088260530814,1.8043716191528456,1.6874593348876927,-0.82198887269506749,-0.10422206783285692,6
1479574980,53.941611117537214,42.341583805418772,-71.088128097465201,18.5,0.8990268519589536,0.15371202516274732,0.49271990209601646,0.0026977511947660539,0.068901324304343259,0.22767246189496965,1.9459101490553139,1.7985691787735656,-1.8919375720168463,0.044849965510895866,6
1479575010,82.85424665466194,42.341722439781158,-71.087801358728768,23.5,1.3809041109110323,0.19433401398167677,0.60214515414538317,0.047676011604830468,0.15468923622619915,0.4381219711523629,1.791759469228055,1.9624835784866734,-2.7082944245360316,0.086773283508056812,6
1479575040,73.85235078719634,42.341846049802704,-71.087432327280851,17.75,1.230872513119939,0.19738015206924389,0.60214515414538317,0.047676011604830468,0.078416065209713975,0.4083930226644028,1.9459101490553139,1.9463719680842344,-0.3532538135986813,0.026260404080142939,6
1479575070,68.45542440370768,42.341769543981506,-71.087143632183881,19.69098300997501,1.1409237400617946,0.16169506800077343,0.42577524925360299,0.012046229039078163,0.040345219306315738,0.31328049325906487,1.9459101490553139,1.8714918288485403,1.9410564731885143,-0.017372201232943085,6
1479575100,83.79475186556675,42.341645338146343,-71.086787292334336,25.44098300997501,1.396579197759446,0.12666224354956862,0.32283585199145015,0.012046229039078163,0.069080043739020575,0.29443825450805444,1.791759469228055,1.8509036140909434,0.30842360508513683,-0.079913834703114583,6
1479575130,91.77050360356044,42.341798437100223,-71.086362632989037,19.0,1.529508393392674,0.14224687803710837,0.54180303104436955,0.11404647186056781,0.26504088957643135,0.42336997129162801,1.8891591637540215,1.9072202143079831,-1.8730749757191172,-0.056571643537421896,6
1479575160,41.965469534053106,42.341997894265084,-71.086085109572025,15.166666666666666,0.6994244922342184,0.2073241118049218,0.54180303104436955,0.010711246848330714,0.075010412118495504,0.42336997129162801,1.9459101490553139,1.8443631278120596,-0.90010236345077177,-0.011493978476581766,6
1479575190,23.635662017665485,42.342071978414765,-71.08603558090617,29.468117884991564,0.39392770029442475,0.030780223672203986,0.076247912239020332,0.0011098445958287247,0.0084244360516240249,0.063793501901863267,1.7328679513998633,1.6664544940634085,0.45319273119830328,-0.090907577598526801,6
1479575220,46.969911642812654,42.342106236791082,-71.086168725190333,83.268681324321932,0.7828318607135443,0.074239957810232488,0.22025809742026659,4.4172855746321355e-05,0.00064467225561408502,0.049640366170347262,1.8043716191528454,1.5318516636302602,0.3140450528727432,-0.27138245800331112,6
1479575250,22.169629947352515,42.342246067890727,-71.0863248940163,87.646147536284801,0.36949383245587525,0.076611653053938314,0.22025809742026659,4.2621054094486124e-05,6.9824393198095734e-05,0.032834793738381177,1.8056165767134953,1.5471987828915084,-0.017776919477965492,-0.34148323949520393,6
1479575280,0.0,42.342369994188012,-71.086375555089816,46.237291305872667,0.0,6.4939620520258003e-05,0.00024412674960886443,4.2621054094486124e-05,7.8486483790779837e-05,0.00012728887199964294,1.7917594692280547,1.5913682684376367,-0.034668845451237919,-0.28695606362495846,6
1479575310,0.0,42.342369994188012,-71.086375555089816,42.116747751169711,0.0,5.2815195393440843e-05,0.00023670239423090623,7.7269170253115271e-05,8.0253790906656132e-05,0.000123177075771839,1.945910149055313,1.5882203540839641,-9.0852559671908417e-06,-0.28915161004078982,6
1479575340,23.144496304107964,42.342356925299043,-71.086366863514542,43.713253722018322,0.38574160506846605,6.1470447284595774e-05,0.00023670239423090623,1.8897999566883046e-05,7.6323658231589888e-05,0.00010668338238404819,1.945910149055313,1.5834488754497644,0.014153929686943753,-0.29456540485471827,6
1479575370,0.35312262636926306,42.342327853135792,-71.086350833038608,46.03851692265863,0.0058853771061543846,9.0322166414692729e-05,0.00026418962397149509,1.8897999566883046e-05,4.5297105871558357e-05,0.000185441512398186,1.7917594692280547,1.5767860519898018,0.021675528771882151,-0.3028657085680852,6
1479575400,29.5854592050637,42.342351787713092,-71.086369156122274,43.498985893454574,0.49309098675106167,7.6856366014657965e-05,0.00026418962397149509,3.5636754810864137e-05,7.0686345927097223e-05,0.00017021840087296078,1.945910149055313,1.5761123590782187,0.025287861686943018,-0.30558571681479973,6
1479575430,0.0,42.342365677507907,-71.086378404936809,42.564159193169985,0.0,2.6669256512552493e-05,0.00012815005155077984,5.5847686003128742e-05,6.078328288701201e-05,0.00010052637132958647,1.945910149055313,1.5771084738493273,0.026579722212084756,-0.30512536813559549,6
1479575460,0.0,42.342365677507907,-71.086378404936809,42.564159193169985,0.0,3.7349215262634592e-05,0.00016834848182721736,5.8887773987115387e-05,6.4739354123822759e-05,8.0077319152174102e-05,1.7917594692280547,1.5766934611990999,0.024639526226992281,-0.3050509079803741,6
1479575490,0.0,42.342365677507907,-71.086378404936809,42.564159193169985,0.0,3.6568934961456752e-05,0.00016834848182721736,7.759831817067916e-05,7.956807232681505e-05,0.00015092201135615601,1.945910149055313,1.5759578750502214,0.02356717050124767,-0.30503075659023343,6
1479575520,0.0,42.342365677507907,-71.086378404936809,96.397492525499814,0.0,3.0793218203958003e-05,0.00015430061566423296,7.3827430229908472e-05,7.918944506636735e-05,0.00012896851927102367,1.945910149055313,1.5757022534798186,0.023537874515088854,-0.30503539827495085,6
1479575550,0.0,42.342365677507907,-71.086378404936809,181.39749252391528,0.0,1.2232787819343784e-05,9.6958453821564139e-05,6.1730042193320825e-05,6.5925914380869324e-05,8.3469353690325125e-05,1.7917594692280547,1.5765050903304632,0.022937230833456636,-0.30510399295027563,6
1479575580,0.0,42.342365677507907,-71.086378404936809,194.50355735948844,0.0,5.3169832839395869e-05,0.00021710581851804044,4.7581350177882036e-05,6.2511058978921883e-05,0.00011164014167935627,1.945910149055313,1.5764976980661716,0.018709880909779257,-0.30488715235762126,6
1479575610,0.0,42.342365677507907,-71.086378404936809,132.82175186795087,0.0,4.9743001868512819e-05,0.00021710581851804044,4.7581350177882036e-05,8.7452009048780811e-05,0.00011528471768612139,1.945910149055313,1.5761449399966883,0.013491488506455294,-0.30497208239678947,6
1479575640,0.0,42.342365677507907,-71.086378404936809,89.200548206925816,0.0,1.8725309531227057e-05,0.00011813923166477381,6.6470595920838953e-05,7.3886461750263748e-05,0.00010320920119329219,1.7917594692280547,1.5758259194801301,0.0075095155699357015,-0.30508539285649899,6
1479575670,0.0,42.342365677507907,-71.086378404936809,89.200548206925816,0.0,5.7242847867093556e-05,0.00024183748821422538,6.4528140000462249e-05,7.6470698961403287e-05,8.8395532792875163e-05,1.945910149055313,1.5760172767022358,0.0039832726136268372,-0.30479056287336814,6
1479575700,0.0,42.342365677507907,-71.086378404936809,89.200548206925816,0.0,7.1880502577117302e-05,0.00024183748821422538,6.4528140000462249e-05,8.7578495587282252e-05,0.00021982329697907261,1.945910149055313,1.5762887509731285,0.0045905573093518283,-0.30428495604262273,6
1479575730,28.384959986542984,42.342342436353611,-71.086362935248772,86.895734091980486,0.47308266644238306,6.0894556811063847e-05,0.0002257909684596075,5.614080384577605e-05,0.00010157104924123809,0.00019757973066808693,1.7917594692280547,1.5767737571733134,0.0083645420862839322,-0.30364777696603751,6
1479575760,29.483983626841678,42.342211685331748,-71.086277459395291,77.100274103462908,0.49139972711402796,3.4170612241179595e-05,0.00015075937106560702,5.614080384577605e-05,8.4330081538619295e-05,0.00013421111936159143,1.945910149055313,1.5767905611687396,0.012664842282544215,-0.3036202442682126,6
1479575790,1.3291290909034978,42.342003894005963,-71.086142055380179,65.0,0.022152151515058296,6.3904951483403056e-05,0.00025979580988923733,5.5474116358023915e-05,7.9886138506849924e-05,0.00013283643939356344,1.945910149055313,1.5762402192816456,0.016267981821005886,-0.30395625423611128,6
1479575820,29.206181782496675,42.342296117073317,-71.086345522857187,84.454389119067002,0.48676969637494455,6.7650293361572913e-05,0.00025979580988923733,5.5474116358023915e-05,7.8933522961731006e-05,0.000109252583286492,1.7917594692280547,1.5759043786218083,0.020241108699689533,-0.30446791639980414,6
1479575850,0.0,42.342345099935599,-71.086379913679394,87.808594139595797,0.0,2.7326707628441112e-05,0.00012178440722840345,3.7631251291339028e-05,7.0815584961107024e-05,0.00010735707517144438,1.945910149055313,1.5759794564717713,0.02566816857656077,-0.3044674022030493,6
1479575880,0.0,42.342345099935606,-71.086379913679394,87.411650531807069,0.0,3.892462735367792e-05,0.00016224688522654607,3.7631251291339028e-05,6.5563409896165332e-05,0.0001110872593598274,1.945910149055313,1.5760901116489971,0.029300170378668951,-0.30430727920519401,6
1479575910,0.0,42.342345099935606,-71.086379913679394,66.900285905934297,0.0,3.6351906875548802e-05,0.00016224688522654607,5.322978488683804e-05,6.8873393132263589e-05,0.00010711114410358201,1.7917594692280547,1.5752335171067802,0.030435667579907885,-0.30433378580931453,6
1479575940,0.0,42.342345099935606,-71.086379913679394,57.803629279136359,0.0,0.00011875788682678291,0.00040817568321067346,1.9739344894963258e-05,6.9948030733192726e-05,0.00011885872732526687,1.945910149055313,1.5735263859337156,0.030463827766769487,-0.30564759967626542,6
1479575970,0.0,42.342345099935606,-71.086379913679394,113.94861421885116,0.0,0.00011959641135700903,0.00040817568321067346,1.9739344894963258e-05,6.6055505286788326e-05,0.00011011974074747824,1.945910149055313,1.5731288994804515,0.03091473875656504,-0.3066386639534846,6
1479576000,0.0,42.342345099935606,-71.086379913679394,107.7883473175979,0.0,1.6363788069547864e-05,0.00010474353658738616,5.7865547584435128e-05,6.7462759424386751e-05,8.9132012491082915e-05,1.7917594692280547,1.5719058341586267,0.031228537218888085,-0.30674603216568536,6
1479576030,0.0,42.342345099935606,-71.086379913679394,54.231136809037928,0.0,1.4675108909078315e-05,0.00010474353658738616,6.629415723017941e-05,6.7679914607498827e-05,8.8075884751609825e-05,1.945910149055313,1.5721923973246987,0.029411626322711985,-0.30678724840645982,6
1479576060,0.0,42.342345099935606,-71.086379913679394,47.976695711216379,0.0,2.4402695494644062e-05,9.9227086249806414e-05,1.3539856655343769e-05,7.033997699017941e-05,7.630185198188695e-05,1.945910149055313,1.5734332873946271,0.028617472286986769,-0.30693175935558825,6
1479576090,0.0,42.342345099935606,-71.086379913679394,43.991977672272796,0.0,2.8745780348350089e-05,0.00010406548156019695,1.3539856655343769e-05,5.5412040874184033e-05,8.1625030415997078e-05,1.7917594692280547,1.5734646965984485,0.030260543256783901,-0.30696737877573632,6
1479576120,0.0,42.342345099935606,-71.086379913679394,111.99197767122091,0.0,2.9837446516124225e-05,0.00012437092947177974,4.1422796391323572e-05,4.6684819289978893e-05,9.3836257605703073e-05,1.945910149055313,1.5731707874446046,0.03208540100446193,-0.30692351019138686,6
1479576150,0.0,42.342345099935606,-71.086379913679394,151.91556786585122,0.0,2.9754731408762715e-05,0.00012437092947177974,4.1422796391323572e-05,5.3108595052162743e-05,0.00010229015949990715,1.945910149055313,1.5729957418117657,0.033649960768650254,-0.3068670506929459,6
1479576180,0.0,42.342345099935606,-71.086379913679394,93.915567866903118,0.0,1.8185855038367843e-05,0.00014301617142019747,8.9783598316224938e-05,9.3464144216344025e-05,0.00010490516741554369,1.7917594692280547,1.5730325065464186,0.036665200496159532,-0.30678085552916884,6
1479576210,0.0,42.342345099935606,-71.086379913679394,63.991977672272796,0.0,2.886591684064031e-05,0.00014301617142019747,6.393599173255875e-05,8.0339359269127514e-05,0.00011727299253175397,1.945910149055313,1.573023424352056,0.040973735902617832,-0.30673013610414313,6
1479576240,23.486714078582406,42.342331267998148,-71.08637118470125,64.062304811416553,0.3914452346430401,3.6866929213486689e-05,0.00015233078915034861,4.4220700728719028e-05,6.588354682268016e-05,0.00011658662531169469,1.945910149055313,1.5729233142209114,0.045342450080098302,-0.30658396098295299,6
1479576270,2.023607645230055,42.342302327843981,-71.086362985961657,65.068949839415282,0.03372679408716758,3.8633546255331287e-05,0.00015233078915034861,3.5941828428853735e-05,5.3561320688433041e-05,9.9461346128994134e-05,1.7917594692280547,1.5730372371732635,0.051747829130615229,-0.30651525509917371,6
1479576300,30.92484454665237,42.342324139010806,-71.086387060961968,65.658963625492049,0.5154140757775395,3.80400113888837e-05,0.00017225303715553278,3.5941828428853735e-05,7.8975074198588932e-05,9.5180382320082433e-05,1.945910149055313,1.5731767254005558,0.057197391229490857,-0.30656533624497539,6
1479576330,25.726027531258712,42.342331382318108,-71.086393413586862,65.657211062658291,0.4287671255209785,3.4412798899349895e-05,0.00017225303715553278,7.4990665089009364e-05,7.8975074198588932e-05,0.00012548785749310747,1.945910149055313,1.5732510506034543,0.059061844462795159,-0.30645775736950487,6
1479576360,0.03876241132753531,42.342313963830577,-71.086379696961302,65.613426862639244,0.0006460401887922551,2.4838024441096599e-05,0.00014001340137990547,7.4990665089009364e-05,7.5525463179767103e-05,0.00010251389700503121,1.7917594692280547,1.5733084755633051,0.05886813653863323,-0.30617306160088847,6
1479576390,25.748893006252505,42.342325297464619,-71.086388315175242,65.658082345167102,0.42914821677087506,4.0710783944910027e-05,0.00018159287663113501,6.2292049577217527e-05,7.5749191198105792e-05,0.00011023281655033792,1.945910149055313,1.5732184403170846,0.058318949633304688,-0.3061262299273067,6
1479576420,0.2376481748975437,42.342331062652882,-71.086392755001427,65.660639025359998,0.003960802914959062,3.937578911316701e-05,0.00018159287663113501,6.2292049577217527e-05,7.4681721750017769e-05,0.00012584730976019308,1.945910149055313,1.5735703086934127,0.058466312717366034,-0.30624325978135331,6
