TIMESTAMP,DISTANCE,AVG_LAT,AVG_LNG,GPS_ACCURACY,AVG_SPEED_BY_GPS,ACCLERATOR_STD,MAX_ACCLERATOR,MIN_ACCLERATOR,PERCENTILE_25_ACCLERATOR,PERCENTILE_75_ACCLERATOR,ACCLERATOR_ENTROPY,AVG_ROLL,AVG_YAW,AVG_PITCH,WEEK_DAY
1478782860,0.980615025714297,42.331695507857212,-71.109859069757562,40.0,0.01634358376190495,5.4749041735589364e-06,7.259126337564418e-05,6.1641455028526307e-05,6.4378907115305776e-05,6.9853811288864712e-05,0.69314718055994529,-0.20566105241744184,-0.088958472611959757,0.12546508384638977,4
1478782890,7.366156031089849,42.33168583229925,-71.109892811032239,33.333333333333336,0.12276926718483082,1.2711452228908916e-05,7.259126337564418e-05,3.6918386354860961e-05,4.0277265406559097e-05,5.9816284427010215e-05,1.7917594692280547,-0.060926817588708514,-0.18152417917579508,0.055855537573305129,4
1478782920,7.5153791662128935,42.331679139325715,-71.109913615576104,29.666666666666668,0.12525631943688156,8.1234596710727357e-06,5.4340772622461931e-05,3.0576626106570845e-05,3.7457891069231738e-05,4.9982863159044318e-05,1.945910149055313,0.011484476524174328,-0.22781530268591416,0.020803084358814745,4
1478782950,1.8247244815369075,42.331655407363876,-71.109921114585489,25.333333333333332,0.03041207469228179,8.7089042030995897e-06,5.2848852042659788e-05,2.8166153626400458e-05,3.2113980591574217e-05,4.5652891585570932e-05,1.7917594692280547,0.011608969114731632,-0.22793654982994935,0.020347420504551933,4
1478782980,0.0,42.331633530596605,-71.109924679688319,22.0,0.0,7.4749756103953719e-06,4.711653249024084e-05,2.4775023070437212e-05,2.9895735924718271e-05,4.0098521587358178e-05,1.945910149055313,0.011703939151776413,-0.22785439698009841,0.020160742520693914,4
1478783010,0.0,42.331633530596605,-71.109924679688319,16.333333333333332,0.0,3.3838058514681534e-05,0.000128786592333578,2.4775023070437212e-05,2.9618276354066469e-05,4.5852357712615626e-05,1.945910149055313,0.011757613724675887,-0.2276917188656693,0.019885669946859287,4
1478783040,0.0,42.331633530596605,-71.109924679688319,10.0,0.0,3.5747457720788641e-05,0.000128786592333578,2.5554226717369972e-05,2.9494577689661213e-05,4.5723880658815995e-05,1.7917594692280547,0.011821135246426981,-0.22783289026623046,0.019534331741737482,4
1478783070,0.0,42.331633530596605,-71.109924679688319,11.333333333333334,0.0,5.8418404971268131e-06,4.1534335846926657e-05,2.5554226717369972e-05,2.8143625943438816e-05,3.846114986590164e-05,1.945910149055313,0.011819818870794771,-0.22791451084863928,0.019484353457480456,4
1478783100,0.0,42.331633530596605,-71.109924679688319,12.0,0.0,6.9797689965365313e-06,4.6619361172303459e-05,2.7175064250074048e-05,2.9173237882972984e-05,4.013113091738182e-05,1.945910149055313,0.011806973450830743,-0.22770573589001927,0.019403605147463972,4
1478783130,0.0,42.331633530596605,-71.109924679688319,11.0,0.0,6.4727684724425858e-06,4.6619361172303459e-05,2.6390378302592939e-05,2.9531394017154477e-05,3.4219208736913082e-05,1.7917594692280547,0.011873006719998034,-0.22815255000956949,0.019298356105142703,4
1478783160,0.0,42.331633530596605,-71.109924679688319,10.333333333333334,0.0,4.3199635032751023e-06,3.8223576939564465e-05,2.6054624534457771e-05,2.6755718239043304e-05,3.3912427682787571e-05,1.945910149055313,0.011848353584644729,-0.22879116759030185,0.01926009829509116,4
1478783190,0.0,42.331633530596605,-71.109924679688319,10.0,0.0,5.2463979239179292e-06,3.8223576939564465e-05,2.4066164129814357e-05,2.5890375991580214e-05,3.3941344027434848e-05,1.945910149055313,0.011803907697763872,-0.2287785923984583,0.019230521275025187,4
1478783220,0.0,42.331633530596605,-71.109924679688319,10.0,0.0,6.4723742712416683e-06,4.2026680398854886e-05,2.4066164129814357e-05,2.6092632985040197e-05,3.605912298538931e-05,1.7917594692280547,0.011814400090971183,-0.22875441542556652,0.019145440414992183,4
1478783250,0.0,42.331633530596605,-71.109924679688319,10.0,0.0,5.0130685053036375e-06,4.2026680398854886e-05,2.5182152179045682e-05,2.8845912771260708e-05,3.3209280763033943e-05,1.945910149055313,0.011777886254631914,-0.22847400233961529,0.019117741932846027,4
1478783280,0.0,42.331633530596605,-71.109924679688319,10.0,0.0,3.66067502401577e-06,3.2692896824983896e-05,2.2039165236088819e-05,2.60961930087148e-05,3.1403275191894755e-05,1.945910149055313,0.011744467457082115,-0.22869902951767557,0.019203307736714199,4
1478783310,0.0,42.331633530596605,-71.109924679688319,10.0,0.0,3.0412780288286925e-06,3.0617846813362577e-05,2.2039165236088819e-05,2.4878782167756902e-05,2.9379262745584432e-05,1.7917594692280547,0.011805283574077367,-0.22889747440885952,0.01919825574589475,4
1478783340,0.0,42.331633530596605,-71.109924679688319,10.0,0.0,3.7212277175747492e-06,3.6262604594338257e-05,2.4835740310802429e-05,2.5475527153384515e-05,2.9535378713092581e-05,1.945910149055313,0.011848109087043871,-0.22818590061431571,0.019128976135107275,4
1478783370,0.0,42.331633530596605,-71.109924679688319,10.0,0.0,5.2622580121378954e-06,4.2439459474607997e-05,2.594314656814872e-05,2.8391954742037612e-05,3.4412579850326603e-05,1.945910149055313,0.012535055873038757,-0.23085232702809141,0.028869025108726486,4
1478783400,0.0,42.331633530596605,-71.109924679688319,10.0,0.0,6.6770891178919488e-06,4.2439459474607997e-05,1.9938826626572068e-05,2.8957930513376452e-05,3.3118432281182452e-05,1.7917594692280547,0.013996005880807016,-0.23585575556720484,0.047210763101925513,4
1478783430,0.0,42.331633530596605,-71.109924679688319,10.0,0.0,9.2583770773922244e-06,5.0012469985905671e-05,1.9938826626572068e-05,2.8606115116552111e-05,3.8220156092007494e-05,1.945910149055313,0.016496988672208186,-0.23294444681319496,0.059077887338873918,4
1478783460,0.0,42.331633530596605,-71.109924679688319,10.0,0.0,1.0910601588050091e-05,5.0012469985905671e-05,1.7201867333890811e-05,2.3064984208737192e-05,3.7485027719737256e-05,1.945910149055313,0.018197807675151573,-0.22771090943131361,0.062242795491172405,4
1478783490,0.0,42.331633530596605,-71.109924679688319,10.0,0.0,3.7898367762615198e-06,2.8296955973471982e-05,1.7201867333890811e-05,1.8469722442734493e-05,2.3552219318454552e-05,1.7917594692280547,0.018385542032650835,-0.22487409238816783,0.060038127331902218,4
1478783520,0.0,42.331633530596605,-71.109924679688319,10.0,0.0,3.6692562720095511e-06,2.8296955973471982e-05,1.7950919044615326e-05,1.9754038132276946e-05,2.592846630653225e-05,1.945910149055313,0.018292030556251417,-0.22435798550738698,0.060330038233223415,4
1478783550,0.0,42.331633530596605,-71.109924679688319,10.0,0.0,2.8216412202137062e-06,2.8341716514160617e-05,1.948194362746189e-05,2.301839258849933e-05,2.6148268134392434e-05,1.945910149055313,0.01825517388278353,-0.22338518240833127,0.060365015492074368,4
1478783580,0.0,42.331633530596605,-71.109924679688319,10.0,0.0,7.285930969895512e-06,2.8341716514160617e-05,6.8064021254970065e-06,2.2237313730992703e-05,2.6786762030862149e-05,1.7917594692280547,0.018603917474135267,-0.21677896437069052,0.067824473785535799,4
1478783610,0.0,42.331633530596605,-71.109924679688319,10.0,0.0,7.5115939501778274e-06,3.2711020969878861e-05,6.8064021254970065e-06,1.9137378473163582e-05,2.5735753731158864e-05,1.945910149055313,0.017839967295859117,-0.19589122259997901,0.065430867505741813,4
1478783640,0.0,42.331633530596605,-71.109924679688319,10.0,0.0,5.5789042299186717e-06,3.2711020969878861e-05,1.5067219051638138e-05,1.827342550126607e-05,2.4267769033294087e-05,1.945910149055313,0.016965409732424715,-0.18483935583258332,0.057944976551009532,4
1478783670,0.0,42.331633530596605,-71.109924679688319,10.0,0.0,4.0202665792228123e-06,2.693091777735806e-05,1.5067219051638138e-05,1.8910538379777717e-05,2.4484060653623242e-05,1.7917594692280547,0.016964708147771099,-0.18528549753828669,0.057962999133160137,4
1478783700,0.0,42.331633530596605,-71.109924679688319,10.0,0.0,2.0685448027381111e-06,2.6568936887543413e-05,1.9697701947826502e-05,2.3874456872753282e-05,2.537494423960019e-05,1.945910149055313,0.016939776676149283,-0.18558563628154826,0.058057594831169831,4
1478783730,0.0,42.331633530596605,-71.109924679688319,10.0,0.0,3.8487849518015494e-06,3.5593616741819307e-05,2.4382930095622747e-05,2.51572553469775e-05,2.9846906286184261e-05,1.945910149055313,0.016912421929949215,-0.18545313150454298,0.058170797088118516,4
1478783760,0.0,42.331633530596605,-71.109924679688319,10.0,0.0,3.5927997056532536e-06,3.5593616741819307e-05,2.4503922566902873e-05,2.7552288831951449e-05,3.1674388662481033e-05,1.7917594692280547,0.016924175889329134,-0.1854266285793825,0.058278233394855446,4
1478783790,0.0,42.331633530596605,-71.109924679688319,10.0,0.0,4.2352451128132642e-06,3.3480801752878306e-05,1.996673911684792e-05,2.4552325513581911e-05,2.9500217561392396e-05,1.945910149055313,0.016919506226493231,-0.18560972569009199,0.058368870173588654,4
1478783820,0.0,42.331633530596605,-71.109924679688319,10.0,0.0,4.8702845920905654e-06,3.3480801752878306e-05,1.9174443105456244e-05,2.1433610216598124e-05,2.8188467385343144e-05,1.945910149055313,0.016676676106974798,-0.18005486050466529,0.059936802859989112,4
1478783850,0.0,42.331633530596605,-71.109924679688319,10.0,0.0,5.438007504976482e-06,3.6276348610649919e-05,1.9174443105456244e-05,2.3682311608362463e-05,2.9395010817722453e-05,1.7917594692280547,0.016140735169121567,-0.169821255279026,0.062724788449776622,4
1478783880,0.0,42.331633530596605,-71.109924679688319,10.0,0.0,6.8482399076102347e-06,3.6986808553473667e-05,1.8271644549914372e-05,2.2602565607373229e-05,3.2759706447907926e-05,1.945910149055313,0.015954712936893073,-0.16664963456658385,0.063540469625584003,4
1478783910,0.0,42.331633530596605,-71.109924679688319,10.0,0.0,1.9003886719264147e-05,7.3868357524564646e-05,1.5433935265582895e-05,1.8724486640127981e-05,3.31149364193198e-05,1.945910149055313,0.016078737318630774,-0.16688834827650298,0.064395038779751002,4
1478783940,0.0,42.331633530596605,-71.109924679688319,10.0,0.0,2.1327619177885587e-05,7.3868357524564646e-05,1.5433935265582895e-05,2.0644262476792438e-05,5.1925069084872807e-05,1.7917594692280547,0.017684462680943369,-0.17176117902159915,0.059172397582032001,4
1478783970,0.0,42.331633530596605,-71.109924679688319,10.0,0.0,1.1706944833925199e-05,5.6368531109990066e-05,2.0902439601043465e-05,2.3566883981047264e-05,3.3197189891009066e-05,1.945910149055313,0.019324584954577045,-0.17588103123773516,0.053051211769282083,4
1478784000,0.0,42.331633530596605,-71.109924679688319,10.0,0.0,4.6415328759895474e-06,2.9148770933428183e-05,1.4329522440244201e-05,2.3566883981047264e-05,2.7832731853790698e-05,1.945910149055313,0.019434166138942072,-0.17555626604162361,0.053240886267643936,4
1478784030,0.0,42.331633530596605,-71.109924679688319,10.0,0.0,6.0666579065665213e-06,2.9148770933428183e-05,1.3890444020644279e-05,1.5110019887094839e-05,2.5800781622162556e-05,1.7917594692280547,0.019420381722550503,-0.17546339136971367,0.053361010885710963,4
1478784060,0.0,42.331633530596605,-71.109924679688319,10.0,0.0,3.1943115584727471e-06,2.32014787081586e-05,1.3890444020644279e-05,1.8528668955522018e-05,2.2512056819807367e-05,1.945910149055313,0.019417120288410573,-0.17587005636980674,0.053427147552215858,4
1478784090,0.0,42.331633530596605,-71.109924679688319,10.0,0.0,3.6704121525677608e-06,2.32014787081586e-05,1.4627377459210019e-05,1.5548261933182203e-05,2.2512056819807367e-05,1.945910149055313,0.019409856864023658,-0.17604135497065057,0.053495868462911038,4
1478784120,0.0,42.331633530596605,-71.109924679688319,10.0,0.0,7.3705712571649881e-06,3.091968137558711e-05,7.9986320601277815e-06,1.4760048226476802e-05,2.1944629472519951e-05,1.7917594692280547,0.019417243603006482,-0.17587947638835966,0.053504819911570689,4
1478784150,0.0,42.331633530596605,-71.109924679688319,10.0,0.0,6.8805085223665093e-06,3.091968137558711e-05,7.9986320601277815e-06,2.1847716657206943e-05,2.6607733976431097e-05,1.945910149055313,0.019399619891302258,-0.17565922717061117,0.05347132522062531,4
1478784180,0.0,42.331633530596605,-71.109924679688319,10.0,0.0,4.7723506757508466e-06,2.9268783102198012e-05,1.2265409707532669e-05,2.062141707964896e-05,2.3877798157106175e-05,1.945910149055313,0.019401620423104126,-0.17547482015795243,0.053482007030673649,4
1478784210,0.0,42.331633530596605,-71.109924679688319,10.0,0.0,3.7477688236166959e-06,2.405869693549431e-05,1.2265409707532669e-05,1.825802734262801e-05,2.1677149109416474e-05,1.7917594692280547,0.019389516776435901,-0.17562654352731247,0.053506656888537257,4
1478784240,0.0,42.331633530596605,-71.109924679688319,10.0,0.0,3.7041388548377456e-06,2.7581988608197559e-05,1.7127650194598252e-05,1.9207813893289083e-05,2.5150943917967719e-05,1.945910149055313,0.019338103664925329,-0.17607041159104,0.053499715011214602,4
1478784270,0.0,42.331633530596605,-71.109924679688319,10.0,0.0,3.1728835926316167e-06,2.7581988608197559e-05,1.7127650194598252e-05,2.2142157601344165e-05,2.5150943917967719e-05,1.945910149055313,0.019369524628161602,-0.17617833318475618,0.053493437875995496,4
1478784300,0.0,42.331633530596605,-71.109924679688319,10.0,0.0,1.7220065722898254e-06,2.3864446033267928e-05,1.9560503278497079e-05,2.0607606743566245e-05,2.3685726761451954e-05,1.7917594692280547,0.019412115291835199,-0.17594677238585152,0.053573791380571861,4
1478784330,0.0,42.331633530596605,-71.109924679688319,10.0,0.0,1.9297550496581366e-06,2.5059264819078218e-05,1.9560503278497079e-05,2.0334994595392291e-05,2.3124521089828111e-05,1.945910149055313,0.019437640070919599,-0.17569926280923615,0.053633271384434043,4
1478784360,0.0,42.331633530596605,-71.109924679688319,10.0,0.0,3.1830340436650037e-06,2.5059264819078218e-05,1.5189437413783013e-05,1.9453757523732884e-05,2.3475744068156509e-05,1.945910149055313,0.019499961034384745,-0.17586811942086131,0.053627572830420078,4
1478784390,0.0,42.331633530596605,-71.109924679688319,10.0,0.0,4.3780111187362141e-06,2.4510357153416485e-05,1.2817936419726103e-05,1.6060787680670145e-05,2.3454006539526912e-05,1.7917594692280547,0.019519482273605667,-0.17618147334055254,0.053600874906722253,4
1478784420,0.0,42.331633530596605,-71.109924679688319,10.0,0.0,5.0535070332595813e-06,2.6472159879223731e-05,1.1970581874649786e-05,1.619614987181644e-05,2.2975480666002378e-05,1.945910149055313,0.019417649059159187,-0.17679971041213399,0.053651883789178546,4
1478784450,0.0,42.331633530596605,-71.109924679688319,10.0,0.0,4.110951741954753e-06,2.6472159879223731e-05,1.1970581874649786e-05,1.964008634799815e-05,2.2345308500637095e-05,1.945910149055313,0.019355981980117943,-0.17716433589813341,0.053723149165999358,4
1478784480,0.0,42.331633530596605,-71.109924679688319,10.0,0.0,4.58580360407501e-06,2.6817830409912997e-05,1.4021341359855772e-05,1.5689781962209352e-05,2.2695553548150367e-05,1.7917594692280547,0.019374138638040616,-0.17712652397221498,0.053740647071450959,4
1478784510,0.0,42.331633530596605,-71.109924679688319,10.0,0.0,3.1015547765713187e-05,0.00010699278312401839,1.1652240567006931e-05,1.4186223759385867e-05,2.7814523862334664e-05,1.945910149055313,0.018479306743355156,-0.17539880083352413,0.042292771156575655,4
1478784540,0.0,42.331633530596605,-71.109924679688319,10.0,0.0,3.1020427372174682e-05,0.00010699278312401839,1.1652240567006931e-05,1.7052043211602047e-05,4.0347675455976916e-05,1.945910149055313,0.018364712874594531,-0.17428239255782543,0.028850147099539303,4
1478784570,0.0,42.331633530596605,-71.109924679688319,10.0,0.0,1.3278188193823329e-05,5.1884133597197507e-05,1.1248499970752338e-05,1.6350629806907568e-05,2.247103153041933e-05,1.7917594692280547,0.01908049655860453,-0.17503116376473518,0.022157997484431632,4
1478784600,0.0,42.331633530596605,-71.109924679688319,10.0,0.0,7.6886760216772934e-06,3.8403926894123545e-05,1.1248499970752338e-05,1.8899785620294066e-05,2.1754538210959262e-05,1.945910149055313,0.019044611009443758,-0.17553270823032713,0.021841041570919956,4
1478784630,0.0,42.331633530596605,-71.109924679688319,10.0,0.0,6.9636601838315594e-06,3.8403926894123545e-05,1.6794294431188142e-05,1.8899785620294066e-05,2.6091136802304556e-05,1.945910149055313,0.019061044349733772,-0.17559321549919832,0.021665435611339146,4
1478784660,0.0,42.331633530596605,-71.109924679688319,10.0,0.0,5.5975459224962052e-06,2.7645300387249201e-05,1.0644476968909032e-05,1.6499349218612923e-05,2.3524407700998735e-05,1.7917594692280547,0.019019071007929003,-0.17536405990906054,0.021502114825610485,4
1478784690,0.0,42.331633530596605,-71.109924679688319,10.0,0.0,7.7914520255968107e-06,3.4786845056854085e-05,1.0644476968909032e-05,1.5636193378213806e-05,2.4393159376149659e-05,1.945910149055313,0.018983188081913484,-0.17502449204799428,0.021404325652988904,4
1478784720,0.0,42.331633530596605,-71.109924679688319,10.0,0.0,6.4495045368871325e-06,3.4786845056854085e-05,1.4871352608673094e-05,1.9013625446024916e-05,2.7768245881835233e-05,1.945910149055313,0.018941979539725158,-0.17476827833303529,0.021302271642776871,4
1478784750,0.0,42.331633530596605,-71.109924679688319,10.0,0.0,4.3345809050695266e-06,3.3255102975624704e-05,2.0661828628547628e-05,2.1606129331957635e-05,2.6868729246392677e-05,1.7917594692280547,0.018952357403709718,-0.17429085020848348,0.02115644574610558,4
1478784780,0.0,42.331633530596605,-71.109924679688319,10.0,0.0,2.1089065174469338e-05,8.0707154843271666e-05,1.4545248040968441e-05,1.8908802122473127e-05,2.9509683735668152e-05,1.945910149055313,0.017918781777222226,-0.17653198838180884,0.022691587415392126,4
1478784810,0.0,42.331633530596605,-71.109924679688319,10.0,0.0,2.2145050220646003e-05,8.0707154843271666e-05,1.3127542666888627e-05,1.5850511828683534e-05,2.2832662104319478e-05,1.945910149055313,0.016767246000526117,-0.17866050503696815,0.024309092179672399,4
1478784840,0.0,42.331633530596605,-71.109924679688319,10.0,0.0,2.9222013842725829e-06,2.1041339472670678e-05,1.3127542666888627e-05,1.3736388988731143e-05,1.8182942062972939e-05,1.7917594692280547,0.016346854553305565,-0.17906932052276581,0.024873581492916148,4
1478784870,0.0,42.331633530596605,-71.109924679688319,10.0,0.0,3.1173372094652443e-06,2.1420170923460367e-05,1.0617721093254218e-05,1.4229937320443208e-05,1.6517371116121681e-05,1.945910149055313,0.016298261395587703,-0.17879621247397456,0.024879500878273002,4
1478784900,0.0,42.331633530596605,-71.109924679688319,10.0,0.0,4.6431752442897321e-06,2.4744131350233599e-05,1.0617721093254218e-05,1.4814193359938572e-05,2.1826816985511382e-05,1.945910149055313,0.016224894638935828,-0.17863832120297637,0.024856531192915039,4
1478784930,0.0,42.331633530596605,-71.109924679688319,10.0,0.0,5.885044699551997e-06,2.9921627621366022e-05,1.3390204211393522e-05,1.6205497331887754e-05,2.4581707234981317e-05,1.7917594692280547,0.016191936126997469,-0.17866172887773368,0.024866188607414751,4
1478784960,0.0,42.331633530596605,-71.109924679688319,10.0,0.0,5.9356225373317348e-06,2.9921627621366022e-05,1.3390204211393522e-05,1.6118010761365073e-05,2.6133639807905812e-05,1.945910149055313,0.016147256256286383,-0.17897220055606153,0.024943979470576839,4
1478784990,0.0,42.331633530596605,-71.109924679688319,10.0,0.0,4.0311541105608639e-06,2.8172844726587145e-05,1.5482418553766914e-05,1.662639710566698e-05,2.1244304513639692e-05,1.945910149055313,0.01615594667733157,-0.17909340914063615,0.024996001961379327,4
1478785020,0.0,42.331633530596605,-71.109924679688319,10.0,0.0,5.2134481167642647e-06,3.0385603513887609e-05,1.4892062706074978e-05,1.6339660897509307e-05,2.1017231533208095e-05,1.7917594692280547,0.016195877021228666,-0.17896716820130418,0.025014988366192949,4
1478785050,0.0,42.331633530596605,-71.109924679688319,10.0,0.0,6.7736425396670199e-06,3.0385603513887609e-05,7.2537252563992183e-06,1.4943167523104671e-05,2.1737043829488906e-05,1.945910149055313,0.016167848650128571,-0.17918544595909444,0.025227209724390225,4
1478785080,0.0,42.331633530596605,-71.109924679688319,10.0,0.0,7.242713776138435e-06,3.1950086119540702e-05,7.2537252563992183e-06,1.4426699377277103e-05,2.1737043829488906e-05,1.945910149055313,0.016006019871911515,-0.17853860036271044,0.025758873834490027,4
1478785110,0.0,42.331633530596605,-71.109924679688319,10.0,0.0,7.7581434831514204e-06,3.1950086119540702e-05,1.1706388228007657e-05,1.4080307285856129e-05,2.6938591501500688e-05,1.7917594692280547,0.015738944314692901,-0.17720073905245501,0.02634176485087528,4
1478785140,0.0,42.331633530596605,-71.109924679688319,10.0,0.0,5.1261616165375523e-06,2.919875842601989e-05,1.1706388228007657e-05,1.531725087719121e-05,1.8480126465321216e-05,1.945910149055313,0.015703345774086028,-0.17679021800827099,0.026436731558321956,4
1478785170,0.0,42.331633530596605,-71.109924679688319,10.0,0.0,3.7651659068482041e-06,2.73096966875944e-05,1.5890651854217419e-05,1.6731070265666793e-05,2.0682777263088808e-05,1.945910149055313,0.015684626740193313,-0.17712802648597942,0.026464098287689645,4
1478785200,0.0,42.331633530596605,-71.109924679688319,10.0,0.0,4.4807169188143382e-06,2.73096966875944e-05,1.3447838715784956e-05,1.7222100655533078e-05,2.2544521044164476e-05,1.7917594692280547,0.015605478898329634,-0.177702877899763,0.026541026687727166,4
1478785230,0.0,42.331633530596605,-71.109924679688319,10.0,0.0,4.6985762925647992e-06,2.2818227414742193e-05,9.3470041348447887e-06,1.4351245866256156e-05,2.1352992209676991e-05,1.945910149055313,0.015543014232856558,-0.17737371238479097,0.026573692742508672,4
1478785260,0.0,42.331633530596605,-71.109924679688319,10.0,0.0,4.3365551453612701e-06,2.2533731420403274e-05,9.3470041348447887e-06,1.3748809603712346e-05,1.9939313963200073e-05,1.945910149055313,0.015523941541454431,-0.1772266393512047,0.026569485198707474,4
1478785290,0.0,42.331633530596605,-71.109924679688319,10.0,0.0,5.3647784597422581e-06,2.8688010705142634e-05,1.2242966190697337e-05,1.7981895667248789e-05,2.4626471987870473e-05,1.7917594692280547,0.015525596515487768,-0.17712657259562584,0.02659797952445855,4
1478785320,0.0,42.331633530596605,-71.109924679688319,10.0,0.0,7.2166397274923568e-06,2.9774560959386686e-05,1.0142415527586317e-05,1.5203088628089327e-05,2.683793615790165e-05,1.945910149055313,0.015490922433985869,-0.17691267484127998,0.026621614434464213,4
1478785350,0.0,42.331633530596605,-71.109924679688319,10.0,0.0,6.6464819171254491e-06,2.9774560959386686e-05,1.0142415527586317e-05,1.1917066189359228e-05,2.0223685626128218e-05,1.945910149055313,0.015471694410798469,-0.17705904325748115,0.0266274674192673,4
1478785380,0.0,42.331633530596605,-71.109924679688319,10.0,0.0,4.6364316932115311e-06,2.2000765422834177e-05,7.9046506697805074e-06,1.1670095816521243e-05,1.6511507648250166e-05,1.7917594692280547,0.015540569054357281,-0.17667333542707234,0.026592315548418132,4
1478785410,0.0,42.331633530596605,-71.109924679688319,10.0,0.0,7.2886055656499196e-06,3.1525724255011501e-05,7.9046506697805074e-06,1.35440816834797e-05,2.2423271925107233e-05,1.945910149055313,0.015635035285558357,-0.17612104689503658,0.026596053578626599,4
1478785440,0.0,42.331633530596605,-71.109924679688319,10.0,0.0,5.9080209466811301e-06,3.1525724255011501e-05,1.3512077478847547e-05,1.5187335997470663e-05,2.2423271925107233e-05,1.945910149055313,0.015632941021356213,-0.17640394308989343,0.026597618512733987,4
1478785470,0.0,42.331633530596605,-71.109924679688319,10.0,0.0,4.2501461675282365e-06,2.4366152857398736e-05,1.0497295365473341e-05,1.3856170458974719e-05,1.6532536228505569e-05,1.7917594692280547,0.015594927924887265,-0.17682498703793215,0.026582515271710933,4
1478785500,0.0,42.331633530596605,-71.109924679688319,10.0,0.0,4.9151997564861236e-06,2.4366152857398736e-05,1.0497295365473341e-05,1.4205921358688038e-05,2.1965682275143172e-05,1.945910149055313,0.015541275151499128,-0.17696449037919884,0.026644462358273328,4
1478785530,0.0,42.331633530596605,-71.109924679688319,10.0,0.0,4.835974939225729e-06,2.396201071542691e-05,1.0299122286316204e-05,1.4886311852517818e-05,2.1965682275143172e-05,1.945910149055313,0.015550337733884216,-0.177215158466419,0.026641819554616784,4
1478785560,0.0,42.331633530596605,-71.109924679688319,10.0,0.0,4.1156013087141878e-06,2.396201071542691e-05,1.0299122286316204e-05,1.6672372772642529e-05,1.9536221280327745e-05,1.7917594692280547,0.015572025074882217,-0.17768348923826616,0.026560457188531783,4
1478785590,0.0,42.331633530596605,-71.109924679688319,10.0,0.0,3.2932055185119471e-06,2.6665584048772818e-05,1.641219129869938e-05,1.7908727749211566e-05,2.1872871892286854e-05,1.945910149055313,0.015502163194663942,-0.17734344947001413,0.026579671166231202,4
1478785620,0.0,42.331633530596605,-71.109924679688319,10.0,0.0,2.6680430114243609e-06,2.6665584048772818e-05,1.836453830395115e-05,2.0441757319247796e-05,2.4034067595959351e-05,1.945910149055313,0.015490862782243113,-0.1768456574095747,0.026615501682044827,4
1478785650,0.0,42.331633530596605,-71.109924679688319,10.0,0.0,1.2422279544984416e-05,4.925039112243118e-05,1.1589604137831016e-05,1.5029553441447069e-05,2.4092422914865741e-05,1.7917594692280547,0.0156293818250474,-0.17589297546626081,0.025348828088478919,4
1478785680,0.0,42.331633530596605,-71.109924679688319,10.0,0.0,1.2635760947956156e-05,4.925039112243118e-05,1.1589604137831016e-05,1.3383483836806549e-05,2.2885513853557976e-05,1.945910149055313,0.015698022015232228,-0.1745345094382027,0.02439094699199194,4
1478785710,0.0,42.331633530596605,-71.109924679688319,10.0,0.0,5.3307463575357873e-06,2.8422288510904434e-05,1.3477289063127506e-05,1.4101523057581049e-05,2.2746128574088288e-05,1.945910149055313,0.015784808723399085,-0.17423633875561256,0.024490079645874185,4
1478785740,0.0,42.331633530596605,-71.109924679688319,10.0,0.0,4.7158153879718482e-06,2.3599106870404967e-05,1.1344230131389295e-05,1.5328768351869152e-05,2.3070931572420259e-05,1.7917594692280547,0.015933284246669583,-0.17451460087426865,0.024352606709613481,4
1478785770,0.0,42.331633530596605,-71.109924679688319,10.0,0.0,4.6812492402410834e-06,2.3599106870404967e-05,1.1344230131389295e-05,1.2892670252707048e-05,2.1204398282030415e-05,1.945910149055313,0.01584260523763404,-0.17434199338948342,0.024337168641657445,4
1478785800,0.0,42.331633530596605,-71.109924679688319,10.0,0.0,3.7646931346103741e-06,2.3177380654149211e-05,1.21301959315917e-05,1.5184160172006554e-05,2.0270344693146185e-05,1.945910149055313,0.01581198111728143,-0.17397633285454644,0.024330903309143569,4
1478785830,0.0,42.331633530596605,-71.109924679688319,10.0,0.0,4.4754758427618977e-06,2.2214137008896186e-05,8.3598900960872502e-06,1.711651992199208e-05,2.0312299754922298e-05,1.7917594692280547,0.015870001397945151,-0.17393852470127116,0.024354608550646552,4
1478785860,0.0,42.331633530596605,-71.109924679688319,10.0,0.0,4.7632404622663749e-06,2.0648662128120473e-05,8.3598900960872502e-06,1.1269698978566789e-05,1.8823162142238444e-05,1.945910149055313,0.01590681133061999,-0.17425235967729913,0.024293101645742343,4
1478785890,0.0,42.331633530596605,-71.109924679688319,10.0,0.0,4.7716494007147525e-06,2.3376193438341657e-05,8.4598725927324978e-06,1.3849422588827882e-05,2.0055778130978309e-05,1.945910149055313,0.015891619262119898,-0.17461011098928014,0.02431066026225737,4
1478785920,0.0,42.331633530596605,-71.109924679688319,10.0,0.0,4.6337681521931558e-06,2.3376193438341657e-05,1.0115759879521204e-05,1.3911753968842056e-05,2.0904867477184207e-05,1.7917594692280547,0.015870440393896682,-0.17483557638813699,0.024355543245905952,4
1478785950,0.0,42.331633530596605,-71.109924679688319,10.0,0.0,3.0120957688007742e-06,1.9924907730738016e-05,1.0115759879521204e-05,1.5986856484418021e-05,1.8209536915472282e-05,1.945910149055313,0.015978015341294356,-0.17489203985309357,0.024287179507639804,4
1478785980,0.0,42.331633530596605,-71.109924679688319,10.0,0.0,1.4186207417545346e-06,1.9924907730738016e-05,1.5771371016129771e-05,1.7039667183174089e-05,1.899042814861375e-05,1.945910149055313,0.015968905902273685,-0.17506921211703655,0.024135525558606152,4
1478786010,0.0,42.331633530596605,-71.109924679688319,10.0,0.0,2.6113963762562267e-06,1.9875918536597229e-05,1.165790558414083e-05,1.5866172010423741e-05,1.832014637435149e-05,1.7917594692280547,0.015857838282040668,-0.17512477732244033,0.023932352222094718,4
1478786040,0.0,42.331633530596605,-71.109924679688319,10.0,0.0,6.6828306502232396e-06,2.9314642498195618e-05,6.3299792351094474e-06,1.2815861825076517e-05,1.921102956921133e-05,1.945910149055313,0.015947552713000544,-0.1749029026937437,0.023849810208295082,4
1478786070,0.0,42.331633530596605,-71.109924679688319,10.0,0.0,7.6564605747568788e-06,2.9851983434770141e-05,6.3299792351094474e-06,1.6800287324835824e-05,2.5570777957792628e-05,1.945910149055313,0.01597582978954323,-0.1749546856768493,0.02380722355170483,4
1478786100,0.0,42.331633530596605,-71.109924679688319,10.0,0.0,5.0682915358140085e-06,2.9851983434770141e-05,1.3733728303330468e-05,1.7014648824875175e-05,2.1430696517463907e-05,1.7917594692280547,0.015966962788215137,-0.17551067133050316,0.023765537151396551,4
1478786130,0.0,42.331633530596605,-71.109924679688319,10.0,0.0,4.034649448469541e-06,2.7064089457083536e-05,1.3733728303330468e-05,1.637029810140879e-05,2.0464206011203721e-05,1.945910149055313,0.015945459952237426,-0.17546815541423641,0.023727014942810733,4
1478786160,0.0,42.331633530596605,-71.109924679688319,10.0,0.0,4.0713502891153855e-06,2.7064089457083536e-05,1.4403153820824702e-05,1.5989519947955349e-05,1.9789925722978874e-05,1.945910149055313,0.015961035034929544,-0.17508591628119902,0.023677311692006913,4
1478786190,0.0,42.331633530596605,-71.109924679688319,10.0,0.0,5.5530434318436564e-06,2.874309060351856e-05,1.2638184467446181e-05,1.4665266954862088e-05,2.1055490630392543e-05,1.7917594692280547,0.016044339279168398,-0.17505749756295333,0.023656296915424452,4
1478786220,0.0,42.331633530596605,-71.109924679688319,10.0,0.0,7.6224950758541433e-06,2.874309060351856e-05,6.413801743781141e-06,1.1091244360347448e-05,2.3192078723456449e-05,1.945910149055313,0.015939628948957816,-0.17474275900043987,0.023790044924323628,4
1478786250,0.0,42.331633530596605,-71.109924679688319,10.0,0.0,6.2606959082798445e-06,2.3854738188469108e-05,6.413801743781141e-06,1.2466430615171109e-05,2.1782603985968264e-05,1.945910149055313,0.015962660120428827,-0.17430166204365058,0.023700212179401329,4
1478786280,0.0,42.331633530596605,-71.109924679688319,10.0,0.0,4.0203426504616734e-06,2.3845970540204759e-05,1.1745851119206873e-05,1.6236846143314752e-05,2.1324295742843915e-05,1.7917594692280547,0.016082942806486349,-0.1741292718104813,0.023462749187421316,4
1478786310,0.0,42.331633530596605,-71.109924679688319,10.0,0.0,3.5855017448159115e-06,2.1708400029577161e-05,1.1745851119206873e-05,1.3367306612729468e-05,1.9161425628053596e-05,1.945910149055313,0.016085814801974688,-0.17412826980347526,0.023443775171990641,4
1478786340,0.0,42.331633530596605,-71.109924679688319,10.0,0.0,1.0001291376816617e-05,4.1002614541652353e-05,1.0816757089871311e-05,1.3367306612729468e-05,2.3218252075242844e-05,1.945910149055313,0.016117859760659214,-0.1742281359504084,0.023019691434363745,4
1478786370,0.0,42.331633530596605,-71.109924679688319,10.0,0.0,1.137059080622467e-05,4.1002614541652353e-05,1.0529418017835599e-05,1.0690651741787642e-05,2.6880713694233584e-05,1.7917594692280547,0.016221357851217519,-0.17452462900844301,0.022390581117593965,4
1478786400,0.0,42.331633530596605,-71.109924679688319,10.0,0.0,4.7105904931814696e-06,2.2759686309615967e-05,1.0529418017835599e-05,1.2094481565190519e-05,1.9487762443388967e-05,1.945910149055313,0.016273634161744186,-0.17505173772952642,0.022278500156239518,4
1478786430,0.0,42.331633530596605,-71.109924679688319,10.0,0.0,3.8797264259204291e-06,2.2759686309615967e-05,9.6153120590367941e-06,1.4417253181721666e-05,1.8531146273484291e-05,1.945910149055313,0.01623849310021926,-0.17544296261587183,0.022234709371571699,4
1478786460,0.0,42.331633530596605,-71.109924679688319,10.0,0.0,5.5856405171415763e-06,2.7850651674905221e-05,9.6153120590367941e-06,1.6512610395941217e-05,2.1494189747467163e-05,1.7917594692280547,0.016182941980088482,-0.17586134097141667,0.022220023274670039,4
1478786490,0.0,42.331633530596605,-71.109924679688319,10.0,0.0,6.6444407701673972e-06,2.7850651674905221e-05,8.3743336897948101e-06,1.2299048965280431e-05,2.1722854480447099e-05,1.945910149055313,0.016160749971817986,-0.17589220475869688,0.022150008597332616,4
1478786520,0.0,42.331633530596605,-71.109924679688319,10.0,0.0,5.5583925970565506e-06,2.2621174849835313e-05,8.3743336897948101e-06,8.8785458531495902e-06,1.8713652195192385e-05,1.945910149055313,0.016165243802820615,-0.17565879151864813,0.022106437187826043,4
1478786550,0.0,42.331633530596605,-71.109924679688319,10.0,0.0,4.2690110309477186e-06,2.2621174849835313e-05,9.1483735811715599e-06,1.2281337505634134e-05,1.6497601563590555e-05,1.7917594692280547,0.016173360703725079,-0.17559650575157568,0.022079101465224515,4
1478786580,0.0,42.331633530596605,-71.109924679688319,10.0,0.0,5.7950600700281367e-06,3.0098115174947107e-05,1.2160024623472627e-05,1.5281844372074062e-05,2.029853135564164e-05,1.945910149055313,0.01614349192355374,-0.17602270777346832,0.022076881283098388,4
1478786610,0.0,42.331633530596605,-71.109924679688319,10.0,0.0,5.1680973495402234e-06,3.0098115174947107e-05,1.5224620941739216e-05,1.5347347543800315e-05,2.2679490525340653e-05,1.945910149055313,0.016111273443815726,-0.17617567424935715,0.022089226420522242,4
1478786640,0.0,42.331633530596605,-71.109924679688319,10.0,0.0,2.681990966390364e-06,2.1633519743608836e-05,1.4474853701301036e-05,1.5202502846871629e-05,1.9559149804899897e-05,1.7917594692280547,0.016098788635571366,-0.17571010200296033,0.022060815072696315,4
1478786670,0.0,42.331633530596605,-71.109924679688319,10.0,0.0,4.0777236176832934e-06,2.5856018896010348e-05,1.2952055882251741e-05,1.4813157534366318e-05,1.9733452632250608e-05,1.945910149055313,0.016069826434368984,-0.17492896328718985,0.022096858237382784,4
1478786700,0.0,42.331633530596605,-71.109924679688319,10.0,0.0,5.2213824880197974e-06,2.5856018896010348e-05,9.9918474368406018e-06,1.4482546877923963e-05,2.1538274149411068e-05,1.945910149055313,0.016075291007319616,-0.17489152532726801,0.022111400724671527,4
1478786730,0.0,42.331633530596605,-71.109924679688319,10.0,0.0,6.6462070866486549e-06,2.8213930352704658e-05,9.9918474368406018e-06,1.1561520343258322e-05,2.2162487650218782e-05,1.7917594692280547,0.016179510759979903,-0.17517915406606252,0.02207219450706412,4
1478786760,0.0,42.331633530596605,-71.109924679688319,10.0,0.0,6.5533098235957117e-06,2.8213930352704658e-05,5.6725583808971594e-06,1.1436014453202173e-05,1.6806025821191771e-05,1.945910149055313,0.016089544779100958,-0.17497064819997443,0.022286218644362355,4
1478786790,0.0,42.331633530596605,-71.109924679688319,10.0,0.0,6.7666207775738335e-06,2.9256158684135302e-05,5.6725583808971594e-06,1.3157450176890099e-05,1.7968035278941001e-05,1.945910149055313,0.015943084538847758,-0.17498569651216758,0.022523440183800959,4
1478786820,0.0,42.331633530596605,-71.109924679688319,10.0,0.0,5.3917553660869351e-06,2.9256158684135302e-05,1.3520552613854888e-05,1.4311903706999605e-05,1.972706932864994e-05,1.7917594692280547,0.015919013867232084,-0.17519144450104016,0.022637493165923214,4
1478786850,0.0,42.331633530596605,-71.109924679688319,10.0,0.0,1.6538883548253964e-06,1.7781868847318302e-05,1.2624677505206464e-05,1.471279487824124e-05,1.6735293022767757e-05,1.945910149055313,0.015908660774128541,-0.17526294760670269,0.022690398708541188,4
1478786880,0.0,42.331633530596605,-71.109924679688319,10.0,0.0,4.1218225203759332e-06,2.2344928669501235e-05,8.1593091897990919e-06,1.4155307208235111e-05,1.7578059972759889e-05,1.945910149055313,0.015946847970405586,-0.17570360278019859,0.02271480238314863,4
1478786910,0.0,42.331633530596605,-71.109924679688319,10.0,0.0,6.5026297702692426e-06,2.36235188451213e-05,6.6435467339243264e-06,9.7142229808913845e-06,2.1309253617022507e-05,1.7917594692280547,0.015963538363348264,-0.17637706150078916,0.02268768713499927,4
1478786940,0.0,42.331633530596605,-71.109924679688319,10.0,0.0,4.8973498419545142e-06,2.36235188451213e-05,6.6435467339243264e-06,1.3023312948070714e-05,1.7292200956261996e-05,1.945910149055313,0.015999843056371497,-0.176235296720054,0.022625160150803885,4
1478786970,0.0,42.331633530596605,-71.109924679688319,10.0,0.0,4.1531315735134139e-06,2.4916979255229307e-05,1.1667661541973169e-05,1.5571020277071963e-05,1.9901998140123381e-05,1.945910149055313,0.01599172934060613,-0.17593355398536331,0.022647126143610474,4
1478787000,0.0,42.331633530596605,-71.109924679688319,10.0,0.0,4.6496924166702345e-06,2.4916979255229307e-05,1.1297241986125086e-05,1.4872886457208159e-05,2.0727534198429185e-05,1.7917594692280547,0.015936689877038449,-0.17582157565933984,0.022689575785179748,4
1478787030,0.0,42.331633530596605,-71.109924679688319,10.0,0.0,5.0535748600782761e-06,2.3907458821320994e-05,5.8173570676794989e-06,1.2618115398749449e-05,1.5930401383797996e-05,1.945910149055313,0.015992959778178516,-0.17612422259441599,0.022702415652360169,4
1478787060,0.0,42.331633530596605,-71.109924679688319,10.0,0.0,5.5571226021446675e-06,2.3907458821320994e-05,5.8173570676794989e-06,1.2943296903510667e-05,1.9449392196799034e-05,1.945910149055313,0.015972800983705411,-0.17666901797086401,0.022698659713845101,4
1478787090,0.0,42.331633530596605,-71.109924679688319,10.0,0.0,4.8667780283356953e-06,2.7495284030343726e-05,1.1947604995647526e-05,1.575415182157575e-05,2.0097030558618679e-05,1.7917594692280547,0.015951171729021701,-0.17666122768637149,0.022694542681147952,4
1478787120,0.0,42.331633530596605,-71.109924679688319,10.0,0.0,5.0779772872483033e-06,2.7495284030343726e-05,1.324495919945536e-05,1.3632118091973203e-05,1.956843617733626e-05,1.945910149055313,0.0159510036122197,-0.1762477681662187,0.022693562914238585,4
1478787150,0.0,42.331633530596605,-71.109924679688319,10.0,0.0,4.5297512850206731e-06,2.3997176675435005e-05,1.2505635108976781e-05,1.3393592855585247e-05,1.841596404990464e-05,1.945910149055313,0.0159759743429062,-0.1765494613361524,0.022647306078631857,4
1478787180,0.0,42.331633530596605,-71.109924679688319,10.0,0.0,4.6820586596800926e-06,2.3997176675435005e-05,1.1574818009850912e-05,1.2406757792988837e-05,1.8806146207579459e-05,1.7917594692280547,0.016034548574834284,-0.17636736483593465,0.022605080168971902,4
1478787210,0.0,42.331633530596605,-71.109924679688319,10.0,0.0,5.0932626336438504e-06,2.5896653650307164e-05,1.1574818009850912e-05,1.3525225641856315e-05,2.1891987825028892e-05,1.945910149055313,0.015998039342046341,-0.1758053840008986,0.022655525473076414,4
1478787240,0.0,42.331633530596605,-71.109924679688319,10.0,0.0,5.0054079080735062e-06,2.5896653650307164e-05,1.1353319870512889e-05,1.3832163094443947e-05,2.1584461659598593e-05,1.945910149055313,0.015997308300108343,-0.17567093627059285,0.022663144473071901,4
1478787270,0.0,42.331633530596605,-71.109924679688319,10.0,0.0,4.5902190698354186e-06,2.4226116570524614e-05,1.1353319870512889e-05,1.3356840112042337e-05,2.0336645565572804e-05,1.7917594692280547,0.016031287362411151,-0.17545874084670865,0.022588638745252649,4
1478787300,0.0,42.331633530596605,-71.109924679688319,10.0,0.0,4.4195161116262829e-06,2.4226116570524614e-05,1.2938813328553936e-05,1.3910084822311739e-05,2.2030449538404718e-05,1.945910149055313,0.016025920623494859,-0.17601545972386959,0.022574670607764129,4
1478787330,0.0,42.331633530596605,-71.109924679688319,10.0,0.0,6.5819806134433852e-05,0.00020756130117814166,1.2938813328553936e-05,1.5114342866935755e-05,5.0857450715857734e-05,1.945910149055313,0.017095015946562441,-0.17378835876668,0.022941509270143417,4
1478787360,0.0,42.331633530596605,-71.109924679688319,10.0,0.0,6.8476133409387121e-05,0.00020756130117814166,1.1091472946869421e-05,1.7630892437909866e-05,9.2985420296470687e-05,1.7917594692280547,0.019874686650529216,-0.15170774834824283,0.016223250534007642,4
1478787390,0.0,42.331633530596605,-71.109924679688319,10.0,0.0,3.0113250612414353e-05,9.9278982225915518e-05,1.0723501137721731e-05,1.1950402987688118e-05,1.5970129284590586e-05,1.945910149055313,0.016924980843455124,-0.12469474721648943,0.0038625179880462826,4
1478787420,0.0,42.331633530596605,-71.109924679688319,10.0,0.0,4.1855596150054328e-06,2.2493640633408196e-05,1.0288784494146016e-05,1.0673554101760695e-05,1.5857882806699403e-05,1.945910149055313,0.013615310470564228,-0.11870218222655914,-0.0002090682742525802,4
1478787450,0.0,42.331633530596605,-71.109924679688319,10.0,0.0,5.1769040204976515e-06,2.2493640633408196e-05,1.0288784494146016e-05,1.0543174344179431e-05,2.0252241322757396e-05,1.7917594692280547,0.013517111360804683,-0.11897586121659166,-0.00059543977204757823,4
1478787480,0.0,42.331633530596605,-71.109924679688319,10.0,0.0,5.4002057434523704e-06,2.5502299646666889e-05,1.037966710246454e-05,1.267940192176636e-05,2.1585865813264404e-05,1.945910149055313,0.0135102838786631,-0.11814563779979616,-0.00075166527718034941,4
1478787510,0.0,42.331633530596605,-71.109924679688319,10.0,0.0,4.884189865164596e-06,2.5502299646666889e-05,1.037966710246454e-05,1.486881664097989e-05,2.188634789259448e-05,1.945910149055313,0.01351576489552617,-0.11754438540536728,-0.00083777345397797575,4
1478787540,0.0,42.331633530596605,-71.109924679688319,10.0,0.0,4.660235027304881e-06,2.4155652575355527e-05,1.0419147162753649e-05,1.5251029440510722e-05,2.1589136290001067e-05,1.7917594692280547,0.013511162178146116,-0.11737312587853217,-0.00091698770910628256,4
1478787570,0.0,42.331633530596605,-71.109924679688319,10.0,0.0,5.4860511740781303e-06,2.4155652575355527e-05,9.9228935977745801e-06,1.1516476502776731e-05,2.1748512705958563e-05,1.945910149055313,0.01350544717857487,-0.11755351672469602,-0.00097346115797134554,4
1478787600,0.0,42.331633530596605,-71.109924679688319,10.0,0.0,4.1589848829300256e-06,2.2755749137678274e-05,9.9228935977745801e-06,1.2808958985410788e-05,1.8552098373425367e-05,1.945910149055313,0.013553133141603642,-0.11736491213674957,-0.0010491512163212158,4
1478787630,0.0,42.331633530596605,-71.109924679688319,10.0,0.0,5.2630489080968711e-06,2.7391742985961976e-05,1.1750497224263239e-05,1.3617523738263636e-05,2.0028946861960741e-05,1.7917594692280547,0.01361255000964375,-0.11734174520301283,-0.0010873651060057399,4
1478787660,0.0,42.331633530596605,-71.109924679688319,10.0,0.0,6.1144418672053451e-06,2.7391742985961976e-05,1.009883437347714e-05,1.1368242601685503e-05,2.1328773298480402e-05,1.945910149055313,0.01364238233394453,-0.11764925162346428,-0.0011391010288055617,4
1478787690,0.0,42.331633530596605,-71.109924679688319,10.0,0.0,5.3478215281154904e-06,2.4201968887876343e-05,1.009883437347714e-05,1.1108107157032789e-05,1.9949408274159809e-05,1.945910149055313,0.01366757537843937,-0.11756789702533228,-0.0012320149111351385,4
1478787720,0.0,42.331633530596605,-71.109924679688319,10.0,0.0,4.9047647996028214e-06,2.4201968887876343e-05,9.8033945716171998e-06,1.2107464881071898e-05,1.9002519286798602e-05,1.7917594692280547,0.013680796725514699,-0.11726981837822618,-0.0012556301109965899,4
1478787750,0.0,42.331633530596605,-71.109924679688319,10.0,0.0,3.7707330057443683e-06,1.9536754903467117e-05,8.6222039035807415e-06,1.0469237905954178e-05,1.6435713802431694e-05,1.945910149055313,0.013661443940886586,-0.11740368975523471,-0.0012666279295247302,4
1478787780,0.0,42.331633530596605,-71.109924679688319,10.0,0.0,3.3157492041077833e-06,1.7236771239350753e-05,7.4007265033658499e-06,9.8786425719359503e-06,1.4837797831475482e-05,1.945910149055313,0.013662337289233901,-0.117682965226253,-0.0013409671509176529,4
1478787810,0.0,42.331633530596605,-71.109924679688319,10.0,0.0,5.3786812936348102e-06,2.3555163562162546e-05,7.4007265033658499e-06,1.483251834637873e-05,2.1203467886797892e-05,1.7917594692280547,0.013652916655057414,-0.11791652659011899,-0.001410118118458945,4
1478787840,0.0,42.331633530596605,-71.109924679688319,10.0,0.0,4.9950830147716058e-06,2.3555163562162546e-05,1.051801936890392e-05,1.4009628636133055e-05,2.2610278182119127e-05,1.945910149055313,0.0136800185936026,-0.11800926562407245,-0.0013981011561795,4
1478787870,0.0,42.331633530596605,-71.109924679688319,10.0,0.0,5.2916735760192255e-06,2.2694856261624643e-05,5.3389000665187618e-06,1.0680945946024005e-05,1.7001742928465074e-05,1.945910149055313,0.013726775399307599,-0.11772405443360257,-0.0014118433392867544,4
1478787900,0.0,42.331633530596605,-71.109924679688319,10.0,0.0,4.6389016631286579e-06,1.8665630546883812e-05,5.3389000665187618e-06,9.5164200001533254e-06,1.6393610617969904e-05,1.7917594692280547,0.013775824268331535,-0.11763862533818369,-0.0014579875283559798,4
1478787930,0.0,42.331633530596605,-71.109924679688319,10.0,0.0,3.7731775377073224e-06,2.165686297507953e-05,9.0739358258230699e-06,1.4252612907588216e-05,1.8276779609388486e-05,1.945910149055313,0.013781145466036827,-0.117875420875012,-0.0014668165510815041,4
1478787960,3.509872784782929,42.331632210446855,-71.109925640813216,10.0,0.058497879746382146,2.3475636962250967e-06,2.165686297507953e-05,1.5455398500940922e-05,1.5740247725340202e-05,1.9356342014694017e-05,1.945910149055313,0.013775959913900343,-0.11779628011842927,-0.001486360116937544,4
1478787990,3.509872784782929,42.331612408200606,-71.109940057686643,10.0,0.058497879746382146,3.24538795345853e-06,2.0824755357494875e-05,1.2028867308435934e-05,1.3767493583617756e-05,1.9254634301724791e-05,1.7917594692280547,0.013799885325719184,-0.11788868808808466,-0.0015539728901921802,4
1478788020,0.0,42.331593926104105,-71.109953513435201,10.0,0.0,3.5965133759786294e-06,2.1507155158308022e-05,1.2028867308435934e-05,1.3647170132817028e-05,2.0207075072979447e-05,1.945910149055313,0.013837212756353559,-0.11805658046071529,-0.0015724295299049272,4
1478788050,0.0,42.331593926104105,-71.109953513435201,10.0,0.0,3.5782101148815317e-06,2.2222489876762411e-05,1.3567329484718794e-05,1.4114173874632771e-05,2.0965540702771653e-05,1.945910149055313,0.013879790814690743,-0.11814958027570456,-0.0015522877967691273,4
1478788080,0.0,42.331593926104105,-71.109953513435201,10.0,0.0,3.3322476401770067e-06,2.2222489876762411e-05,1.2552237357010029e-05,1.322223232318294e-05,1.3938222486760465e-05,1.7917594692280547,0.013874143490556184,-0.11800111554573534,-0.0015716914742141934,4
1478788110,0.0,42.331593926104105,-71.109953513435201,10.0,0.0,2.3105509602950617e-06,1.7451564341893325e-05,9.5149476036777315e-06,1.2631212174365181e-05,1.4544646495957092e-05,1.945910149055313,0.013844894956402214,-0.11802250944460957,-0.0015578137012093286,4
1478788140,0.0,42.331593926104105,-71.109953513435201,10.0,0.0,4.4977385239474998e-06,2.5263645745235189e-05,9.5149476036777315e-06,1.4130422728755573e-05,1.7216288767768661e-05,1.945910149055313,0.013891803721178457,-0.11843914230000027,-0.0015826008865608373,4
1478788170,0.0,42.331593926104105,-71.109953513435201,10.0,0.0,3.3621809324838757e-06,2.5263645745235189e-05,1.6308880454365804e-05,1.724942049889655e-05,2.2070214224744034e-05,1.7917594692280547,0.01391686227018075,-0.11863228549869649,-0.0016089202965421069,4
1478788200,0.0,42.331593926104105,-71.109953513435201,10.0,0.0,6.3792688376597484e-06,2.8669757980631107e-05,6.0127403153536048e-06,1.7590591320832837e-05,2.0894912899067911e-05,1.945910149055313,0.013887769055784271,-0.11834537540753856,-0.0016060386358713046,4
1478788230,0.0,42.331593926104105,-71.109953513435201,10.0,0.0,6.4959836631455074e-06,2.8669757980631107e-05,6.0127403153536048e-06,1.2541889897493194e-05,1.7789727561313397e-05,1.945910149055313,0.013906307260688529,-0.11830886353445884,-0.0016271070287258885,4
1478788260,0.0,42.331593926104105,-71.109953513435201,10.0,0.0,4.1173584526821972e-06,2.2763950029056866e-05,1.113918607020296e-05,1.2713912560667083e-05,1.8754141856767137e-05,1.7917594692280547,0.013932563087815049,-0.11837606958105749,-0.0016400876405027248,4
1478788290,0.0,42.331593926104105,-71.109953513435201,10.0,0.0,6.2295794765592901e-06,2.6471018510600402e-05,9.4306108350929301e-06,1.2760307397323655e-05,2.3785884818677118e-05,1.945910149055313,0.013888030844634672,-0.11814869326798642,-0.0016516651362304814,4
1478788320,0.0,42.331593926104105,-71.109953513435201,10.0,0.0,5.5579465427977384e-06,2.6471018510600402e-05,9.4306108350929301e-06,1.5258247994624194e-05,2.2205304529966048e-05,1.945910149055313,0.013899280337568086,-0.11794774537322186,-0.0016598799703437302,4
1478788350,0.0,42.331593926104105,-71.109953513435201,10.0,0.0,2.0912115400417934e-06,1.9602789451634726e-05,1.3028998004958786e-05,1.6137850563396975e-05,1.8074170403248929e-05,1.7917594692280547,0.013950176322668269,-0.11740953630338317,-0.0016426357331814484,4
1478788380,0.0,42.331593926104105,-71.109953513435201,10.0,0.0,1.2687438722731366e-05,5.2208845904978719e-05,1.3028998004958786e-05,1.5751615006344007e-05,2.064996944482218e-05,1.945910149055313,0.01393584210107217,-0.11709287115371844,-0.0016684972734406286,4
1478788410,0.0,42.331593926104105,-71.109953513435201,10.0,0.0,1.2129451041078725e-05,5.2208845904978719e-05,1.5352550419809162e-05,1.5853616442063809e-05,2.3640140711304754e-05,1.945910149055313,0.013942473014524543,-0.11702665332166186,-0.0017392197618217857,4
1478788440,0.0,42.331593926104105,-71.109953513435201,10.0,0.0,5.5844049161974026e-06,2.7428872895413204e-05,1.1713325802680925e-05,1.4137058674545606e-05,2.2581346396975563e-05,1.7917594692280547,0.013931854117462852,-0.11689769638830466,-0.0017925191955887251,4
1478788470,0.0,42.331593926104105,-71.109953513435201,10.0,0.0,6.8565805733369983e-06,3.0573160498024952e-05,1.1713325802680925e-05,1.5401033226865619e-05,2.7346570583143866e-05,1.945910149055313,0.013985440684201158,-0.11735198749553301,-0.0017870263471446229,4
1478788500,0.0,42.331593926104105,-71.109953513435201,10.0,0.0,6.7332693698682432e-06,3.0573160498024952e-05,1.0241385517594608e-05,1.5316699430916386e-05,2.4989756841831788e-05,1.945910149055313,0.014002146251808628,-0.11829983549864985,-0.0018488072856068859,4
1478788530,0.0,42.331593926104105,-71.109953513435201,10.0,0.0,5.7549859653143862e-06,2.5512213686034812e-05,1.0241385517594608e-05,1.1973977746437913e-05,2.0556137765416453e-05,1.7917594692280547,0.014052302121083967,-0.11886362716910349,-0.0019422613532377767,4
1478788560,0.0,42.331593926104105,-71.109953513435201,10.0,0.0,6.3518408313716911e-06,2.5974439051612279e-05,9.2646103639261642e-06,1.276152138134807e-05,2.382512025152222e-05,1.945910149055313,0.014129362920032713,-0.11826466352976486,-0.0018980382415776274,4
1478788590,0.0,42.331593926104105,-71.109953513435201,10.0,0.0,5.1420493639358567e-06,2.5974439051612279e-05,9.2646103639261642e-06,1.5034174492903374e-05,2.1484138329463311e-05,1.945910149055313,0.014121939824075769,-0.11780691683980828,-0.0018886170894595871,4
1478788620,0.0,42.331593926104105,-71.109953513435201,10.0,0.0,4.6802603063230496e-06,2.0830249841916994e-05,7.0923336292297939e-06,1.0738506136480346e-05,1.6455899955625847e-05,1.7917594692280547,0.01395025936840945,-0.11760228969812266,-0.0020075922155320014,4
1478788650,0.0,42.331593926104105,-71.109953513435201,10.0,0.0,8.7969245836267759e-06,3.3383425459193913e-05,7.0923336292297939e-06,9.0166962750002428e-06,2.1745436683467818e-05,1.945910149055313,0.013957227860780585,-0.11731785680827071,-0.0020134217366194113,4
1478788680,0.0,42.331593926104105,-71.109953513435201,10.0,0.0,7.1127679797108537e-06,3.3383425459193913e-05,8.889697380843295e-06,1.6961369936648002e-05,2.3938602293984987e-05,1.945910149055313,0.014094851749461615,-0.11715609248257985,-0.0019149647114847371,4
1478788710,0.0,42.331593926104105,-71.109953513435201,10.0,0.0,3.2733866961569847e-06,2.5102248304220495e-05,1.5924713515908892e-05,1.6090901335134337e-05,1.7589376998655076e-05,1.7917594692280547,0.014116811843078768,-0.11700201670059167,-0.0019092410054488817,4
1478788740,0.0,42.331593926104105,-71.109953513435201,10.0,0.0,5.2844009747780922e-06,2.8051568653485838e-05,1.5253228896706874e-05,1.6148962905601908e-05,2.5441385651478738e-05,1.945910149055313,0.014127047261435313,-0.117386032109298,-0.0019547625875649829,4
1478788770,0.0,42.331593926104105,-71.109953513435201,10.0,0.0,8.3778324456937195e-06,2.8051568653485838e-05,5.7544548229921766e-06,1.129642428887326e-05,2.5441385651478738e-05,1.945910149055313,0.01412298318286947,-0.11819601078317243,-0.001962493000432964,4
1478788800,0.0,42.331593926104105,-71.109953513435201,10.0,0.0,6.6959812619517614e-06,2.5278556020478904e-05,5.7544548229921766e-06,9.4476435660302431e-06,1.8412838838601807e-05,1.7917594692280547,0.014145211247767464,-0.11826780463659432,-0.0019078036225359683,4
1478788830,0.0,42.331593926104105,-71.109953513435201,10.0,0.0,1.4737148060659746e-05,5.9517928902120031e-05,1.5771715221002034e-05,1.6090296812432593e-05,3.3664107228301889e-05,1.945910149055313,0.014162024842046586,-0.11750725014387743,-0.0019183856539295599,4
1478788860,0.0,42.331593926104105,-71.109953513435201,10.0,0.0,1.3928639113346233e-05,5.9517928902120031e-05,1.562747719891143e-05,2.0158748761219604e-05,3.3664107228301889e-05,1.945910149055313,0.014166182124498784,-0.117087203040229,-0.0019659641568273043,4
1478788890,0.0,42.331593926104105,-71.109953513435201,10.0,0.0,6.9271535983033521e-06,2.9759168153992464e-05,1.1006686375859553e-05,1.2600658392314331e-05,2.2210464923682204e-05,1.7917594692280547,0.014161979463579,-0.11674068910286883,-0.0019777504540042516,4
1478788920,0.0,42.331593926104105,-71.109953513435201,10.0,0.0,6.4385502492822728e-06,3.015078848185e-05,1.1006686375859553e-05,1.2793507993494937e-05,2.1021201818270294e-05,1.945910149055313,0.014194263527242271,-0.11667121949206442,-0.0019708620833364375,4
1478788950,0.0,42.331593926104105,-71.109953513435201,10.0,0.0,4.6478298183768697e-06,3.015078848185e-05,1.4287128318767745e-05,1.9708818031997892e-05,2.4294384047766314e-05,1.945910149055313,0.014216758554909873,-0.11705144301600486,-0.0019636860105048276,4
1478788980,0.0,42.331593926104105,-71.109953513435201,10.0,0.0,7.1713623234438837e-06,3.9513700579744051e-05,1.6921544799624199e-05,2.0725512713718794e-05,2.5460092993781716e-05,1.7917594692280547,0.014592739100260668,-0.11759040384167134,-0.0018755784323386965,4
1478789010,0.0,42.331593926104105,-71.109953513435201,10.0,0.0,8.5565229429145751e-06,3.9513700579744051e-05,1.1707277798002636e-05,1.7547937082165753e-05,2.7870268097880561e-05,1.945910149055313,0.015239591653475116,-0.11727413803364557,-0.0017075186003684213,4
1478789040,0.0,42.331593926104105,-71.109953513435201,10.0,0.0,7.6846272146156497e-06,2.9484900270281552e-05,7.3099222158546333e-06,1.4940803581354971e-05,2.6611366227497316e-05,1.945910149055313,0.015436305013368972,-0.11706033230436642,-0.0016588536275049873,4
1478789070,0.0,42.331593926104105,-71.109953513435201,10.0,0.0,6.0538328000355033e-06,2.6967096529515055e-05,7.3099222158546333e-06,1.5229482821895931e-05,2.0839881159411599e-05,1.7917594692280547,0.015463725693494098,-0.11720841657219949,-0.0016877338571794117,4
1478789100,0.0,42.331593926104105,-71.109953513435201,10.0,0.0,3.4838970781497474e-06,2.4508967733555403e-05,1.4775166424911234e-05,1.5759167646815754e-05,2.1269309643359766e-05,1.945910149055313,0.015537868365162629,-0.1173164913792397,-0.0016859071778109313,4
1478789130,0.0,42.331593926104105,-71.109953513435201,10.0,0.0,4.9930204711673717e-06,2.7355589781198459e-05,1.222331924662188e-05,1.5860571212758972e-05,2.3153988955602516e-05,1.945910149055313,0.015564297816773317,-0.11747828254593499,-0.0016687673603312271,4
1478789160,0.0,42.331593926104105,-71.109953513435201,10.0,0.0,8.5397165168277722e-06,3.4915117637203588e-05,1.222331924662188e-05,1.2646224405482878e-05,2.5966444880311252e-05,1.7917594692280547,0.015581113637754751,-0.11749931142690967,-0.0016942833646533967,4
1478789190,0.0,42.331593926104105,-71.109953513435201,10.0,0.0,8.782359464422685e-06,3.4915117637203588e-05,1.2256627874398662e-05,1.4341330991403877e-05,3.0741640995851378e-05,1.945910149055313,0.015600674943216557,-0.11773864894738185,-0.0017555774279355986,4
1478789220,0.0,42.331593926104105,-71.109953513435201,10.0,0.0,7.7728784892920459e-06,3.2981927166356523e-05,8.3834582084023147e-06,1.5397624082332614e-05,2.4896447426817371e-05,1.945910149055313,0.015595782961518258,-0.11810298967745528,-0.001752373094863247,4
1478789250,0.0,42.331593926104105,-71.109953513435201,10.0,0.0,4.5690562674098317e-06,2.3214323157697614e-05,8.3834582084023147e-06,1.6103869559221535e-05,1.9626908154282249e-05,1.7917594692280547,0.015646195508796115,-0.11834256578615766,-0.0017480284355041399,4
1478789280,0.0,42.331593926104105,-71.109953513435201,10.0,0.0,2.0618323492194249e-05,7.6927721456863466e-05,1.3820155028279625e-05,1.6601444799039465e-05,2.2354971188257381e-05,1.945910149055313,0.01568635201231177,-0.11792607626857686,-0.0017402756046389527,4
1478789310,0.0,42.331593926104105,-71.109953513435201,10.0,0.0,2.0521253520990512e-05,7.6927721456863466e-05,1.3820155028279625e-05,1.5861589026271097e-05,2.9373719125424809e-05,1.945910149055313,0.018809832582435286,-0.1245980749627467,-0.0035958680299819855,4
1478789340,0.0,42.331593926104105,-71.109953513435201,10.0,0.0,1.9603746460127307e-05,6.9401132032149884e-05,9.8711847285080903e-06,1.6131797624147129e-05,3.0854233378095237e-05,1.7917594692280547,0.022917967491500383,-0.13447824499113917,-0.0060130032539963312,4
1478789370,0.0,42.331593926104105,-71.109953513435201,10.0,0.0,1.9094685657061334e-05,6.9401132032149884e-05,9.8711847285080903e-06,1.3421563990815099e-05,2.2691867860808185e-05,1.945910149055313,0.023025433529162143,-0.13408204656495887,-0.0063982332383598914,4
1478789400,0.0,42.331593926104105,-71.109953513435201,10.0,0.0,9.2026731109623887e-06,3.7569319467024536e-05,1.0809551626555621e-05,1.1925130835507425e-05,2.2094823586242833e-05,1.945910149055313,0.023161314372722282,-0.13327503332604088,-0.006790359905206959,4
1478789430,0.0,42.331593926104105,-71.109953513435201,10.0,0.0,1.0973682895454587e-05,3.7569319467024536e-05,1.0809551626555621e-05,1.4760060257532502e-05,3.5188229641632075e-05,1.7917594692280547,0.023092715691578069,-0.13299068325264549,-0.0068254631168441528,4
1478789460,0.0,42.331593926104105,-71.109953513435201,10.0,0.0,9.8830033364114491e-06,3.7118130025211619e-05,7.6420287678173543e-06,1.3412654243393232e-05,2.7742950809609397e-05,1.945910149055313,0.023007312983838898,-0.13263204947758328,-0.0068405285329334615,4
1478789490,0.0,42.331593926104105,-71.109953513435201,10.0,0.0,7.0139162716716651e-06,2.7564602378435858e-05,7.6420287678173543e-06,1.3083243312832047e-05,2.3918916068191664e-05,1.945910149055313,0.023053396864433504,-0.13241963078105684,-0.0068744920050575059,4
1478789520,0.0,42.331593926104105,-71.109953513435201,10.0,0.0,6.8781764205230531e-06,3.2651517242114811e-05,1.1709518113944356e-05,1.8035931094170276e-05,2.6835012042070879e-05,1.7917594692280547,0.023090163459494249,-0.13231211860459299,-0.0069330667438892565,4
1478789550,0.0,42.331593926104105,-71.109953513435201,10.0,0.0,9.1416195106501017e-06,3.2651517242114811e-05,8.8946342645803592e-06,1.1186644576131163e-05,2.7589039171405028e-05,1.945910149055313,0.023107556485980504,-0.13213495154648086,-0.0069488588508295271,4
1478789580,0.0,42.331593926104105,-71.109953513435201,10.0,0.0,7.2470662103931957e-06,3.1205574115381439e-05,8.8946342645803592e-06,1.3899552673005011e-05,2.3495802519481395e-05,1.945910149055313,0.023095396536303572,-0.13217574173151656,-0.0069040386059865885,4
1478789610,0.0,42.331593926104105,-71.109953513435201,10.0,0.0,4.5706075259475097e-06,2.4623619351855014e-05,1.0487742897773971e-05,1.7184444179878761e-05,2.1899010928596913e-05,1.7917594692280547,0.023061750025169265,-0.13256136043648567,-0.006897809786198853,4
1478789640,0.0,42.331593926104105,-71.109953513435201,10.0,0.0,8.165542655969133e-06,3.2579049072026893e-05,9.3825063575782029e-06,1.4513242088779558e-05,2.6794245099238002e-05,1.945910149055313,0.023141274177127902,-0.13298882100990558,-0.0069367508015225716,4
