TIMESTAMP,DISTANCE,AVG_LAT,AVG_LNG,GPS_ACCURACY,AVG_SPEED_BY_GPS,ACCLERATOR_STD,MAX_ACCLERATOR,MIN_ACCLERATOR,PERCENTILE_25_ACCLERATOR,PERCENTILE_75_ACCLERATOR,ACCLERATOR_ENTROPY,AVG_ROLL,AVG_YAW,AVG_PITCH,WEEK_DAY
1480371480,11.507068618692266,42.338711786078072,-71.088148771137355,65.0,0.19178447697820442,0.27669568274616935,0.58702501740843227,1.7121122856481516e-05,6.4842443651347715e-05,0.29356879058643925,1.0549201679861442,-0.051454115349266666,-0.75115973763801636,-0.025297370680727137,1
1480371510,2.2008405820866024,42.338674173803525,-71.088128713134338,155.0,0.03668067636811004,0.218760282578773,0.58702501740843227,2.1007997282440867e-06,7.3851834277680456e-06,8.8703104048780829e-05,1.7105600837579242,0.030438148061890168,-0.96158405928174329,-0.0080033793912186735,1
1480371540,2.8532646945071,42.338657952737243,-71.088110645463118,177.93103603942089,0.04755441157511833,2.5150159306465928e-06,9.4849413259378733e-06,2.1007997282440867e-06,4.6849790559806083e-06,8.1023054493251091e-06,1.945910149055313,0.11219302397645958,-1.1710286779511272,0.0093855786656253711,1
1480371570,14.30979139355998,42.338682050524,-71.088124431987509,141.94444695240034,0.23849652322599965,4.0178783405343743e-06,1.3218283786688299e-05,1.4265798783741479e-06,4.6849790559806083e-06,1.0660619413878997e-05,1.945910149055313,0.11211521299694742,-1.1700207303221954,0.0095124661918691757,1
1480371600,6.731296800052385,42.338755960440565,-71.088199392305498,65.0,0.11218828000087308,5.5320290595462086e-06,1.4748088308664619e-05,9.3532428027119173e-07,2.8861500876770376e-06,1.2966556522582122e-05,1.7917594692280547,0.11222886549323584,-1.1701334972559316,0.0095073985678714463,1
1480371630,1.694114497983268,42.338771621572768,-71.088210058749041,65.0,0.028235241633054468,6.106332162823127e-06,1.711500072479204e-05,9.3532428027119173e-07,2.9259182261946906e-06,1.4212342005145276e-05,1.945910149055313,0.11245274218591843,-1.1702149473618115,0.0094341118821583969,1
1480371660,1.160643586035243,42.338772129825344,-71.088214332444025,65.0,0.019344059767254052,6.5949764418055393e-06,1.8551190176511467e-05,2.0694380658316614e-06,2.9259182261946906e-06,1.5395798213208988e-05,1.945910149055313,0.11259716476338473,-1.1694398543776756,0.0094352257577317335,1
1480371690,1.9811713250934504,42.338750567286937,-71.088217660818643,65.0,0.03301952208489084,5.0018409163692326e-06,1.8551190176511467e-05,2.0694380658316614e-06,1.0761826533710653e-05,1.3983294494920442e-05,1.7917594692280547,0.11265893441580799,-1.1686469985200334,0.0094002801947356066,1
1480371720,1.786191999110091,42.338743675483833,-71.088213644030461,65.0,0.02976986665183485,5.2790317327321008e-06,1.7271845793124768e-05,1.0214539706065791e-06,7.6538001063754436e-06,1.4043501780310329e-05,1.945910149055313,0.11264989292387657,-1.1683712453018456,0.0094207658731970539,1
1480371750,1.6136205723574517,42.338736400248322,-71.088197385340607,65.0,0.026893676205957527,2.2520049225471787e-05,7.0169725097018952e-05,1.0214539706065791e-06,3.0412038473097988e-06,1.5407993088971629e-05,1.945910149055313,0.11267341842309857,-1.1680611550240041,0.0094581477446554207,1
1480371780,6.804270637702846,42.338744619357747,-71.088193399363334,65.0,0.11340451062838076,2.4485992396404064e-05,7.0169725097018952e-05,1.1064211780083095e-06,6.2855291680581049e-06,3.0311752086472813e-05,1.7917594692280547,0.11274483408605568,-1.1677725716751235,0.009376292390708937,1
1480371810,0.7384483070208675,42.338755499326545,-71.088208365555417,65.0,0.012307471783681126,1.0781433718136759e-05,3.7307080204771055e-05,2.4831604615164447e-06,7.1817137137267512e-06,1.7863405406709449e-05,1.945910149055313,0.11280785865155371,-1.1678074528082587,0.0093325216497084744,1
1480371840,0.9717929108423878,42.338754235217138,-71.088213864162839,65.0,0.0161965485140398,5.8660902728823152e-06,2.0434388476592072e-05,2.4831604615164447e-06,5.9154309666339449e-06,1.45682845778512e-05,1.945910149055313,0.11283722580848686,-1.1675919679875244,0.0093721512485232979,1
1480371870,2.599576082801913,42.338758265898278,-71.088210145577619,65.0,0.043326268046698556,1.2265417317882554e-05,3.997906375291004e-05,4.8364236945980829e-06,5.4357315956294758e-06,1.3333417091311415e-05,1.7917594692280547,0.11285049003957416,-1.16752117209726,0.009370121695034709,1
1480371900,1.5124954912615924,42.338761321639474,-71.088216334493694,65.0,0.02520825818769321,1.4788555075901938e-05,4.8902874854923342e-05,4.8364236945980829e-06,1.3210464731770237e-05,2.9944779030105903e-05,1.945910149055313,0.11286493720151458,-1.16795959452262,0.0093368826624385427,1
1480371930,6.453592655779716,42.338753076186727,-71.088214338506731,65.0,0.10755987759632861,1.2449394450274805e-05,4.8902874854923342e-05,1.0609012291184387e-05,1.1387620986290497e-05,1.9463168382903174e-05,1.945910149055313,0.11288699104609914,-1.1681969577593512,0.0093411295264629168,1
1480371960,3.790513360514223,42.338735614111997,-71.088189296807471,65.0,0.06317522267523705,3.5289431106610178e-06,1.9015842458504576e-05,8.2819486795616848e-06,1.0614519938698585e-05,1.4502855725216204e-05,1.7917594692280547,0.1129121955746165,-1.1681152673024469,0.0093522637673598974,1
1480371990,1.1793601736570507,42.338728808308034,-71.088181762006272,65.0,0.019656002894284177,1.3493677483217387e-05,4.9713563384761237e-05,8.2819486795616848e-06,1.2737352795631591e-05,2.258551303881039e-05,1.945910149055313,0.11300047730910542,-1.1673757354765442,0.0093705700610025085,1
1480372020,0.4671962897629081,42.338737457349048,-71.088195455163529,65.0,0.007786604829381802,1.2636356110632772e-05,4.9713563384761237e-05,1.3006290697597206e-05,1.3343967632012349e-05,2.528432455712326e-05,1.945910149055313,0.11302842780667929,-1.1670590941905072,0.0093765208070801676,1
1480372050,5.900949865423602,42.338749765225479,-71.088208048035114,65.0,0.0983491644237267,2.9732023174940066e-06,2.0643370401430866e-05,1.3006290697597206e-05,1.3863528573751453e-05,1.9256172794087622e-05,1.7917594692280547,0.11304205550334001,-1.1676929064149266,0.0092960306822688823,1
1480372080,1.541469551645043,42.338754457106262,-71.088193254423857,65.0,0.02569115919408405,6.0020798338909471e-06,1.9636946589525439e-05,1.9598699488500987e-06,1.3183663076519062e-05,1.9347355239922361e-05,1.945910149055313,0.11314746030336771,-1.1681612944398443,0.0090911037895457791,1
1480372110,0.6637360616819515,42.338753070342428,-71.088188837588049,65.0,0.011062267694699193,7.5407425583711928e-06,1.9388027191738618e-05,1.0032639033780825e-06,6.6676566222576328e-06,1.8712579580528427e-05,1.945910149055313,0.11314018323660228,-1.1685792097643788,0.0089978485052560741,1
1480372140,2.973409626259102,42.338754082874395,-71.088212166038005,65.0,0.04955682710431837,6.8405610006043184e-06,1.8118475872950744e-05,1.0032639033780825e-06,6.857202109856408e-06,1.7288561721457717e-05,1.7917594692280547,0.11309459369207282,-1.1692824176604,0.0090188585170540569,1
1480372170,2.2151930105042656,42.338745087975319,-71.088206508286689,65.0,0.03691988350840443,4.5910851280555317e-06,2.0012754260994233e-05,4.0194953574876235e-06,1.347368525039648e-05,1.5906849719304623e-05,1.945910149055313,0.11312200150122385,-1.1693777870886728,0.0089743419376982127,1
1480372200,2.908353094929323,42.338743582989636,-71.088197173849863,65.0,0.04847255158215538,3.4440087785061058e-06,2.0012754260994233e-05,1.0030462670431214e-05,1.1924474443868862e-05,1.7354536424471025e-05,1.945910149055313,0.11311452062009557,-1.1693121719174286,0.008925493360930823,1
1480372230,1.5479743381463078,42.338749871325078,-71.088198194498318,65.0,0.025799572302438463,7.6284739586838085e-06,3.2345641962836964e-05,1.0030462670431214e-05,1.1724343557639724e-05,1.7156762028907111e-05,1.7917594692280547,0.11309443682700167,-1.1691029247227833,0.0089920517351753174,1
1480372260,0.5889804236351153,42.338740354381208,-71.088191959786684,65.0,0.009816340393918589,8.2164532481889475e-06,3.2345641962836964e-05,5.7475894430534772e-06,9.0497271070552809e-06,1.5568139485213545e-05,1.945910149055313,0.11327765232048757,-1.1688419174275901,0.0087811651842086471,1
1480372290,0.8574205118075745,42.338736399985997,-71.088195745855927,65.0,0.014290341863459574,5.1993482361313998e-06,1.9096576877182198e-05,5.7475894430534772e-06,8.3729206274147093e-06,1.7754109555834222e-05,1.945910149055313,0.1134021470766277,-1.1687666802997743,0.0085509959759856122,1
1480372320,3.1943320609243493,42.338744746769784,-71.088211021454399,65.0,0.05323886768207249,6.350559173711206e-06,2.5394724266576117e-05,7.9292540301867411e-06,1.1183274475632697e-05,2.1108819956804449e-05,1.7917594692280547,0.11340872351031434,-1.1686401917236318,0.0085887880915665633,1
1480372350,0.5491098130470926,42.338740563633991,-71.088202156226558,65.0,0.009151830217451544,6.7416499085592393e-06,2.5394724266576117e-05,7.8345350638179034e-06,1.0614169850502656e-05,2.3061663240419848e-05,1.945910149055313,0.11346254680106616,-1.1684271125030927,0.0085894621159765417,1
1480372380,3.548564020084057,42.338739886979972,-71.088193243331474,65.0,0.05914273366806762,5.1742494395602266e-06,2.4343758830827835e-05,7.8345350638179034e-06,9.9969233538594135e-06,1.5849359586391157e-05,1.945910149055313,0.11344111852044099,-1.1682094543325758,0.0086109268955817612,1
1480372410,0.685974425512621,42.338749624243562,-71.088205659481616,65.0,0.011432907091877017,2.6271019094738813e-06,1.6117103264062782e-05,7.9729429956823212e-06,9.7782881629945531e-06,1.280800833981453e-05,1.7917594692280547,0.11340420510832951,-1.1678120930182516,0.0086719979055293259,1
1480372440,2.9148050267219907,42.338757140687207,-71.08821400667965,65.0,0.048580083778699844,1.4069616410447343e-05,4.2238725999759284e-05,7.9729429956823212e-06,1.0495321243893185e-05,2.7231902028503158e-05,1.945910149055313,0.11343304725463199,-1.1678494047252559,0.0086315898735993199,1
1480372470,0.4835328644856949,42.338756541307973,-71.08821694990506,65.0,0.008058881074761581,2.3149547115076888e-05,7.9234948635836192e-05,9.0855692115931891e-06,1.4462676738379776e-05,4.1796771681205309e-05,1.945910149055313,0.113415412971046,-1.1679649065342572,0.0086057807512740087,1
1480372500,0.33019722703401944,42.338751711158423,-71.088220945881559,65.0,0.005503287117233658,2.5680059347020552e-05,7.9234948635836192e-05,4.4566542184332758e-06,8.7543158536476304e-06,1.804303929944446e-05,1.7917594692280547,0.11341953669581367,-1.1677480263460998,0.0086116320322021794,1
1480372530,0.96480249020249,42.338755986334235,-71.088215632369298,65.0,0.016080041503374835,1.556038922256238e-05,4.8367157593625798e-05,4.4566542184332758e-06,9.0529807049557419e-06,3.1783928754592659e-05,1.945910149055313,0.11346868571845027,-1.1678750012793973,0.0086400035875057769,1
1480372560,2.533070883180983,42.338753207279055,-71.088201742303198,65.0,0.042217848053016385,3.2972100863495272e-05,0.00011151881124625908,2.6509750345824465e-06,1.995468035371039e-05,4.415825608932184e-05,1.945910149055313,0.11347285615307443,-1.1680283989798785,0.0086852145286484897,1
1480372590,0.9149606684472741,42.338742825766282,-71.088195304223717,65.0,0.015249344474121235,3.6444830532628902e-05,0.00011151881124625908,2.6509750345824465e-06,1.1947711912819171e-05,2.6304882332154731e-05,1.7917594692280547,0.11344309428287531,-1.1677240751323235,0.0087528452321132006,1
1480372620,1.5792509784840518,42.338736817866867,-71.088202898772892,65.0,0.026320849641400863,6.6115126604270485e-06,2.6707325545736876e-05,7.1642601570943827e-06,9.4838687385584944e-06,1.8896785203694043e-05,1.945910149055313,0.11345265394518113,-1.1676331712110344,0.0087728081003990172,1
1480372650,1.4380223369936864,42.338744449937714,-71.088211726920747,65.0,0.023967038949894773,9.4110510654864343e-06,3.4511675842643557e-05,5.5040275489733363e-06,7.8144402901211108e-06,1.9205984562562575e-05,1.945910149055313,0.11343590132051085,-1.1680380445377014,0.0087616411262072657,1
1480372680,1.7683548305475447,42.338754940400705,-71.088212068359056,65.0,0.029472580509125747,9.3092988099379105e-06,3.4511675842643557e-05,5.5040275489733363e-06,1.145978665742669e-05,2.1314403750026142e-05,1.7917594692280547,0.1134471664347335,-1.1686378139159563,0.0087020388410039128,1
1480372710,0.9806008722105333,42.338763626489047,-71.088200015210418,65.0,0.016343347870175554,5.870133423032109e-06,3.0353179838303726e-05,1.0266534787622873e-05,1.6265420789374815e-05,2.2033228698578366e-05,1.945910149055313,0.11349898507133457,-1.1685907554533315,0.0086941574911125526,1
1480372740,0.9913545661034895,42.338768907444233,-71.088204231059777,65.0,0.016522576101724824,6.1825399302156735e-06,3.3684135123979705e-05,1.7491299311911481e-05,2.0689304412684762e-05,3.1575994674359054e-05,1.945910149055313,0.113538113855671,-1.1682109890754557,0.0087089475006703766,1
1480372770,0.6340129228105926,42.338759698305907,-71.088212394845485,65.0,0.010566882046843211,9.9829701911597868e-06,3.774625021822647e-05,1.0271064680623301e-05,1.9981452072820026e-05,3.3243130293830053e-05,1.7917594692280547,0.11350859994669417,-1.1683722903821183,0.0086465389040899492,1
1480372800,2.2031045152122846,42.338755856441985,-71.088212537865985,65.0,0.03671840858687141,8.8260659635263263e-06,3.774625021822647e-05,9.3054062814193026e-06,1.2175327935969659e-05,1.815135276365681e-05,1.945910149055313,0.11340769218517086,-1.1685479584969902,0.0086894940944211851,1
1480372830,0.9354200702105754,42.338752279013981,-71.088202998673879,65.0,0.015590334503509589,6.8227771828729925e-06,3.2969521652994044e-05,9.3054062814193026e-06,1.5601419991066995e-05,2.0587040491596354e-05,1.945910149055313,0.11342678635317198,-1.1680701405424629,0.0087430211692650067,1
1480372860,3.144447848161207,42.338747943032445,-71.088184958350283,65.0,0.05240746413602012,6.1471134018917561e-06,3.2969521652994044e-05,1.420781759906615e-05,1.650506338145701e-05,2.1208344997795622e-05,1.7917594692280547,0.11345386589010516,-1.1678297250733751,0.0087365052691321613,1
1480372890,5.885611978222018,42.338755855894398,-71.08819459417812,65.0,0.09809353297036696,1.8280406980781108e-05,6.336645691385723e-05,8.0855336851283452e-07,1.4434620260476665e-05,1.7321302768777842e-05,1.945910149055313,0.11330939491104942,-1.1684857614382358,0.0088132237469622267,1
1480372920,1.186534262515706,42.338756380529524,-71.088208455737615,65.0,0.019775571041928435,1.9715666855483197e-05,6.336645691385723e-05,8.0855336851283452e-07,6.5812808648831361e-06,2.2695514486477691e-05,1.945910149055313,0.11328262409715242,-1.1688228231626943,0.0088281219761750466,1
1480372950,1.2140238166544337,42.338756484003682,-71.088213091360188,65.0,0.020233730277573896,8.1810186116623552e-06,2.8547345140814355e-05,5.7686694084192198e-06,7.5189158162957508e-06,1.9095298923205171e-05,1.7917594692280547,0.11340620848582901,-1.1684541393547618,0.0087350977163943352,1
1480372980,2.7864474389718032,42.338759264525663,-71.088209988471576,65.0,0.04644079064953006,5.9564481798060584e-06,2.224171934156902e-05,6.4779755439477024e-06,7.8156859186914173e-06,1.8312736198213763e-05,1.945910149055313,0.11345955959905599,-1.1680643325738771,0.0087389480958395341,1
1480373010,5.940698792561119,42.338749814178321,-71.088185904126078,65.0,0.09901164654268532,7.6823939145903067e-06,2.4148526809950267e-05,2.4955228133586496e-06,6.9449254722991588e-06,1.6463776299109564e-05,1.945910149055313,0.11349241099647014,-1.168168070793824,0.0087318007998842592,1
1480373040,4.915679073672972,42.338737797107804,-71.088168791674633,65.0,0.0819279845612162,8.8822789457717891e-06,2.4148526809950267e-05,2.4955228133586496e-06,5.392693374827502e-06,2.2181382084722371e-05,1.7917594692280547,0.11344455537570715,-1.1681103265904531,0.0087603162069959592,1
1480373070,0.44234652594027274,42.33873850318966,-71.088173338526943,65.0,0.007372442099004546,6.8234514728034541e-06,2.4552688939774815e-05,4.719632699553131e-06,1.0901654969248348e-05,2.1088042761843937e-05,1.945910149055313,0.11345564286358344,-1.1676520453452599,0.0087897550441964085,1
1480373100,4.400225827348487,42.338739734673801,-71.08817432444107,65.0,0.07333709712247478,4.6119140314996652e-06,2.4552688939774815e-05,8.5298436564397905e-06,1.3139975533485966e-05,1.5676837960178998e-05,1.945910149055313,0.11352202525377056,-1.1675125718340584,0.0087256691543028102,1
1480373130,0.0,nan,nan,nan,0.0,5.5674708208063348e-06,2.569457900222427e-05,1.1180831432990205e-05,1.3158301526682481e-05,2.2430780962940252e-05,1.7917594692280547,0.1134991216028845,-1.1677941506831548,0.0087284569322213061,1
1480373160,0.0,nan,nan,nan,0.0,6.8117730578168876e-06,2.569457900222427e-05,8.8910096608000158e-06,1.0274340227859039e-05,2.313459016606955e-05,1.945910149055313,0.11343215411954044,-1.168477023261957,0.0087710520606461527,1
1480373190,0.0,nan,nan,nan,0.0,5.7834744501362131e-06,2.4200445115813049e-05,8.8910096608000158e-06,1.0884953068633665e-05,2.0836727109762626e-05,1.945910149055313,0.11330444139496329,-1.1690111611876071,0.0088920005860680211,1
1480373220,0.0,nan,nan,nan,0.0,1.2069813270471376e-05,4.4744419584542699e-05,1.090567855563034e-05,1.4178285010191257e-05,3.2222215088614573e-05,1.7917594692280547,0.11324407095746018,-1.1692684253593117,0.0089692849468024621,1
1480373250,0.0,nan,nan,nan,0.0,1.4460318239711039e-05,5.0937331856387358e-05,1.0344519764361294e-05,1.7749489461917139e-05,3.9820278998712223e-05,1.945910149055313,0.11284946868094414,-1.1685626264890956,0.0097124679078777806,1
1480373280,1.0558268005839593,42.338747745415077,-71.088195693583884,65.0,0.017597113343065986,1.4844804259473005e-05,5.0937331856387358e-05,4.9486838545125691e-06,9.3110048759265832e-06,2.5682778128808206e-05,1.945910149055313,0.11148634688821628,-1.1602152667870429,0.01152909287916472,1
1480373310,0.6643171752879428,42.338742340085005,-71.088194299282975,65.0,0.011071952921465712,8.0434178505248437e-06,2.4328622281285916e-05,2.5787711405546551e-06,5.7808853877573953e-06,1.891449765743302e-05,1.7917594692280547,0.110346447208665,-1.1466914782220767,0.012643347708066702,1
1480373340,1.161331829622323,42.33874379013259,-71.088191921199737,65.0,0.01935553049370538,1.0655871859617336e-05,3.1760038815693756e-05,2.5787711405546551e-06,4.39394991082539e-06,2.2751671766754412e-05,1.945910149055313,0.11057354422268842,-1.1435576686292916,0.012130011350661571,1
1480373370,3.9837223374763093,42.338754030355254,-71.088198255127068,65.0,0.06639537229127182,1.5912156041492298e-05,4.9492527921163016e-05,4.1770267218655167e-06,8.0058736384061948e-06,3.3765341366385672e-05,1.945910149055313,0.11059359975014357,-1.1433773771710585,0.012121750204430556,1
1480373400,2.3391952889533174,42.338747739173854,-71.088196012226646,65.0,0.03898658814922196,1.4936755310457985e-05,4.9492527921163016e-05,4.4725067322786233e-06,1.4664582425233585e-05,3.4069256268430022e-05,1.7917594692280547,0.11057404219059068,-1.1435935657065948,0.012116266084213201,1
1480373430,5.506276048804955,42.338746888477026,-71.088198382803625,65.0,0.09177126748008259,7.4890350280697763e-06,2.8965093322487312e-05,4.4725067322786233e-06,8.9001976609051956e-06,1.6358378377831961e-05,1.945910149055313,0.11057565214579071,-1.1439210542950786,0.012029019373099914,1
1480373460,4.9071482437374705,42.338752398340425,-71.088200477004875,65.0,0.08178580406229118,1.1396252163757183e-05,4.3455159581239787e-05,6.5718731536640629e-06,1.0625943045976796e-05,1.916305322367386e-05,1.945910149055313,0.11067770964457301,-1.1437405941088628,0.011963780687842155,1
1480373490,9.00451227467247,42.338735062337257,-71.088183645416265,65.0,0.1500752045778745,2.864088873112649e-05,9.125016846541807e-05,9.2801843697892086e-06,1.2414881598889089e-05,4.832255048218842e-05,1.7917594692280547,0.11068403902059017,-1.1434045697487016,0.011994415070064166,1
1480373520,3.9966887583330273,42.338721761889772,-71.088178197017086,65.0,0.06661147930555046,2.7986287104953546e-05,9.125016846541807e-05,9.3778996336912664e-06,1.2920166954202894e-05,5.3259964102472985e-05,1.945910149055313,0.11065866561509057,-1.1432233757578929,0.01209382013276907,1
1480373550,7.451890096267606,42.338707943215326,-71.088158179167422,65.0,0.12419816827112677,1.6554169057527029e-05,5.6574914089108013e-05,1.4498839837587174e-06,1.2920166954202894e-05,3.0778728673018431e-05,1.945910149055313,0.11064237520843613,-1.1432459157331785,0.012177932627524615,1
1480373580,1.2793219730922802,42.338715095474214,-71.088162651064053,65.0,0.021322032884871337,1.4768877437207935e-05,4.5534064435386024e-05,1.4498839837587174e-06,1.1957836550956752e-05,3.1116169284138145e-05,1.7917594692280547,0.11055685583672632,-1.1433956014520632,0.012175394175691884,1
1480373610,0.596228622767476,42.338748578359812,-71.088187391870804,65.0,0.009937143712791268,2.1101882263048243e-05,5.7761179568681198e-05,3.8263801904133807e-06,6.2528984001771019e-06,3.7174813627803281e-05,1.7917594692280547,0.11058349483244068,-1.1433001867706833,0.012121185572527284,1
1480373640,1.0200389854119394,42.338737313430308,-71.088178458828594,65.0,0.017000649756865657,1.9444125962768372e-05,5.7761179568681198e-05,3.8263801904133807e-06,1.0839001851809237e-05,4.0659741330091903e-05,1.945910149055313,0.11066961670744616,-1.1431304530976942,0.012114425692652545,1
1480373670,2.85757350771439,42.338736835476901,-71.08819855628785,65.0,0.04762622512857317,1.0319215884189413e-05,4.973308622236818e-05,1.7311281947690334e-05,2.0581156786769099e-05,3.1120039713919233e-05,1.945910149055313,0.11075051613223344,-1.1429968914509299,0.012072358084025887,1
1480373700,2.6758983671754177,42.338745305507558,-71.088206504656426,65.0,0.04459830611959029,5.9280077234521182e-06,3.0653682990022841e-05,1.2510815449452411e-05,2.0342976309675617e-05,2.7343093936463052e-05,1.7917594692280547,0.11079589547986816,-1.1427712645771515,0.01196643108719795,1
1480373730,4.07431527658487,42.338744341788953,-71.088204053424917,65.0,0.06790525460974783,6.3206652731310106e-06,2.825846963559235e-05,8.5058510761920657e-06,1.5003829389452843e-05,2.3201945629674934e-05,1.945910149055313,0.11077008993983528,-1.1427921487888586,0.011913489837617114,1
1480373760,4.103892574047477,42.338740831617173,-71.088200865073333,65.0,0.06839820956745796,6.0829679540698095e-06,2.2594412172850471e-05,6.9547731950289746e-06,1.300134720282267e-05,2.1906476050440479e-05,1.945910149055313,0.1108046143803993,-1.1429611035288243,0.011819465179271271,1
1480373790,1.1261521478341814,42.338714460894622,-71.088181346331794,65.0,0.018769202463903022,3.0835007666465856e-05,0.00010165788826392584,6.9547731950289746e-06,2.2153123803667299e-05,5.1150623030856801e-05,1.7917594692280547,0.1109503005122765,-1.1433066931979983,0.01155792493001115,1
1480373820,1.8806106204238966,42.338695881653059,-71.088174646034105,65.0,0.03134351034039828,3.0907434212388153e-05,0.00010165788826392584,7.2218587329904577e-06,1.5008255634510426e-05,4.8434029018983896e-05,1.945910149055313,0.11109008728266501,-1.1430710786837515,0.011423808181090428,1
1480373850,1.730334412602058,42.338699903625511,-71.088176490116041,65.0,0.028838906876700966,4.8100693584456206e-06,2.0406546691187485e-05,7.2218587329904577e-06,1.0201163381452999e-05,1.8148919609553474e-05,1.945910149055313,0.11117113226947815,-1.142750806767824,0.011356888183618642,1
1480373880,4.798414299687989,42.338727951848334,-71.088188792166548,65.0,0.07997357166146649,5.0431634476670657e-05,0.00014951107427759879,6.9580642514955646e-06,1.1284952948749627e-05,3.1053750641166794e-05,1.7917594692280547,0.067419317274964349,-1.0678538760220577,0.0084790530904691203,1
1480373910,0.37084176710744554,42.338736571149056,-71.088195030650269,65.0,0.006180696118457426,5.7779899080956539e-05,0.00014951107427759879,1.0480887457122411e-06,6.9768637586232071e-06,8.0960757593922706e-05,1.945910149055313,0.0029526473849795431,-0.99733778297151665,0.002343644855979818,1
1480373940,0.5170815267646816,42.338736443223347,-71.088195380995501,65.0,0.008618025446078027,4.0402443640940421e-05,0.00012582542725077849,1.0480887457122411e-06,9.4896673549058271e-06,2.5737910522668003e-05,1.945910149055313,-0.012572971425906814,-1.0007482608565827,-0.00010306143691152498,1
1480373970,1.1957431765481086,42.33874624655558,-71.088197307281348,65.0,0.019929052942468477,1.1105916478485732e-05,3.661049302865221e-05,2.7002928470148512e-06,6.5922244180901087e-06,1.4471030558603858e-05,1.7917594692280547,-0.012639535377233382,-1.000826043109398,2.5851495553832382e-05,1
1480374000,1.1165033433944767,42.338748291306537,-71.088195588368322,65.0,0.018608389056574613,2.2694578323119076e-06,9.4120326314329162e-06,2.7002928470148512e-06,4.6009834244824603e-06,7.3825078448063331e-06,1.945910149055313,-0.012694090566889226,-1.0005372837463888,6.6629105048440082e-05,1
1480374030,4.245576400872299,42.338754711365119,-71.08819055502282,65.0,0.07075960668120498,2.6185811084691384e-06,9.4120326314329162e-06,1.1661251618189104e-06,3.6511615205842741e-06,7.0957122337014461e-06,1.945910149055313,-0.012625426720404542,-1.0000535093349787,2.1341791678098001e-05,1
1480374060,2.138096135826259,42.338750392319326,-71.088192232137871,65.0,0.03563493559710432,2.3095333410254404e-06,8.0608690355348291e-06,1.1661251618189104e-06,4.6403591340206412e-06,7.2016935176638342e-06,1.7917594692280547,-0.0124606492536202,-0.99935109635238595,-3.338642590981359e-05,1
1480374090,0.865874638797863,42.338744205742863,-71.088202410688012,65.0,0.014431243979964382,1.2752224437706053e-05,4.2854937060353161e-05,3.4255583759020818e-06,6.3688760264438878e-06,8.0512611731276292e-06,1.945910149055313,-0.012361126022792315,-0.99928528490242363,1.0490920078697383e-05,1
1480374120,5.345248790529226,42.338735431208562,-71.08818987091793,65.0,0.08908747984215376,1.3164998040637193e-05,4.2854937060353161e-05,3.2615693506055348e-06,5.6693785783933556e-06,1.8000261469023472e-05,1.945910149055313,-0.012391148361877057,-0.99962287778782044,4.8077117551538654e-05,1
1480374150,0.9023594564113895,42.338737907725921,-71.088182048319396,65.0,0.015039324273523159,1.1363337591651663e-05,3.4974505474751771e-05,1.9929352581372788e-06,5.687866375681869e-06,2.1265163777941442e-05,1.7917594692280547,-0.012449893980987517,-1.0000471120963985,3.517020896009174e-05,1
1480374180,4.976122000191201,42.338744416827993,-71.088193279054423,65.0,0.08293536666985335,1.1439083091573915e-05,3.4974505474751771e-05,1.9929352581372788e-06,7.8476491614131767e-06,2.6151222089382333e-05,1.945910149055313,-0.012448726640306515,-1.0001519809565758,9.181708302375472e-05,1
1480374210,2.272675457250166,42.338740812316104,-71.088203615163508,65.0,0.03787792428750277,8.6176849270164508e-06,2.9777946101861327e-05,6.1457875450797919e-06,7.0686385760375656e-06,1.6037004427324951e-05,1.945910149055313,-0.012450196319759741,-0.99997784586176819,0.00011510302147743033,1
1480374240,5.8615103572853275,42.338722799844334,-71.08820141175201,65.0,0.09769183928808879,3.2233541220644589e-06,1.4596683246846835e-05,6.2177136672213258e-06,8.0049065012403456e-06,1.2930454763669095e-05,1.7917594692280547,-0.012424769310739067,-0.99993866841418555,0.00010533995565014629,1
1480374270,5.432507276810179,42.338704335251229,-71.088186658738749,65.0,0.09054178794683633,9.971931189154241e-06,3.4061410256465415e-05,5.8160677174812585e-06,9.465078537876108e-06,2.1939717522414254e-05,1.945910149055313,-0.012369244181684858,-1.0004222748689366,7.5868869443941606e-05,1
1480374300,7.533177001184025,42.338724679610721,-71.088194900068657,65.0,0.12555295001973374,2.4818229756568072e-05,8.0466547818132273e-05,5.3649773643884365e-06,8.2426446214167551e-06,3.1672081027223543e-05,1.945910149055313,-0.012217139895022785,-1.00460670924907,-0.00014738904198467422,1
1480374330,0.9439236028175115,42.338759099749581,-71.088218018991569,65.0,0.015732060046958526,2.5895070316253192e-05,8.0466547818132273e-05,5.3649773643884365e-06,1.0055169888682215e-05,1.6779682636937377e-05,1.7917594692280547,-0.011982220627848416,-1.009819372072005,-0.00039248032199881423,1
1480374360,5.592336406039632,42.338746151710488,-71.088208215815712,65.0,0.0932056067673272,6.1960780576479143e-06,2.6601433751460522e-05,5.5092712718743544e-06,1.2056388462526709e-05,1.7642237802879593e-05,1.945910149055313,-0.011874352136957741,-1.0093729354766758,-0.00042882655015842499,1
1480374390,6.333565890877347,42.338728502210763,-71.088189727988919,65.0,0.10555943151462245,6.3373026254102909e-06,2.6601433751460522e-05,5.5092712718743544e-06,1.1329433014157015e-05,1.7531854952910163e-05,1.945910149055313,-0.011888514963098559,-1.0088989057057156,-0.00044669152086147573,1
1480374420,3.0288976328683552,42.338740315615354,-71.088193908144362,65.0,0.05048162721447259,6.6991147857026796e-06,2.5454326262891172e-05,4.2795276416595948e-06,9.9019522410819937e-06,1.6857267170156364e-05,1.7917594692280547,-0.011889076592828016,-1.00888316647279,-0.00043350232319001717,1
1480374450,3.8244437504658055,42.338747770201344,-71.088201672265342,65.0,0.06374072917443009,5.9100919851777969e-06,2.5454326262891172e-05,4.2795276416595948e-06,1.3797475337559371e-05,1.7194887741507839e-05,1.945910149055313,-0.011884539603645031,-1.0089912661093829,-0.00039172890113916252,1
1480374480,0.9450470652394262,42.338738741029573,-71.088197280701593,65.0,0.015750784420657103,5.9218912182144451e-06,1.7677933058509179e-05,1.6525026538588574e-06,6.116647876349903e-06,1.6638635757677662e-05,1.945910149055313,-0.011900542489060599,-1.0090046155891599,-0.00040935059907421743,1
1480374510,2.240541488279448,42.338746667926344,-71.088209408057537,65.0,0.0373423581379908,9.3565823337921542e-06,2.9388219584043132e-05,1.6525026538588574e-06,3.5956785894126764e-06,7.4266866138045263e-06,1.7917594692280547,-0.011911458631413319,-1.0089873212826133,-0.00051365378328373983,1
1480374540,2.8934353503624792,42.338773526777139,-71.088228581000536,65.0,0.04822392250604132,8.9468146390365621e-06,2.9388219584043132e-05,5.7806317843216284e-07,5.3093608433615008e-06,1.447908153867418e-05,1.945910149055313,-0.01198945778084057,-1.0090239468129285,-0.000531125225063996,1
1480374570,10.764802680030979,42.338776329769516,-71.088226898646596,65.0,0.17941337800051632,4.7478866733837315e-06,1.7286711302773718e-05,5.7806317843216284e-07,1.0855945734078026e-05,1.285373838568192e-05,1.945910149055313,-0.012042441062202513,-1.009195789723877,-0.00047920468120737388,1
1480374600,1.2261176770454305,42.338744071333657,-71.088199900744456,65.0,0.02043529461742384,5.4933557206006439e-06,2.0474298322184661e-05,2.1705257342305499e-06,9.3721782770329383e-06,1.3289369395643232e-05,1.7917594692280547,-0.012025614386567797,-1.0095449373319068,-0.00045072995440498297,1
1480374630,8.66318154165832,42.338745301469707,-71.088205499988462,65.0,0.14438635902763866,3.5858823013554376e-05,0.00011318153968830996,2.1705257342305499e-06,7.332264986878584e-06,3.3851475977096385e-05,1.945910149055313,-0.012026274093846099,-1.0095360367151829,-0.00041322986454686946,1
1480374660,2.346639401082829,42.338755548409374,-71.088215762672107,65.0,0.039110656684713814,3.5871481757134818e-05,0.00011318153968830996,8.883533953507544e-07,7.0026335245442531e-06,3.4923714307179098e-05,1.945910149055313,-0.012021118159016828,-1.0093650848028228,-0.00044021845361476259,1
1480374690,3.0996196258399427,42.338751605109707,-71.088210486519699,65.0,0.05166032709733238,8.8378983952503236e-06,2.6941744805484741e-05,8.883533953507544e-07,8.4033287847696132e-06,2.0606275492752318e-05,1.7917594692280547,-0.012016685602402851,-1.0092823173147201,-0.00048650226122625041,1
1480374720,3.292640853587272,42.338741686288522,-71.088204568820998,65.0,0.05487734755978787,6.5463190727220203e-06,2.2088836961699673e-05,2.9048439740998777e-06,9.2239757123937671e-06,1.9015439967811366e-05,1.945910149055313,-0.011984087502561616,-1.0092670534513231,-0.0004173944401789113,1
1480374750,1.886433003803503,42.338744029716672,-71.088207810911314,65.0,0.03144055006339172,1.1341786413557997e-05,4.1355261558650274e-05,2.9048439740998777e-06,1.1245388618932026e-05,1.8588202027690769e-05,1.945910149055313,-0.011847568038479301,-1.0092668533264142,-0.00046060955999500995,1
1480374780,5.291840620199681,42.338762578275123,-71.088217288470972,65.0,0.08819734366999468,1.1319766899802505e-05,4.1355261558650274e-05,8.8827029113751938e-06,1.0218662953211321e-05,1.4711886964184769e-05,1.7917594692280547,-0.011754052026987634,-1.0089621262214099,-0.0005321663183611,1
1480374810,1.9716270426707803,42.338767013366336,-71.088218929663114,65.0,0.03286045071117967,0.0002537265076136304,0.00072754001439500487,8.8827029113751938e-06,1.021992427476034e-05,0.00016585387004522829,1.945910149055313,-0.040692448890755246,-0.748602511220267,-0.34768094714948922,1
1480374840,0.4995031105536725,42.338754948430818,-71.088202211759437,65.0,0.008325051842561208,0.015043422811866493,0.043297960519518924,1.2295618229636636e-05,0.00016307491124985021,0.00061698265259508482,1.8675843750169276,0.71981233194587602,-0.4317558755477599,-0.96468940198164788,1
1480374870,7.297166189049889,42.338681404938889,-71.088132362152834,65.0,0.12161943648416482,0.23832711566218201,0.66783510816930847,0.00029993999800278115,0.0095115696908365348,0.17256903315534464,1.7480673485460894,1.5252022849010556,-0.69186906222869926,-1.2945358343977851,1
1480374900,39.122443588938204,42.338601458150919,-71.088060138544677,65.579807650946506,0.6520407264823034,0.20404783644726762,0.66783510816930847,0.036527002890960641,0.2458141319462574,0.49933306285627699,1.9459101490553139,1.2545693493922141,0.44952297371112898,-1.2563170487657758,1
1480374930,14.702023714574208,42.338794866663299,-71.088197116660282,42.481899883170442,0.24503372857623681,0.42360630382974612,1.4052880597253354,0.019435261138784424,0.32513707365075672,0.74541365260286185,1.9459101490553139,1.2049090174575716,0.96446190827690259,-1.2775125174307156,1
1480374960,23.49506465674789,42.338874152529314,-71.088067477891968,29.101363092800039,0.39158441094579816,0.46677593212907603,1.4052880597253354,0.019435261138784424,0.43215633221132443,1.0854002010408608,1.791759469228055,1.0279336994064801,0.62330358049483603,-1.1857977669306867,1
1480374990,45.51683800104993,42.338864950502632,-71.087843082445744,27.5,0.7586139666841656,0.62154114187487708,2.1782604914517765,0.24100007598783846,0.44655921662048531,0.86069669371030622,1.9459101490553139,0.43530245634526754,0.13144470588675178,-1.1390788525859825,1
1480375020,0.0,42.33884184159561,-71.087721772558112,40.0,0.0,0.68080959668849061,2.1782604914517765,2.1495967030916356e-05,0.18193073564394241,0.53600538884427174,1.9459101490553139,0.80684763554093075,0.60063545887265213,-1.1325335768689482,1
1480375050,17.913413889479877,42.338862936123512,-71.087707915532008,56.988066957129739,0.29855689815799796,0.15518488832796157,0.4248726932553844,2.1495967030916356e-05,0.00030127032706886491,0.093450833085223478,1.6609474332869181,1.6384928405318,1.7398256396215039,-1.2145360600745601,1
1480375080,12.950322015598294,42.338987475132399,-71.08759657433535,109.17639494401389,0.21583870025997157,0.26680479598779905,0.7816895037514402,0.00010889434027430406,0.00056730491207939815,0.068050926769787426,1.8640435797520256,1.5260510043314086,0.23882290424859484,-1.2755469910946455,1
1480375110,30.576483933834062,42.339035925800438,-71.087634050783095,109.23387893196144,0.509608065563901,0.26719035873166713,0.7816895037514402,5.3343178489818887e-05,0.00019309037114314463,0.068050926769787426,1.8562701281920884,1.2319421412163414,-1.2643644585981857,-1.2930369730136257,1
1480375140,7.935713319547497,42.339052123956478,-71.087635579236704,121.86257793650471,0.13226188865912494,0.12258204314670634,0.34474045803983039,5.3343178489818887e-05,0.0002083059890364351,0.057599433898280879,1.7347645210257749,0.71787892737547165,-1.6982265193818928,-1.1172817111874573,1
1480375170,11.55005072455806,42.339020090865326,-71.087581894815813,146.28088605990601,0.192500845409301,0.11369550342299831,0.34474045803983039,0.00014019530074417191,0.0096296455448220165,0.057224440149722056,1.9251211907908179,0.19089771708679967,-1.4120323368070593,-0.510503849871485,1
1480375200,6.856795478102527,42.338999272235178,-71.0875901212315,146.29670003738002,0.11427992463504212,0.0088306784307493804,0.021584730616008244,2.3850384796318714e-05,0.00016800593346077519,0.010646303514414389,1.8842428460867393,-0.10844757994963594,-1.6665416436903828,-0.20315571725409773,1
1480375230,1.9153455146870457,42.339000044795391,-71.087598835842741,128.35463096752002,0.03192242524478409,0.0021008427582326671,0.0059020243344600487,2.3850384796318714e-05,0.0015575750792432375,0.0045345175966808688,1.7480673485460894,-0.10063988833442823,-1.7119719124037616,-0.20305459549529933,1
1480375260,3.210885848493998,42.338999459167354,-71.087579102178452,129.26990490744203,0.05351476414156663,0.002359248922026558,0.0059020243344600487,9.7219651529853877e-05,0.0007781677773697716,0.0052034752102607888,1.9361470098309517,-0.10131876103693647,-1.7284435262602813,-0.20498248471138841,1
1480375290,10.526183894259512,42.33900993746478,-71.087597591071315,127.56338803921349,0.17543639823765853,0.0016327145414056037,0.0051039711267344585,9.7219651529853877e-05,0.0001636637847474487,0.0017154233662789191,1.8675843750169279,-0.10292765188513411,-1.75330848105041,-0.20617650540804799,1
1480375320,13.97578454710978,42.339015168696456,-71.087606843958696,111.18812207274479,0.23292974245182968,0.0012338478761973117,0.0033965257883094143,2.6402893898964888e-05,0.00050698607788647468,0.0025287012537271122,1.7917594692280547,-0.10772028870916167,-1.788401602406795,-0.20624176548802686,1
1480375350,11.569955122075351,42.339002985942273,-71.087592012307709,107.6693959661648,0.19283258536792253,0.0036214366841862823,0.011143136511027461,2.6402893898964888e-05,0.00013575140200120867,0.003259572940213229,1.8675843750169279,-0.10220935147009931,-1.8075126576677085,-0.20706061816202842,1
1480375380,5.468559921474259,42.339013143465792,-71.08761433254891,124.63600404395919,0.09114266535790432,0.0050611703897573568,0.01315407490699556,3.2540129849512792e-05,0.00014197112320482784,0.0074952908357605562,1.8842428460867393,0.12896023297378753,-1.2758319519677188,-0.34005003108943643,1
1480375410,11.277929434151483,42.3390310310064,-71.087621515201761,155.68784098524912,0.18796549056919137,0.063937352462139427,0.17681542649156406,4.4979572256751105e-05,0.0013462238235542668,0.053105516337242621,1.6609474332869181,0.51109772325942693,-0.58770508512004671,-0.46777685999132274,1
1480375440,2.7386512693287717,42.339026725914344,-71.087599956759874,180.1416956740234,0.045644187822146194,0.062166139035588923,0.17681542649156406,2.1507967858354632e-06,0.00014342425625554309,0.034058444140719825,1.8056165767134953,0.30697180039875777,-1.249076209742864,-0.19484793464794428,1
1480375470,12.683014602707955,42.339007878608498,-71.087580404275457,184.75941792397768,0.21138357671179925,0.00060819157999080983,0.0016942248007813367,2.1507967858354632e-06,5.2734824709574714e-05,0.00062529449244753087,1.945910149055313,0.086301923833304289,-1.7219068212922342,-0.025636519284969943,1
1480375500,6.021772814301991,42.338993447278952,-71.087572239346429,149.49673870865973,0.10036288023836651,0.00037999300868701825,0.0010562175704857903,3.5417364178009448e-06,1.2445116423063813e-05,0.00012518496206394877,1.7917594692280547,0.073488312594904057,-1.7151275517820099,-0.063297808162538202,1
1480375530,17.09314886922311,42.338993894863229,-71.087582804406324,127.0472448497748,0.28488581448705186,4.6418193411727289e-05,0.00014978689988119384,3.5417364178009448e-06,1.7898477999672474e-05,6.2320287297304829e-05,1.945910149055313,0.075824403432152368,-1.6981143796982143,-0.090095215620476815,1
1480375560,12.96946157786277,42.338995078785267,-71.087587230710412,136.77663998439417,0.2161576929643795,0.00046517438590256555,0.0013964045727230593,1.8617299437463433e-05,3.1554854428272685e-05,0.00014372374433912978,1.945910149055313,0.10124695014033869,-1.6931113724229216,-0.059975763073661738,1
1480375590,0.0,nan,nan,nan,0.0,0.00051406351773755838,0.0013964045727230593,1.8617299437463433e-05,0.00010967826067722685,0.00077835405724464997,1.7917594692280547,0.088333574117469713,-1.7471206949107796,-0.051097493973266996,1
1480375620,161.47248122491345,42.33916617126571,-71.087288153100062,332.90985825122948,2.6912080204152242,0.00028916500191281309,0.00095168673460878915,6.8663191209826269e-05,9.1508417423650772e-05,0.00030536965110216339,1.945910149055313,0.059313502635516761,-1.7494943577399531,-0.074935772093271666,1
1480375650,155.23843468214784,42.339119480515265,-71.087379248200804,271.86307612886424,2.587307244702464,0.0001018407733842016,0.00035238327705209449,4.7510342686508819e-05,6.0575821055579674e-05,0.00012513367992686181,1.945910149055313,0.063445405774257918,-1.6940634514792572,-0.079097553291785874,1
1480375680,16.660405035799165,42.339017810144455,-71.087558520814582,116.21765603741501,0.2776734172633194,4.0849597856262511e-05,0.00016293109782002286,4.7510342686508819e-05,5.1510600330135836e-05,6.6008071796521076e-05,1.7917594692280547,0.064171208628704984,-1.6575788628101751,-0.068604286214482627,1
1480375710,1.7032960620423885,42.338990678780917,-71.087576044718062,85.402206850711636,0.028388267700706474,4.2454370645865979e-05,0.00016293109782002286,2.0899195850874741e-05,4.9370084881336053e-05,6.8137746326464972e-05,1.945910149055313,0.062162419229498354,-1.607718773868557,-0.063583504203538158,1
1480375740,9.551481262494747,42.339002269859094,-71.087581999650254,87.018392828799705,0.15919135437491244,0.00016681834913671935,0.00051328226952987856,1.3564300836168704e-05,2.409652120010435e-05,6.6390910525068259e-05,1.945910149055313,0.049029531769069656,-1.5957233655189096,-0.087542762067348887,1
1480375770,17.279224582944906,42.339017868108392,-71.087597269571845,114.97837743700879,0.2879870763824151,0.00083388672628530505,0.0023849673818188144,1.3564300836168704e-05,3.590887254698674e-05,0.00049933328204949717,1.7917594692280547,0.029857378552935729,-1.6478684774213299,-0.12445707982364877,1
1480375800,1.128108085395698,42.339015001133433,-71.087573740285876,154.11424732817869,0.018801801423261634,0.00077170849924892992,0.0023849673818188144,2.8013607060476731e-06,6.4882468314238727e-05,0.00055706902896309916,1.945910149055313,0.028204311509352493,-1.6849839441463315,-0.13500772806214842,1
1480375830,3.817931128909336,42.339018821015657,-71.087576639226043,160.50255441387012,0.06363218548182227,0.0010828739365680185,0.0033596769723862304,2.8013607060476731e-06,0.00024324413134447663,0.0013161120430935543,1.945910149055313,0.025669563636591598,-1.7121167559194916,-0.1375818960096454,1
1480375860,0.8162349280287088,42.33899356443213,-71.087569239993499,177.4923060652136,0.013603915467145147,0.0010948104672722338,0.0033596769723862304,6.1054307777165477e-05,0.00045179247347348304,0.0016928720652494432,1.7917594692280547,0.026977091410697818,-1.7358792889819519,-0.12685148610643232,1
1480375890,3.774215872144856,42.339009791331854,-71.087577298503248,163.95873712049067,0.06290359786908094,0.3363104799135565,0.96577926507372402,6.1054307777165477e-05,0.00099107234478409945,0.011612484484095615,1.7770332013812693,0.82581968446048726,-1.062026543669327,-0.76345153411581801,1
1480375920,6.545145283226566,42.339059104390309,-71.087632799426828,145.70856896531609,0.10908575472044277,0.33630358196223059,0.96577926507372402,2.433651779759632e-05,0.0010682816794458244,0.011612484484095615,1.7770332013812697,1.4014741116960379,0.57869693629528562,-1.2659193645855213,1
1480375950,22.978469426620233,42.339103837922991,-71.087622017005188,174.0146196247172,0.38297449044367055,0.0045470133999322539,0.012691386911579852,2.433651779759632e-05,0.00020613620347479202,0.0016280675890960126,1.710560083757924,1.5349355176003032,2.3479199378273434,-1.2833801381908785,1
1480375980,15.126754659639769,42.33909503357323,-71.087544093284677,181.5311743077755,0.2521125776606628,0.0063845870765983689,0.016700137006759999,0.00029092352028594405,0.00046356254680413598,0.0076084970722391718,1.8056165767134955,1.7916348169829415,1.2981978609080687,-1.2776294427462356,1
1480376010,9.044392589303895,42.339034249478679,-71.087526809008764,169.832075558479,0.15073987648839823,0.16157484173587153,0.42570144060123649,0.00021967512227188604,0.00040428935289498077,0.14565575434174244,1.7770332013812697,1.2263680128302059,-0.51439110827172141,-1.0897045713061306,1
1480376040,12.510323292453384,42.339001923085242,-71.08754428184092,170.32564072866822,0.2085053882075564,0.17058467128553056,0.42570144060123649,0.00010982618951412695,0.00028131592937033603,0.20607970979220766,1.6581101035673729,0.23000048798266037,-1.5803709135350632,-0.44792757836524028,1
1480376070,5.913964363278954,42.339009448023461,-71.087579049474513,133.76347292516289,0.09856607272131589,0.00018747655514204584,0.00048472413865595972,2.4864376203991016e-05,5.6432678915375949e-05,0.00028803227008990652,1.945910149055313,0.04578678296962,-1.6085864855250027,-0.10426002132371419,1
1480376100,6.583735470860682,42.339013829319775,-71.087591055561035,130.09313549247364,0.1097289245143447,1.8638735526459211e-05,7.2820815265929565e-05,1.7764140472853128e-05,3.3861647424626347e-05,5.6432678915375949e-05,1.945910149055313,-0.0042297789246820332,-1.6839562090111815,-0.1516196062668973,1
1480376130,6.447303064532666,42.339001074650376,-71.087587203565377,133.05683363077185,0.10745505107554444,0.00014623856484526662,0.00044085258958531464,1.7764140472853128e-05,4.3436678232788205e-05,8.1901187199804121e-05,1.7917594692280547,-0.040330827462734704,-1.7194104983294185,-0.17537660201896019,1
1480376160,3.280135177775217,42.338988465590411,-71.087590311221916,116.18939093972108,0.05466891962958695,0.00034709178492548903,0.0010370264387578149,4.5407044795221563e-06,4.940342900078661e-05,0.00027764359338559337,1.945910149055313,-0.028159554520507887,-1.7525838635357474,-0.16519575641062814,1
1480376190,8.372693381738273,42.338987695261132,-71.087598015847064,110.36389970529781,0.13954488969563789,0.00035034302432054756,0.0010370264387578149,4.5407044795221563e-06,1.5479860020814447e-05,0.00038469501098456927,1.945910149055313,-0.0067865412134398726,-1.8147796821803657,-0.13483220852533556,1
1480376220,9.970714982901027,42.33898677490059,-71.087582733929153,104.18185968122889,0.16617858304835045,0.00045801145424370236,0.0014598125590684784,5.720864498807221e-06,0.0002888780071366158,0.00058025189134959293,1.7917594692280547,-0.0062328377728617275,-1.9095431840172017,-0.11550208531125022,1
1480376250,5.136904161251142,42.338980310100162,-71.087568450787643,86.076051808676183,0.0856150693541857,0.00036323527275138918,0.0014598125590684784,0.00029160289886695224,0.00045924393653520932,0.00071997070768784659,1.945910149055313,-0.024311745084696777,-1.9472711222445713,-0.11967777804270062,1
1480376280,0.5270261027001034,42.338999602426028,-71.087596387590708,83.249319158221397,0.008783768378335057,0.00077935320751656761,0.0022908410631597882,0.00029160289886695224,0.00058542535104000185,0.0015330796440341473,1.945910149055313,-0.03811948836095453,-1.954643890513843,-0.14166884541985797,1
1480376310,2.516375713133546,42.339001315277208,-71.087596803571159,109.71466675172431,0.041939595218892435,0.0015363603904908186,0.00426219646228533,5.8691913142704555e-05,0.00098319232828066234,0.0034345324438896973,1.7917594692280547,-0.020542501777837875,-1.9755541932616019,-0.15028655940791416,1
1480376340,4.050410384634396,42.33899627217891,-71.087588226121142,146.98935174255101,0.0675068397439066,0.0015809903819993835,0.00426219646228533,4.166591268328675e-05,0.00048825682949133668,0.0031823085620157174,1.945910149055313,0.0080238895572227551,-2.0443993525199242,-0.12824085739795515,1
1480376370,0.8198309548793926,42.338991692349474,-71.087560924700469,142.92238895619539,0.013663849247989877,0.00098454632230637906,0.0025488542198984342,1.0281953923290584e-05,2.9400061429053931e-05,0.0018184437272481446,1.945910149055313,0.01826210312428617,-2.0848883227395354,-0.1265852996910706,1
1480376400,9.850228304359527,42.338985445537276,-71.087544180196019,101.87703979435456,0.16417047173932545,0.0062901324745601788,0.017543596687527353,1.0281953923290584e-05,1.5983556029309034e-05,0.0027876012898989102,1.710560083757924,0.020461703455408087,-2.0926311767668087,-0.12532841659414334,1
1480376430,1.978853020909696,42.338978760063902,-71.0875587099748,91.39766377760084,0.03298088368182826,0.005825896790690452,0.017543596687527353,6.6806231626904242e-06,0.00035724002835896957,0.0023795943087865576,1.8675843750169276,0.011070208496877943,-2.1091168836814371,-0.12620687808835315,1
1480376460,0.5401077328246973,42.338980906160558,-71.087574006275375,80.14020966410348,0.009001795547078287,0.00061546061235140718,0.0015484781094120682,6.6806231626904242e-06,0.00010586799265956892,0.0010647324975321154,1.945910149055313,0.0071343489598404367,-2.1063396552890628,-0.12922619011806172,1
1480376490,7.642258036815527,42.338974381487603,-71.087544360193363,95.973373007123385,0.1273709672802588,0.042958060174932124,0.097652366376371341,9.4009214626535973e-05,0.00012219292947326753,0.08261788012423249,1.6609474332869181,0.45798852831061992,-1.7135748080682678,-0.73183772894863275,1
1480376520,38.8725428859457,42.338833086703353,-71.087517397548709,113.20407468949367,0.6478757147657617,0.15030548186372905,0.49773716757628494,0.049087532097455241,0.050696051818147063,0.095723514588098121,1.8640435797520258,1.2010885751710354,-1.1392058113436019,-1.326044681995483,1
1480376550,52.08584623400779,42.338763755704989,-71.087759489525254,41.114701724903611,0.8680974372334631,0.19287817493620699,0.49773716757628494,0.050295339867898643,0.061311479067613098,0.42856298768459794,1.8891591637540219,1.3211091172821754,-0.85637173097066488,-1.2910270419358001,1
1480376580,44.19525452189234,42.33886286550419,-71.087941867365601,27.944063729613056,0.7365875753648723,0.21119549934977461,0.62241372278932727,0.05883690475096294,0.094064840266818023,0.44109393971748162,1.791759469228055,1.1770538306423479,-0.13775233403213941,-1.2600464807487584,1
1480376610,22.789810235357493,42.338994876986682,-71.088096051077443,37.666666666666664,0.3798301705892915,0.26198750012552913,0.69454290614325398,5.0774405748266622e-05,0.059963174383004872,0.47529413035091739,1.8891591637540215,1.4485269894063912,-0.38822343199030057,-1.2745289368784944,1
1480376640,0.0,42.339027207384206,-71.088120248234901,60.166666666666664,0.0,0.27902965490186937,0.70857413117777857,5.0774405748266622e-05,0.052698048490686267,0.5113587220278808,1.9459101490553139,1.5233523840082956,0.30164063846925615,-1.2700762640247127,1
1480376670,11.348182072608385,42.339004333172198,-71.088121067123495,76.129764129635888,0.1891363678768064,0.24508527418225171,0.70857413117777857,0.0024479667660955978,0.017372560916958765,0.18696706992321063,1.791759469228055,1.2983945699831123,0.43389835570344637,-1.2290284483074103,1
1480376700,11.514135587174083,42.338801890959985,-71.088140491512121,73.954174453725599,0.1919022597862347,0.04866630851244963,0.14383470565484971,0.00015253461178228888,0.0028113808477298469,0.024378461728932009,1.7770332013812697,0.66155502217568618,-0.90401036076066232,-0.65607267892872267,1
1480376730,7.798571982696722,42.338738504295662,-71.088139629208982,65.0,0.12997619971161203,0.013577981709670004,0.040362393224027578,1.2080561265572952e-06,9.7725581417394106e-05,0.0038807525183520162,1.8675843750169276,0.10407442426889134,-0.80267695961635266,-0.09316890584321591,1
1480376760,12.949829776929027,42.338752293345046,-71.088147702840899,65.0,0.21583049628215045,0.0013194026236236448,0.003943543739954424,1.2080561265572952e-06,0.0002703672932760459,0.0014933550282978706,1.7917594692280547,-0.037975951804523969,-0.89955847395273636,0.10729072911381303,1
1480376790,2.4299705131101703,42.338767952299989,-71.088175311991648,65.0,0.04049950855183617,0.0044118969195687209,0.013662709766918676,0.00030526002115174611,0.00069632753704812543,0.0022506914168148691,1.8675843750169276,-0.032521674571117314,-0.90948338539263607,0.10202968578351106,1
1480376820,1.484248695203971,42.338773650531451,-71.088177190092068,65.0,0.024737478253399517,0.0049668043190478923,0.013662709766918676,0.00030526002115174611,0.00081855054018947586,0.0066269174837665255,1.8842428460867402,-0.02999043742256861,-0.91167969909711555,0.10202007156442235,1
1480376850,2.6855535330830387,42.338771560426125,-71.088176414521655,65.0,0.04475922555138398,0.0034433238702806092,0.010250768152806325,0.0011971655262293865,0.0015806431042753922,0.0069642213915373594,1.7480673485460896,-0.026105661401318345,-0.90224818199522006,0.10257931018234229,1
1480376880,1.2261820509151475,42.338763724357086,-71.088175865429662,65.0,0.02043636751525246,0.0067729722213789572,0.022887665838550682,0.0016163159802817964,0.0031428333235752432,0.0064182977446218866,1.8562701281920879,-0.031211865144885324,-0.88830317337011633,0.098434100808727276,1
1480376910,6.61108951457335,42.338769608154493,-71.088176805277371,65.0,0.11018482524288917,0.0075095768604504839,0.022887665838550682,3.2591621173523595e-05,0.0004231435331545747,0.0045350317452310489,1.8056165767134953,-0.027845773412697106,-0.87202509302562181,0.097277612424780155,1
1480376940,0.4088397219351894,42.338772384037235,-71.088180321690459,65.0,0.0068139953655864905,0.0016935452282264229,0.0049198592026922297,3.2591621173523595e-05,0.00031838732620269154,0.0018628422908047177,1.7917594692280547,-0.025409717435389504,-0.84278030677930105,0.099946999396730019,1
1480376970,1.877088439426535,42.338764689419392,-71.088175374105575,65.0,0.03128480732377558,0.0022338827007707825,0.0069320292766224638,0.00071775588709464952,0.0007829766382898961,0.0042307756223808664,1.8675843750169276,-0.030805148790807316,-0.78456827445314958,0.097809971934328707,1
1480377000,2.8300813506243343,42.338763721062975,-71.088175324656376,65.0,0.04716802251040557,0.0085604093409942152,0.026693475711413256,0.00071775588709464952,0.0015160030930661639,0.0052368606593459835,1.8056165767134955,-0.037836828288684558,-0.69707017104125513,0.09544368895744168,1
1480377030,3.8205064039231154,42.338760840309803,-71.088179834348438,65.0,0.06367510673205193,0.021302599529196935,0.058109817417026574,9.2418200298846243e-05,0.0012189491891025695,0.020768563017665772,1.6581101035673731,-0.10946717046484722,-0.4823403798002211,0.093508609218529548,1
1480377060,1.2232382546092508,42.338758147057526,-71.088178259232166,65.614745837000598,0.020387304243487513,0.020112637486538246,0.058109817417026574,5.9623606173353984e-06,4.9288943436421901e-05,0.0017589720366378017,1.8675843750169276,-0.19447236904553317,-0.43235682531022718,0.035372744530809477,1
1480377090,1.6310328061134056,42.338760544600909,-71.08817813767871,65.676220420700659,0.027183880101890094,0.00087264516187009298,0.0026564590832658681,5.9623606173353984e-06,9.6074795500768843e-05,0.0010775158250762075,1.945910149055313,-0.21275899725797884,-0.46214380751144718,-0.020620166590820006,1
1480377120,4.462058156079938,42.338764766292627,-71.0881697824193,65.0,0.07436763593466564,0.00098096839345261535,0.0033290584741379457,0.00018598990442754014,0.00085137745231371009,0.0010866327775931549,1.7917594692280547,-0.20494256932492269,-0.42586817947190436,-0.056401433792084503,1
1480377150,0.5092715951622686,42.338770720169705,-71.088174614353889,65.0,0.008487859919371144,0.0017952189073614112,0.0049420799757659501,1.5232048063474914e-06,1.3941737911760525e-05,0.0021769133207710555,1.945910149055313,-0.21808212296276414,-0.42285143334406461,-0.089970214137405344,1
1480377180,0.45881361531882014,42.33876870983682,-71.088177082834889,65.0,0.007646893588647003,0.0018613794929870067,0.0049420799757659501,1.5232048063474914e-06,1.3941737911760525e-05,0.0016536629414145181,1.945910149055313,-0.24788359645073171,-0.40031787443079681,-0.11591926500681793,1
1480377210,2.175275154599567,42.338763609107446,-71.088177043403604,65.0,0.03625458590999278,0.0011296604316145052,0.0031072801743432712,6.0084247166904812e-06,3.3590763404176152e-05,0.0001827267113930888,1.7917594692280547,-0.2468959887731805,-0.35633059527668171,-0.14361456749788334,1
1480377240,0.2548616217236058,42.338766962922989,-71.088185359814005,65.0,0.004247693695393431,0.0032190688653476623,0.0092864796329250373,6.0084247166904812e-06,7.6035053632692644e-06,0.00025233738998179923,1.8675843750169279,-0.22367215833845985,-0.34319759729686944,-0.14165401923455329,1
1480377270,2.8267045901037395,42.338768434231568,-71.088176559834508,65.0,0.047111743168395656,0.0032257846568304344,0.0092864796329250373,7.4081906697354139e-06,1.1483570857943746e-05,0.00020096609903769521,1.8675843750169276,-0.23758896799157042,-0.37311363475812626,-0.11539229143317344,1
1480377300,6.098680915026818,42.338779115403185,-71.088177093389845,65.0,0.10164468191711364,7.1869929666009444e-05,0.00017730216253615761,5.8530380228814163e-06,1.5565248700053882e-05,0.00012581670354066602,1.7917594692280547,-0.26708459013243163,-0.40910823758004417,-0.097944301155062252,1
1480377330,7.369116972487954,42.338761123709503,-71.088169097242812,65.0,0.12281861620813257,0.00047753982292394499,0.0012749903653660078,4.3948242489931975e-06,8.2133131667409446e-05,0.00064822425126804682,1.945910149055313,-0.24110044806251743,-0.27024082990268089,-0.11762491852864232,1
1480377360,1.975146890896313,42.338758639612884,-71.088170020315786,65.0,0.03291911484827188,0.00079270004230248337,0.0021406968927199449,4.3948242489931975e-06,0.00037482509047519533,0.0016940402887959945,1.945910149055313,-0.22168689832626276,-0.18345796282449636,-0.11237702942666408,1
1480377390,0.3949363804820592,42.338773964659602,-71.088180460463761,65.0,0.00658227300803432,0.00088268907063712753,0.0021406968927199449,1.1400998395363359e-05,0.00022343614553488642,0.0017239149936208924,1.7917594692280547,-0.23729122849783502,-0.23622637395062118,-0.085630539655461316,1
1480377420,1.4405448329717894,42.338776156348409,-71.088180436444048,65.0,0.024009080549529823,0.00059138608849354296,0.0018719286838011387,1.1400998395363359e-05,0.00016874384036537029,0.00059107871426806861,1.945910149055313,-0.2330064441520204,-0.33584657195446288,-0.043049614022107781,1
1480377450,1.9777865104420997,42.338776700201024,-71.088181563542761,65.0,0.032963108507368326,0.001429405586132962,0.0045466370869314448,0.00020022925864400108,0.00041422448976845939,0.0021524069407016289,1.945910149055313,-0.21632993745127901,-0.48277666888327847,0.028153167312939799,1
1480377480,0.5746810062476677,42.338768290920612,-71.088179008643351,65.0,0.009578016770794461,0.044157846348481453,0.12026570214788759,5.2192056613142645e-06,0.00087786300799862303,0.0040181991145991133,1.710560083757924,-0.24348669759812167,-0.99255507985242097,0.059291342617494851,1
1480377510,3.7485900926569276,42.338768095180782,-71.088181742058055,65.0,0.06247650154428212,0.042045962967463948,0.12026570214788759,1.3345833208345637e-06,2.7182309838173291e-06,0.00032705040053421019,1.8675843750169276,-0.1178704101310437,-1.5931807047134607,0.013613232678350204,1
1480377540,1.9680763438316282,42.338762482137469,-71.088172375909267,65.0,0.032801272397193805,2.8235232492473536e-06,9.2314904104852417e-06,4.1514103052198313e-07,1.6543750397493901e-06,4.635055939358357e-06,1.945910149055313,0.0039741573004640988,-1.7475685394047986,0.00086613623288567753,1
1480377570,1.199378246225676,42.338753076730583,-71.088164588937005,65.0,0.019989637437094598,1.9133023346429143e-06,5.8078166697462724e-06,3.9120116969949772e-07,4.4122212655832083e-07,2.3015552751228983e-06,1.7917594692280547,0.004226154758844961,-1.7473247843236202,0.0010959928106231726,1
1480377600,2.530078812839063,42.338750276915661,-71.088170659386321,65.0,0.042167980213984387,4.7443481951800844e-06,1.3031354981601832e-05,3.9120116969949772e-07,6.1078672466434558e-07,6.044358500635062e-06,1.945910149055313,0.0044176448588162413,-1.7459459940858084,0.0011930622760549445,1
