TIMESTAMP,DISTANCE,AVG_LAT,AVG_LNG,GPS_ACCURACY,AVG_SPEED_BY_GPS,ACCLERATOR_STD,MAX_ACCLERATOR,MIN_ACCLERATOR,PERCENTILE_25_ACCLERATOR,PERCENTILE_75_ACCLERATOR,ACCLERATOR_ENTROPY,AVG_ROLL,AVG_YAW,AVG_PITCH,WEEK_DAY
1480000920,3.0106732729608607,42.331550060507176,-71.110006286626472,10.0,0.05017788788268101,0.00028934776830022451,0.00078304413067363629,3.7148018919223636e-06,4.6997747378461339e-06,1.1791973888039645e-05,1.7917594692280547,-0.18793640803460812,-0.68468496269798507,0.0050506692272161606,4
1480000950,0.0,42.331549208650706,-71.110004978320703,10.0,0.0,7.8286933351774004e-05,0.00022878570612129052,2.6911211071723703e-06,4.1555452258212081e-06,7.328311527758705e-06,1.945910149055313,-0.22179088440773614,-0.82444620905630439,-0.14293191569686217,4
1480000980,0.0,42.331549208650706,-71.110004978320703,10.0,0.0,8.4104851007047295e-05,0.00022878570612129052,1.1425501393940049e-06,1.9018552242281188e-06,6.7026589754983698e-06,1.7917594692280547,-0.22193396720839967,-0.82334813400009421,-0.14261194842205902,4
1480001010,0.0,42.331549208650706,-71.110004978320703,10.0,0.0,3.3712134483908478e-06,1.1260670314862948e-05,4.8374580705609874e-07,1.4533745406157577e-06,3.7166541491528424e-06,1.945910149055313,-0.22219453419624971,-0.82350488271208333,-0.14220344009379887,4
1480001040,0.0,42.331549208650706,-71.110004978320703,10.0,0.0,1.9729358408955953e-05,6.0198273679184921e-05,4.8374580705609874e-07,3.5885995930762257e-06,7.6310179659466035e-06,1.945910149055313,-0.22273153233175913,-0.82304864108692466,-0.14246699304201929,4
1480001070,0.0,42.331549208650706,-71.110004978320703,10.0,0.0,2.125646214824579e-05,6.0198273679184921e-05,4.1568416498457764e-07,3.3690290813966708e-06,4.788146310845596e-06,1.7917594692280547,-0.22377195128720398,-0.82308462809905736,-0.1428584781976695,4
1480001100,0.0,42.331549208650706,-71.110004978320703,10.0,0.0,1.4976163816176601e-06,5.3336645509847315e-06,4.1568416498457764e-07,3.0179673813222832e-06,4.2320742713722109e-06,1.945910149055313,-0.22432202538298002,-0.82401565304485591,-0.14295352453742657,4
1480001130,0.0,42.331549208650706,-71.110004978320703,10.0,0.0,1.41721738106125e-06,5.4065609771104254e-06,9.5183718143115568e-07,3.0179673813222832e-06,4.3700261705084522e-06,1.945910149055313,-0.22492981076254656,-0.82435121634603037,-0.14277958705430444,4
1480001160,0.0,42.331549208650706,-71.110004978320703,10.0,0.0,3.0558100571579526e-06,9.3132526244543149e-06,2.4545037991487067e-07,1.2883922497161769e-06,4.8523095855855289e-06,1.7917594692280547,-0.22549148519856801,-0.82479691284967738,-0.14238506979541532,4
1480001190,0.0,42.331549208650706,-71.110004978320703,10.0,0.0,3.096263693591352e-06,9.3132526244543149e-06,2.4545037991487067e-07,6.5010129858463037e-07,2.1783990837321151e-06,1.7917594692280547,-0.22544354809354464,-0.82472906686173886,-0.14220029795588782,4
1480001220,0.0,42.331549208650706,-71.110004978320703,10.0,0.0,1.663478475555827e-06,5.9546619423014947e-06,3.7253775692456578e-07,1.4327272599091371e-06,2.7929262603312076e-06,1.945910149055313,-0.22567979982825298,-0.82393923931854673,-0.14224134084000928,4
1480001250,0.0,42.331549208650706,-71.110004978320703,10.0,0.0,3.9322698961248964e-06,1.3482594259769259e-05,1.3826625962534502e-06,2.2843850859508611e-06,4.4897877843215298e-06,1.945910149055313,-0.2257613747804133,-0.82375045757629006,-0.14258818064356116,4
1480001280,0.0,42.331549208650706,-71.110004978320703,10.0,0.0,9.1901425802596124e-06,2.8782478446176418e-05,2.0078312775808718e-06,3.3828294480749168e-06,1.205321307232026e-05,1.7917594692280547,-0.22544466356195966,-0.82396347250719193,-0.14275393975156767,4
1480001310,0.0,42.331549208650706,-71.110004978320703,10.0,0.0,8.453941621598182e-06,2.8782478446176418e-05,2.615786546770961e-06,3.9344413781847488e-06,9.2042484560884179e-06,1.945910149055313,-0.22510860446287856,-0.82367042894457743,-0.14256440959925257,4
1480001340,0.0,42.331549208650706,-71.110004978320703,10.0,0.0,3.5816094656412426e-06,1.0643427402203571e-05,4.7567784698285357e-07,2.2959391250396215e-06,7.1421424377177311e-06,1.945910149055313,-0.22469489455032912,-0.82347267331024432,-0.14249673034139915,4
1480001370,0.0,42.331549208650706,-71.110004978320703,10.0,0.0,2.9174366451037294e-06,9.3628972816720261e-06,4.7567784698285357e-07,1.7822961434426064e-06,3.3667906489759747e-06,1.7917594692280547,-0.22583258139993867,-0.8232307056185153,-0.14185999395530483,4
1480001400,0.0,42.331549208650706,-71.110004978320703,10.0,0.0,2.1178393448538413e-06,8.1318945194385498e-06,1.734574950918916e-06,2.877908342606108e-06,5.6126338418380736e-06,1.945910149055313,-0.22802323780005013,-0.82221810257333439,-0.14051899999462455,4
1480001430,0.0,42.331549208650706,-71.110004978320703,10.0,0.0,2.255601538397944e-06,8.1318945194385498e-06,3.3056475678117625e-07,3.6330371539793393e-06,5.6126338418380736e-06,1.945910149055313,-0.22853413741360415,-0.82149632134794515,-0.13985107703618516,4
1480001460,0.0,42.331549208650706,-71.110004978320703,10.0,0.0,1.5008493607690352e-06,4.2675503254579252e-06,3.3056475678117625e-07,1.1397365078794606e-06,3.7193655226745448e-06,1.7917594692280547,-0.22874699286623035,-0.82200529640021014,-0.13990318807999799,4
1480001490,0.0,42.331549208650706,-71.110004978320703,10.0,0.0,1.0889887106917557e-06,4.2675503254579252e-06,7.6814997023082061e-07,1.7033356480915846e-06,2.8471254820942685e-06,1.945910149055313,-0.22895019427336002,-0.82324331922402894,-0.13996565235599098,4
1480001520,0.0,42.331549208650706,-71.110004978320703,10.0,0.0,1.4627421686575666e-06,4.7562187980427363e-06,8.1085337831353394e-08,1.1914736841877319e-06,2.7607732227895554e-06,1.945910149055313,-0.22896885320067389,-0.82349970457141841,-0.13988111591619587,4
1480001550,0.0,42.331549208650706,-71.110004978320703,10.0,0.0,1.792636112012832e-06,4.7562187980427363e-06,8.1085337831353394e-08,1.0760951773177842e-06,4.2644542328025125e-06,1.7917594692280547,-0.22950735485446916,-0.8240128201179141,-0.14035940346243034,4
1480001580,0.0,42.331549208650706,-71.110004978320703,10.0,0.0,1.1544743578573036e-06,4.7263654988599461e-06,8.5469225736988989e-07,1.695506566180746e-06,2.7349649964011842e-06,1.945910149055313,-0.23211807313405827,-0.82574907525732999,-0.14278254814054631,4
1480001610,0.0,42.331549208650706,-71.110004978320703,10.0,0.0,9.9502010281355977e-07,3.9921599595368289e-06,8.5469225736988989e-07,1.2429048242762828e-06,2.353898990027119e-06,1.945910149055313,-0.23353995926125798,-0.82636033602977044,-0.14423309659638187,4
1480001640,0.0,42.331549208650706,-71.110004978320703,10.0,0.0,1.153076022367504e-06,3.9921599595368289e-06,4.9948934627793178e-07,9.8964286154673072e-07,2.1058342128272952e-06,1.7917594692280547,-0.23347717381203284,-0.82619650582247284,-0.14421349253774701,4
1480001670,0.0,42.331549208650706,-71.110004978320703,10.0,0.0,1.9737714762989297e-06,6.5117035425885644e-06,3.3660130494331778e-07,7.4676630993184695e-07,1.831824132392822e-06,1.945910149055313,-0.23366783498000759,-0.82596468436754678,-0.14405628819217559,4
1480001700,0.0,42.331549208650706,-71.110004978320703,10.0,0.0,4.2229350898081742e-05,0.0001229101237102195,3.3660130494331778e-07,1.340070438655259e-06,4.701243205231904e-06,1.945910149055313,-0.23355746501610117,-0.8260150705521585,-0.14413873514046688,4
1480001730,0.0,42.331549208650706,-71.110004978320703,10.0,0.0,4.4997904622317291e-05,0.0001229101237102195,8.2361036721993725e-07,1.2758942541871926e-06,4.1320136608123177e-06,1.7917594692280547,-0.23343137357484633,-0.82661702980012564,-0.14440013507153435,4
1480001760,0.0,42.331549208650706,-71.110004978320703,10.0,0.0,2.0450523415805229e-06,6.350965402187868e-06,6.1629618990057483e-07,9.6129558440646049e-07,3.2887061410671249e-06,1.945910149055313,-0.23356348834288013,-0.82763476506124289,-0.14454497493919943,4
1480001790,0.0,42.331549208650706,-71.110004978320703,10.0,0.0,9.8119255803610072e-06,3.0030910547414498e-05,6.1629618990057483e-07,1.5653179126346124e-06,4.318900125945175e-06,1.945910149055313,-0.23361265666267814,-0.82823632188646634,-0.14457320457319658,4
1480001820,0.0,42.331549208650706,-71.110004978320703,10.0,0.0,1.0153163495142078e-05,3.0030910547414498e-05,2.1633473488708463e-06,2.324162935583192e-06,4.2019037164476678e-06,1.7917594692280547,-0.23379973674790433,-0.82745413729336015,-0.14474049806887368,4
1480001850,0.0,42.331549208650706,-71.110004978320703,10.0,0.0,1.2347377375621948e-06,4.6481510331984085e-06,3.7046065897132778e-07,2.6089235166017075e-06,3.5494695766807289e-06,1.945910149055313,-0.23413221703820283,-0.82653285631951212,-0.14489623537623028,4
1480001880,0.0,42.331549208650706,-71.110004978320703,10.0,0.0,1.7656842778099432e-06,4.8368686314469349e-06,2.595523245402575e-07,3.3119130619519188e-07,3.5494695766807289e-06,1.945910149055313,-0.23431864535095071,-0.82644708388318233,-0.14489582239364143,4
1480001910,0.0,42.331549208650706,-71.110004978320703,10.0,0.0,6.6959791974795364e-06,1.9784053511327086e-05,2.595523245402575e-07,8.051953657248143e-07,5.3792171276295776e-06,1.7917594692280547,-0.23503765801167201,-0.82661173647161024,-0.14481959225213001,4
1480001940,0.0,42.331549208650706,-71.110004978320703,10.0,0.0,5.8825293801275092e-06,1.9784053511327086e-05,1.9605239993657395e-06,2.6290228915112418e-06,4.7027220456840877e-06,1.945910149055313,-0.23619649450224686,-0.82661347429127108,-0.14467631474541229,4
1480001970,0.0,42.331549208650706,-71.110004978320703,10.0,0.0,1.1693192963385992e-06,5.5098475409651342e-06,1.9586676073858899e-06,2.1558080203893705e-06,3.4087828037766037e-06,1.945910149055313,-0.238084152185884,-0.82370686695623263,-0.14468139123618598,4
1480002000,0.0,42.331549208650706,-71.110004978320703,10.0,0.0,1.4947865499862158e-06,5.5098475409651342e-06,1.0784063322598375e-06,1.3331176035030783e-06,2.2529859329062233e-06,1.7917594692280547,-0.2401468602003792,-0.81882474503171265,-0.14474820774116967,4
1480002030,0.0,42.331549208650706,-71.110004978320703,10.0,0.0,2.9460119858025671e-06,9.5993208166784741e-06,7.3450747936329544e-07,1.0599998068817981e-06,1.7296346480027607e-06,1.945910149055313,-0.23901893941540428,-0.8182183817342995,-0.1446886009465273,4
1480002060,0.0,42.331549208650706,-71.110004978320703,10.0,0.0,3.0072238961142152e-06,9.5993208166784741e-06,4.4269014955498033e-08,8.8805038043352694e-07,1.8842347458916382e-06,1.945910149055313,-0.23789020512377129,-0.818157662421514,-0.1446731727131137,4
1480002090,0.0,42.331549208650706,-71.110004978320703,10.0,0.0,6.8015895316506895e-06,1.9856342936233699e-05,4.4269014955498033e-08,1.8209331660792228e-06,9.4208417753194501e-06,1.7917594692280547,-0.23822504632827649,-0.81627063227418495,-0.14459874704499318,4
1480002120,0.0,42.331549208650706,-71.110004978320703,10.0,0.0,6.6777429325981297e-06,1.9856342936233699e-05,8.3566097929515047e-08,1.0359896621324041e-06,8.4361050123160072e-06,1.945910149055313,-0.23906658016185714,-0.8143550133951466,-0.14480451730630631,4
1480002150,0.0,42.331549208650706,-71.110004978320703,10.0,0.0,7.2273326972971503e-07,2.0550337911959514e-06,8.3566097929515047e-08,6.6347678539229785e-07,1.8312747406499273e-06,1.945910149055313,-0.23922350156668171,-0.81368056630413599,-0.14505724193290814,4
1480002180,0.0,42.331549208650706,-71.110004978320703,10.0,0.0,1.7068918357080569e-06,5.8585536875797826e-06,7.9790275377405952e-07,1.0898134852678731e-06,1.9715867532698617e-06,1.7917594692280547,-0.23913643747561197,-0.81308447443207521,-0.14507811012045319,4
1480002210,0.0,42.331549208650706,-71.110004978320703,10.0,0.0,6.4111851460226546e-06,1.9724216247285157e-05,2.1246743212079553e-07,9.1421500128731915e-07,4.2443085982815116e-06,1.945910149055313,-0.23819491554543287,-0.81285261979663115,-0.14503974246035028,4
1480002240,0.0,42.331549208650706,-71.110004978320703,10.0,0.0,6.4194541764413227e-06,1.9724216247285157e-05,2.1246743212079553e-07,1.0303914098913823e-06,2.7142663941716837e-06,1.945910149055313,-0.23756474847040857,-0.81289633239952264,-0.14500726691964583,4
1480002270,0.0,42.331549208650706,-71.110004978320703,10.0,0.0,6.8413447302127434e-07,2.7984692793601271e-06,6.6680590944452698e-07,1.1580035559711352e-06,1.9303283434041139e-06,1.7917594692280547,-0.23768497311429401,-0.81152755786870789,-0.14522472214315782,4
1480002300,0.0,42.331549208650706,-71.110004978320703,10.0,0.0,6.4421486140775671e-07,1.9717093887239877e-06,9.1829097942748559e-08,5.7611595785626418e-07,1.3043124570451417e-06,1.945910149055313,-0.23790290220363688,-0.81029782414277618,-0.14537225251153998,4
1480002330,0.0,42.331549208650706,-71.110004978320703,10.0,0.0,6.4929791560735188e-07,2.1764104761568992e-06,9.1829097942748559e-08,3.0933739052819582e-07,7.3724550253636382e-07,1.945910149055313,-0.23791806228157242,-0.81033367410510226,-0.14538938881956012,4
1480002360,0.0,42.331549208650706,-71.110004978320703,10.0,0.0,2.0177791059631716e-06,5.9486426064252451e-06,1.3324877478839013e-07,2.4850462776337758e-07,2.0981664171222837e-06,1.7917594692280547,-0.23781736260510467,-0.81039609836498749,-0.14546855646407231,4
1480002390,0.0,42.331549208650706,-71.110004978320703,10.0,0.0,1.8969017744235352e-06,5.9486426064252451e-06,1.4849803388473539e-07,1.0486293872249529e-06,3.4611038281198337e-06,1.945910149055313,-0.2374168814096867,-0.81097013643799354,-0.14532879335428314,4
1480002420,0.0,42.331549208650706,-71.110004978320703,10.0,0.0,1.2683244101276754e-06,3.6240896414763177e-06,2.3382453443146841e-07,9.0809013755622244e-07,3.2170782816962598e-06,1.945910149055313,-0.23694081803596001,-0.81174869865305976,-0.14492699702587628,4
1480002450,0.0,42.331549208650706,-71.110004978320703,10.0,0.0,9.2410794171182201e-07,3.0877819840815373e-06,7.6434684780690787e-08,8.7788275451125734e-07,1.5788325087893574e-06,1.7917594692280547,-0.23665474334832534,-0.8125176173271571,-0.14453891136161801,4
1480002480,0.0,42.331549208650706,-71.110004978320703,10.0,0.0,4.7350064146975081e-06,1.4643534605450466e-05,7.6434684780690787e-08,6.5038795768249753e-07,3.4912981219987744e-06,1.945910149055313,-0.23670564729485127,-0.81256605888978162,-0.14454259684359472,4
1480002510,0.0,42.331549208650706,-71.110004978320703,10.0,0.0,5.526229388947054e-06,1.4643534605450466e-05,2.4199696798760408e-07,9.5700367280391186e-07,8.0452231288113056e-06,1.945910149055313,-0.23670606476291373,-0.81246942394912003,-0.14452857270737587,4
1480002540,6.0883252201199785,42.331548638681291,-71.109990382633299,10.0,0.10147208700199964,8.6065454904752156e-05,0.00023664605363957357,8.5522839823043275e-07,2.3130866745205704e-06,1.1789031057981675e-05,1.7917594692280547,-0.16644377835263238,0.26752846271459713,-0.094163631851184079,4
1480002570,6.0883252201199785,42.331547569988636,-71.109963015719401,10.0,0.10147208700199964,8.0617372147389989e-05,0.00023664605363957357,2.9424126632594558e-06,5.3831575481011867e-06,9.1198232807108081e-06,1.945910149055313,-0.051095276137710234,1.9699335028115021,-0.011337294461686092,4
1480002600,0.0,42.331547071265405,-71.109950244492907,10.0,0.0,3.0283438041243723e-06,1.3688736723132569e-05,2.9424126632594558e-06,6.0260760914701621e-06,7.8151892784533291e-06,1.945910149055313,-0.017086973758984471,2.437141182043066,0.012950669238083801,4
1480002630,0.0,42.331547071265405,-71.109950244492907,10.0,0.0,3.9154210318076709e-06,1.3688736723132569e-05,2.3381587278903407e-06,3.0366859464785166e-06,7.6086977422574287e-06,1.7917594692280547,-0.016806632412220902,2.4381344082735468,0.0127808749690581,4
1480002660,0.0,42.331547071265405,-71.109950244492907,10.0,0.0,2.1560763335927397e-06,8.0906454397825384e-06,2.3381587278903407e-06,2.787066856113178e-06,6.579596717179573e-06,1.945910149055313,-0.016652536125621186,2.4385184378273932,0.012706236738352328,4
1480002690,0.0,42.331547071265405,-71.109950244492907,10.0,0.0,1.499356234968675e-06,8.0906454397825384e-06,2.7507782400359776e-06,5.9476437338995098e-06,6.579596717179573e-06,1.945910149055313,-0.016499380736311142,2.4387053561980827,0.012679482346567059,4
1480002720,0.0,42.331547071265405,-71.109950244492907,10.0,0.0,7.4874250117034355e-07,7.884514886897132e-06,5.7805979675587361e-06,6.138764656413198e-06,7.2730017011595816e-06,1.7917594692280547,-0.016307412093203747,2.4390589262901599,0.012633239944268267,4
1480002750,0.0,42.331547071265405,-71.109950244492907,10.0,0.0,2.0081756081149882e-06,1.2996956126928257e-05,7.0405585309909202e-06,7.3741295083245366e-06,9.0054088883186769e-06,1.945910149055313,-0.01621386633808054,2.4385335044490688,0.012581635980956029,4
1480002780,0.0,42.331547071265405,-71.109950244492907,10.0,0.0,2.5660150002428146e-06,1.2996956126928257e-05,4.9834241316897279e-06,6.8064384629185815e-06,1.030943215984511e-05,1.945910149055313,-0.016207419695974355,2.4380987609885127,0.012583093922357557,4
1480002810,0.0,42.331547071265405,-71.109950244492907,10.0,0.0,2.2152547038741506e-06,1.0492561429949997e-05,3.4182171843352076e-06,5.0895560021984105e-06,7.0383503663495493e-06,1.7917594692280547,-0.016176172587347912,2.4384617863110187,0.012602376350944402,4
1480002840,0.0,42.331547071265405,-71.109950244492907,10.0,0.0,2.8373291665297654e-06,1.2565960372842862e-05,3.4182171843352076e-06,6.2128937155950258e-06,9.5809779782975337e-06,1.945910149055313,-0.016187617633114958,2.4386076925917171,0.012579064274975058,4
1480002870,0.0,42.331547071265405,-71.109950244492907,10.0,0.0,2.2474586502301878e-06,1.428050498340941e-05,7.0178358174655951e-06,9.3141856505413429e-06,1.2099113645370164e-05,1.945910149055313,-0.016155579002759445,2.4384502739923994,0.0124922904324488,4
1480002900,0.0,42.331547071265405,-71.109950244492907,10.0,0.0,4.0259352441116002e-06,1.6981110496636213e-05,5.8502198932757774e-06,7.1464936135465502e-06,1.3618445467031424e-05,1.7917594692280547,-0.016071211504688033,2.4385298758380349,0.012414954566506481,4
1480002930,0.0,42.331547071265405,-71.109950244492907,10.0,0.0,4.3182225246451939e-06,1.6981110496636213e-05,2.7210254154841211e-06,5.742768135785776e-06,8.3092213240189446e-06,1.945910149055313,-0.016009907186973444,2.4390601737329747,0.012463046429687928,4
1480002960,0.0,42.331547071265405,-71.109950244492907,10.0,0.0,2.941055040831717e-06,1.1777022717252762e-05,2.7210254154841211e-06,5.8849650837164781e-06,1.0147355388083892e-05,1.945910149055313,-0.015983029699262099,2.4393530714088953,0.012427008604491257,4
1480002990,0.0,42.331547071265405,-71.109950244492907,10.0,0.0,2.4569474663724206e-06,1.1777022717252762e-05,4.9245545210678752e-06,7.7098621411292397e-06,1.1283406343292659e-05,1.7917594692280547,-0.0160018134846262,2.4392732751412036,0.012435755909791317,4
1480003020,0.5922491387535039,42.331550360463908,-71.109951313185576,10.0,0.009870818979225066,1.2365618322745484e-05,4.3332685125718397e-05,4.9245545210678752e-06,8.031911284724325e-06,1.7112651344584366e-05,1.945910149055313,-0.017947018077719219,2.5992321721181999,0.0044563947376929343,4
1480003050,0.5922491387535039,42.331556164931854,-71.109953199113832,10.0,0.009870818979225066,1.2439659332491631e-05,4.3332685125718397e-05,4.4046252172518682e-06,8.2136254692548946e-06,1.7112651344584366e-05,1.945910149055313,-0.023469031549750857,2.7588887268531797,-0.0050532832986389898,4
1480003080,0.2437219416093069,42.331559280205859,-71.109953720188827,10.0,0.004062032360155115,3.0515858167527639e-05,7.9324549478645366e-05,4.4046252172518682e-06,7.6269405579775593e-06,5.1271423844222398e-05,1.7917594692280547,-0.024499590425887716,2.8130598390333001,-0.0085353065846474271,4
1480003110,0.2437219416093069,42.331561459500669,-71.109952881998467,10.0,0.004062032360155115,2.8489430276133263e-05,7.9324549478645366e-05,5.6784844681493572e-06,8.9364248775690495e-06,3.8706792833411219e-05,1.945910149055313,-0.014364393241700685,2.8174401756795229,-0.0064916696979616575,4
1480003140,0.0,42.331563038790911,-71.1099523399687,10.0,0.0,3.5128730750809405e-06,1.2741714500196583e-05,3.3573203284933205e-06,5.487136323425884e-06,1.1778706743550206e-05,1.945910149055313,-0.0096674782613224413,2.8192314774619609,-0.005897875041035611,4
1480003170,0.0,42.331563038790911,-71.1099523399687,10.0,0.0,4.5429389829404415e-06,1.7418355128988237e-05,3.3573203284933205e-06,6.3437870717428635e-06,1.1332242456724066e-05,1.7917594692280547,-0.0090280064621654065,2.8184775850885715,-0.0059698683151695039,4
1480003200,0.0,42.331563038790911,-71.1099523399687,10.0,0.0,3.5864367304637782e-06,1.7418355128988237e-05,5.0695199265778476e-06,8.4633747920165377e-06,1.0778123213733678e-05,1.945910149055313,-0.0088168065469178148,2.8182419369967531,-0.0059730054513474507,4
1480003230,0.0,42.331563038790911,-71.1099523399687,10.0,0.0,1.8085017101214378e-06,1.0794609528484594e-05,5.0695199265778476e-06,7.132317745344278e-06,9.5295471997947361e-06,1.945910149055313,-0.0087202029427941013,2.8180690979870571,-0.006023415093294497,4
1480003260,0.0,42.331563038790911,-71.1099523399687,10.0,0.0,1.7747936323256089e-06,1.1451768368818139e-05,6.8384347482903806e-06,7.3651984385508135e-06,1.0163283384040495e-05,1.7917594692280547,-0.0086091256941642092,2.8180034994894334,-0.0060377886878732667,4
1480003290,0.0,42.331563038790911,-71.1099523399687,10.0,0.0,2.7242702645964518e-06,1.3470708864717276e-05,5.208439443531099e-06,6.6724008088380665e-06,9.8605366597631682e-06,1.945910149055313,-0.0085421570887477469,2.8181711571332442,-0.0059739498346940258,4
1480003320,0.0,42.331563038790911,-71.1099523399687,10.0,0.0,3.0468055802516354e-06,1.3470708864717276e-05,2.95000507774889e-06,5.5693646674931369e-06,7.7948386705844318e-06,1.945910149055313,-0.0085906411066339703,2.8182413388635759,-0.0060134350309268706,4
1480003350,0.0,42.331563038790911,-71.1099523399687,10.0,0.0,1.4822756123995035e-06,7.5039642205415165e-06,2.95000507774889e-06,6.0117682701321059e-06,6.9231535061232481e-06,1.7917594692280547,-0.0085306125328588958,2.8180947791523132,-0.0060423739852800591,4
1480003380,0.0,42.331563038790911,-71.1099523399687,10.0,0.0,3.0227232787333381e-06,1.5691986241049517e-05,6.2562034061628965e-06,6.8842272645018322e-06,9.9936048444577499e-06,1.945910149055313,-0.0084279912082193976,2.8180449081739587,-0.005972699620783989,4
1480003410,0.0,42.331563038790911,-71.1099523399687,10.0,0.0,2.494295222336817e-06,1.5691986241049517e-05,7.9174652977131795e-06,8.47528265447665e-06,9.9936048444577499e-06,1.945910149055313,-0.0084084772225975091,2.8181443595718463,-0.0059873098682511608,4
1480003440,0.0,42.331563038790911,-71.1099523399687,10.0,0.0,1.5256757629931085e-06,8.810410215139828e-06,4.3627653849968999e-06,8.0001461341427112e-06,8.5522380430355433e-06,1.7917594692280547,-0.0084003308931751355,2.8185493762194445,-0.0060482363521723462,4
1480003470,0.0,42.331563038790911,-71.1099523399687,10.0,0.0,2.4949189821355863e-06,1.2651267770725238e-05,4.3627653849968999e-06,7.4189720940733431e-06,1.0197035988336881e-05,1.945910149055313,-0.0083853337611156393,2.8185572003870933,-0.0060543376264031159,4
1480003500,0.0,42.331563038790911,-71.1099523399687,10.0,0.0,2.9774174510616233e-06,1.6833938906193583e-05,6.5897555447153817e-06,9.4303295924695442e-06,1.1426151717196192e-05,1.945910149055313,-0.0083753148799555859,2.8180712852993759,-0.0060411892349576061,4
1480003530,0.0,42.331563038790911,-71.1099523399687,10.0,0.0,4.1087399747841743e-06,1.6833938906193583e-05,2.6482405282040705e-06,9.1333393351471486e-06,9.9769134171702282e-06,1.7917594692280547,-0.008371115157220518,2.8177565956905184,-0.0060485467758192692,4
1480003560,0.0,42.331563038790911,-71.1099523399687,10.0,0.0,2.4114146389428564e-06,1.0122129054106854e-05,2.6482405282040705e-06,6.5437279939498889e-06,9.4357920794251446e-06,1.945910149055313,-0.0083341839634962066,2.8176613547510585,-0.0060695954068240975,4
1480003590,0.0,42.331563038790911,-71.1099523399687,10.0,0.0,2.2842554558706243e-06,1.3200078205486968e-05,5.9630986465184173e-06,6.9707579753289045e-06,9.2713487073779785e-06,1.945910149055313,-0.0083043909248527309,2.8175329315447257,-0.0060945394736887518,4
1480003620,0.0,42.331563038790911,-71.1099523399687,10.0,0.0,2.2570483137855015e-06,1.3200078205486968e-05,6.2555674126921647e-06,7.050678936069327e-06,8.6910831610516943e-06,1.7917594692280547,-0.0082839702313309959,2.8174211343899285,-0.006084684449598793,4
1480003650,0.0,42.331563038790911,-71.1099523399687,10.0,0.0,1.3653182552872184e-06,9.1169232179120975e-06,5.3595429129810191e-06,5.8544539523915345e-06,8.1441340654639461e-06,1.945910149055313,-0.0082759857103487863,2.8172648672859077,-0.0060711992039815385,4
1480003680,0.0,42.331563038790911,-71.1099523399687,10.0,0.0,2.2250360710509422e-06,1.1046152519300797e-05,4.1778023017615494e-06,5.4064417025359621e-06,8.5229683116052342e-06,1.945910149055313,-0.0082707857555990756,2.8173593609949568,-0.006115072492710808,4
1480003710,0.0,42.331563038790911,-71.1099523399687,10.0,0.0,2.7556590234063131e-06,1.2767476947282954e-05,4.1778023017615494e-06,7.9527690290683629e-06,1.0874046847192671e-05,1.7917594692280547,-0.0082835715317205738,2.8178136520672918,-0.0061194044997006083,4
1480003740,0.0,42.331563038790911,-71.1099523399687,10.0,0.0,3.3984427273354179e-06,1.5437642574832504e-05,4.3570350973111818e-06,7.7372900566011087e-06,1.1562603389075621e-05,1.945910149055313,-0.0082041332418084038,2.8176888473085557,-0.0060906194407074638,4
1480003770,0.0,42.331563038790911,-71.1099523399687,10.0,0.0,4.903546235875156e-06,1.8163493379355585e-05,4.3570350973111818e-06,7.8928440457953263e-06,1.6251412992884893e-05,1.945910149055313,-0.0081553453820184998,2.8174796322990985,-0.006090044185940593,4
1480003800,0.0,42.331563038790911,-71.1099523399687,10.0,0.0,4.2068379083703008e-06,1.8163493379355585e-05,7.2806773882967251e-06,8.4486395059552214e-06,1.5754021451810192e-05,1.7917594692280547,-0.0082161363578859906,2.8174610678908536,-0.0060490882513471742,4
1480003830,0.0,42.331563038790911,-71.1099523399687,10.0,0.0,3.3891359044476413e-06,1.6979608665305655e-05,7.2306890259724484e-06,7.2983120179364313e-06,1.1261842698047566e-05,1.945910149055313,-0.0083138878889997391,2.8171162399148071,-0.0060751192977202915,4
1480003860,0.0,42.331563038790911,-71.1099523399687,10.0,0.0,3.0468555359150808e-06,1.6979608665305655e-05,7.2306890259724484e-06,8.3870424546328297e-06,1.123574620646923e-05,1.945910149055313,-0.008287537887977748,2.8170040822518128,-0.0061088730351190274,4
1480003890,0.0,42.331563038790911,-71.1099523399687,10.0,0.0,2.3715717570713522e-06,1.1345373466433882e-05,4.257960091635909e-06,8.1530847628761729e-06,1.0709123775300814e-05,1.7917594692280547,-0.0081898595178486865,2.8173464260317167,-0.0061039611361586379,4
1480003920,0.0,42.331563038790911,-71.1099523399687,10.0,0.0,6.8380556186795492e-05,0.00018663380806699807,4.257960091635909e-06,7.5821807086173497e-06,6.4761832944570629e-05,1.945910149055313,-0.40722375956295281,1.0112908150468385,-0.21534217745397294,4
1480003950,0.0,42.331563038790911,-71.1099523399687,10.0,0.0,0.00076546563646086351,0.0022580594283430461,7.023751124879341e-06,1.9741336749586684e-05,0.00015352023095137769,1.945910149055313,-0.73112202832368378,0.98601774195331415,-0.78485863673202239,4
1480003980,0.0,42.331563038790911,-71.1099523399687,10.0,0.0,0.055161429452651768,0.14904288715049441,3.0365661445789442e-05,0.00030958556225565569,0.0021759851893290573,1.710560083757924,-1.0841408191661239,2.4312371642805566,-1.3673056013082334,4
1480004010,0.0,42.331563038790911,-71.1099523399687,10.0,0.0,0.051990775123199488,0.14904288715049441,1.7663443481074714e-06,3.3364548753550877e-06,0.0014147551844323027,1.8675843750169276,-1.4606850712449335,1.9794485715393804,-1.4377531678582056,4
1480004040,0.0,42.331563038790911,-71.1099523399687,10.0,0.0,7.6717087220165678e-05,0.00023074351485422869,1.7663443481074714e-06,3.3364548753550877e-06,3.8709030164922004e-05,1.945910149055313,-1.4398154141536064,1.9392724783571356,-1.4605498621833188,4
1480004070,0.0,42.331563038790911,-71.1099523399687,10.0,0.0,9.1713629598474085e-05,0.00023074351485422869,2.6019131333990695e-06,1.6750101896891079e-05,0.00017875657975926983,1.7917594692280547,-1.4104566196665635,1.9677706657485834,-1.4681179974916481,4
1480004100,0.0,42.331563038790911,-71.1099523399687,10.0,0.0,0.011601049403057557,0.033307317954343281,2.6019131333990695e-06,5.9858379174322042e-05,0.00036866765569686588,1.8675843750169276,-0.54444627207949448,0.36822859595784613,-1.4525696310078258,4
1480004130,0.0,42.331563038790911,-71.1099523399687,10.0,0.0,0.026489527087134906,0.074030099420833953,4.2585791072636765e-05,5.9858379174322042e-05,0.016917752717584687,1.8056165767134955,-0.1750499766912306,-0.030821702816066728,-1.0444081309353594,4
1480004160,0.0,42.331563038790911,-71.1099523399687,10.0,0.0,0.027350669882658586,0.074030099420833953,2.9262605291152702e-05,5.1315688358461072e-05,0.0023064868601898399,1.7105600837579242,-0.59041080318576267,0.87504033215291077,-0.26470060812965485,4
1480004190,0.0,42.331563038790911,-71.1099523399687,10.0,0.0,0.073955246079382517,0.21195144533435836,2.9262605291152702e-05,5.6468492139648406e-05,0.0017615126140697599,1.8675843750169276,-0.56524646805685652,0.68336477630083092,-0.025919983277416615,4
1480004220,0.0,42.331563038790911,-71.1099523399687,10.0,0.0,0.07412551106429803,0.21195144533435836,1.5089461432316621e-06,1.635208322964687e-05,0.00032766716793200247,1.8675843750169276,-0.49813991555246645,0.57096824033991977,-0.10617579248349271,4
1480004250,0.0,42.331563038790911,-71.1099523399687,10.0,0.0,0.00056662020045980576,0.0015297046995987507,1.5089461432316621e-06,2.6357467050177948e-06,2.5263915176238003e-05,1.7917594692280547,-0.48494458705088433,0.46456670969557545,-0.1729783776316087,4
1480004280,0.0,42.331563038790911,-71.1099523399687,10.0,0.0,0.00052977913358572318,0.0015297046995987507,4.9963150523714907e-06,6.2974039970476067e-06,3.7331372718944411e-05,1.945910149055313,-0.50324146116184487,0.43819932549410751,-0.17003295027924273,4
1480004310,0.0,42.331563038790911,-71.1099523399687,10.0,0.0,0.00041834431266287244,0.0011952306876799434,6.1837386538873095e-06,6.8733827440365022e-06,0.00028196135141546032,1.945910149055313,-0.46316605329513605,0.44182540424010863,-0.17938879955821591,4
1480004340,10.537613680838799,42.331562552357589,-71.109950373226354,12.291666666666666,0.17562689468064666,0.00041790457891039486,0.0011952306876799434,7.3356961478651006e-06,5.5894839644607711e-05,0.00052322068234726443,1.7917594692280547,-0.45547753812462727,0.44719867488928799,-0.1856712193903125,4
1480004370,1.1558153478482158,42.331568343829048,-71.109939603952881,15.779553225355908,0.019263589130803598,0.00021613602161440947,0.00053112609722050631,6.1090467905597321e-06,2.6949103024859398e-05,0.00027567463759838447,1.945910149055313,-0.46262663650865354,0.47917989096184649,-0.19245963381697173,4
1480004400,23.953342067974585,42.331574491670345,-71.109938887129871,12.518559794369164,0.3992223677995764,0.0083792891832421001,0.024341222925825762,6.1090467905597321e-06,2.6949103024859398e-05,0.0034991484564960576,1.8056165767134955,-0.86611093300951425,0.073831912105490005,-0.74415077012597763,4
1480004430,0.0,42.331575653555205,-71.109942784599099,10.0,0.0,0.0088500289099196442,0.024341222925825762,2.7589061294764697e-05,8.9811471062512156e-05,0.0049598342362934152,1.6581101035673729,-0.16030484681217108,-0.48104382132989798,-1.268617039314903,4
1480004460,0.0,42.331575653555205,-71.109942784599099,10.0,0.0,0.0016754711891946708,0.0048860196663555594,2.7589061294764697e-05,5.1293486244008069e-05,0.00021127555898458464,1.945910149055313,-0.48807392716525705,0.065568895051124981,-0.51841749678833682,4
1480004490,0.0,42.331575653555205,-71.109942784599099,10.0,0.0,0.0016712948297850846,0.0048860196663555594,5.4900721008615123e-05,6.2166741421038077e-05,0.00018666195715967481,1.945910149055313,-1.641318220306496,0.47159388189747747,-0.1171109703559127,4
1480004520,1.7489551040405062,42.331576179534011,-71.109942488474886,12.391304347826088,0.02914925173400844,4.2563554501682342e-05,0.00018755357808950625,5.4900721008615123e-05,8.1147960195178306e-05,0.00012604555954199889,1.7917594692280547,-1.6086341507009949,0.4790256619642011,-0.12595491675865386,4
1480004550,0.019598587324385096,42.33157628886314,-71.109942379145792,12.391304347826088,0.0003266431220730849,5.2208930064198324e-05,0.00017130450367867079,1.1301237676444039e-05,4.8592925925562106e-05,0.00010967681836279105,1.945910149055313,-1.334376717675801,0.41689053405215137,-0.093561407614868267,4
1480004580,0.0,42.331575821193219,-71.109942616961106,10.0,0.0,5.2968099086937255e-05,0.00017130450367867079,1.1301237676444039e-05,1.836772643670363e-05,6.5516448546475693e-05,1.945910149055313,-0.94056752109908326,0.32185589677493992,-0.034774388306981548,4
1480004610,0.0,42.331575821193219,-71.109942616961106,10.0,0.0,1.1976139726710578e-05,4.3863597726369563e-05,1.343933761389144e-05,1.4488223712532051e-05,3.1361278354867991e-05,1.7917594692280547,-0.68443742995143175,0.25989039647498319,0.0079586029277865945,4
1480004640,0.0,42.331575821193219,-71.109942616961106,10.0,0.0,0.0018782555347461134,0.0054016568142255268,1.343933761389144e-05,1.4999338045898235e-05,7.534700185921746e-05,1.8675843750169276,-0.78976575721692155,0.23200050752411872,0.015691960523709355,4
1480004670,0.0,42.331575821193219,-71.109942616961106,10.0,0.0,0.0018578123869466168,0.0054016568142255268,1.712516797751429e-05,4.3131851387522377e-05,0.00017410289499472542,1.8675843750169276,-1.0998481995242824,0.1231999093441266,0.0306475007408381,4
1480004700,0.0,42.331575821193219,-71.109942616961106,10.0,0.0,5.5942994900870707e-05,0.00022081753953646403,6.2957949509596641e-05,6.5362536343997822e-05,0.00011422356212638545,1.7917594692280547,-1.3994716637712816,0.0077354308659340664,0.047384345660975685,4
1480004730,0.0,42.331575821193219,-71.109942616961106,10.0,0.0,1.5994258990378182e-05,0.00010519781265637761,5.5681666739781947e-05,6.2941485925759977e-05,8.3887343737335923e-05,1.945910149055313,-1.3164179067877058,-0.013485083041997017,0.090558604840445089,4
1480004760,0.0,42.331575821193219,-71.109942616961106,10.0,0.0,1.6126047114305195e-05,0.00010519781265637761,5.5681666739781947e-05,6.2569444983184228e-05,8.3315732684126543e-05,1.945910149055313,-1.2309279869316327,-0.031135959553582053,0.12739687844127931,4
1480004790,0.0,42.331575821193219,-71.109942616961106,10.0,0.0,3.425847147243274e-05,0.00015707850662127759,5.5221319548872144e-05,6.4031852646733746e-05,8.2758781903785923e-05,1.7917594692280547,-1.191849275294085,-0.035384781134073964,0.13936972066991934,4
1480004820,0.0,42.331575821193219,-71.109942616961106,10.0,0.0,3.3375037849160178e-05,0.00015707850662127759,5.5221319548872144e-05,5.9730655929712983e-05,6.924154726059445e-05,1.945910149055313,-1.1926225114070956,-0.035318206620249204,0.14206397726193584,4
1480004850,0.0,42.331575821193219,-71.109942616961106,10.0,0.0,1.1454074998524336e-05,8.4542730594073417e-05,4.9524002367643552e-05,5.9730655929712983e-05,7.3206871139795476e-05,1.945910149055313,-1.2127799622410955,-0.032129804644804361,0.13998401771482527,4
1480004880,0.0,42.331575821193219,-71.109942616961106,10.0,0.0,3.22945423812109e-05,0.00015610247907987801,4.9524002367643552e-05,8.0315612748178307e-05,9.3804204853736783e-05,1.7917594692280547,-1.3277925067867902,-0.0077903580119028613,0.10716374245180195,4
1480004910,0.0,42.331575821193219,-71.109942616961106,10.0,0.0,8.5287995419835845e-05,0.00031731471559687664,5.2940033032228257e-05,7.1653037805197273e-05,0.00012649692101008463,1.945910149055313,-1.4395592441699259,0.023894121508307165,0.078825004429601872,4
1480004940,0.0,42.331575821193219,-71.109942616961106,10.0,0.0,8.8550610396414143e-05,0.00031731471559687664,4.8803924271816411e-05,5.8026168705570066e-05,0.00011559231622411066,1.945910149055313,-1.4332114838909384,0.02412256933749473,0.081871364011265046,4
1480004970,6.877421051153401,42.331575501312003,-71.10994124717989,12.444444444444445,0.11462368418589002,3.3785335935135757e-05,0.00014070524237538224,3.9273344658120852e-05,5.4021988049196974e-05,9.272677400456814e-05,1.7917594692280547,-1.3950306800208283,0.0098076025122786088,0.088206116767921672,4
1480005000,0.04779644503942115,42.331574888119214,-71.109935117949632,18.59375,0.0007966074173236858,1.9481172956186691e-05,0.00010027914655196198,3.9273344658120852e-05,6.780566305603398e-05,9.0142252538235256e-05,1.945910149055313,-1.3924930844374031,0.008162328434366959,0.087801498973995473,4
1480005030,7.08654064073195,42.331575304922737,-71.109939090251359,13.51063829787234,0.11810901067886583,0.00013029712997564681,0.0004472670291965421,6.5935146730729317e-05,7.8753077454030748e-05,0.00016742035422250879,1.945910149055313,-1.3449940805530012,0.0049977885480746225,0.095860497430593758,4
1480005060,0.0,42.331575527826615,-71.109943036056194,10.0,0.0,0.00014228892820157123,0.0004472670291965421,2.8134237199473485e-05,8.6290804902175742e-05,0.00019782850144282451,1.7917594692280547,-1.1353115584891615,-0.014384688013508916,0.13363304123025402,4
1480005090,0.0,42.331575527826615,-71.109943036056194,10.0,0.0,0.00061463739945261141,0.0016862610094492093,2.8134237199473485e-05,7.2017245463621446e-05,0.00059188326460819351,1.945910149055313,-0.99123224470159832,-0.028594901946363226,0.16045070235960085,4
1480005120,0.0,42.331575527826622,-71.109943036056208,10.0,0.0,0.00061655389512362999,0.0016862610094492093,3.4583032847587352e-05,6.2900166957652413e-05,0.00059188326460819351,1.945910149055313,-0.99121571713126155,-0.028789125965255603,0.15951509739752798,4
1480005150,0.0015091552476670586,42.331576162658394,-71.109942255715623,12.391304347826088,2.5152587461117643e-05,1.7957138912220984e-05,7.552869897824849e-05,2.5899819379841616e-05,3.6484849091460606e-05,6.5744029296673146e-05,1.7917594692280547,-0.99173297955732098,-0.02848778114446833,0.15699146694617166,4
1480005180,0.003158463787780039,42.331576065230031,-71.109942345754902,12.115384615384615,5.264106312966731e-05,0.00020590470268566134,0.00063547325286144685,2.5899819379841616e-05,4.063870939023005e-05,6.7722699249605063e-05,1.945910149055313,-1.1695949395398919,-0.014036849608232526,0.13004385482931241,4
1480005210,0.0,42.331575485917107,-71.109943036056194,10.0,0.0,0.0002003061015464697,0.00063547325286144685,3.9087120957379739e-05,4.6798330380754541e-05,0.00010300862911428806,1.945910149055313,-1.8061450320579653,-0.22801869112783862,0.048740025252467657,4
1480005240,11.005106660963216,42.33157474708424,-71.109940813558438,12.688602466193634,0.18341844434938695,4.1842237475507639e-05,0.00013017909147985452,1.1632344719260359e-05,4.5648905367534761e-05,0.00010748557300324139,1.7917594692280547,-2.7373182966042333,-0.67576968894935152,-0.072802246157540842,4
1480005270,7.230570889584405,42.331567496913678,-71.109914923815168,30.699921500658942,0.12050951482640676,4.2130093188786235e-05,0.00012856222684620312,1.1632344719260359e-05,3.0172637449049371e-05,8.9594252968623286e-05,1.945910149055313,-3.0105771828144157,-0.8242376119002045,-0.11559844884567427,4
1480005300,6.081462904822682,42.331558441881661,-71.109864002680041,65.0,0.10135771508037802,0.00012367901395381016,0.00040282553246974326,2.5050336752807862e-05,4.5084968629259379e-05,9.4667438504819946e-05,1.945910149055313,-3.0226450991323914,-0.82435304930296238,-0.12082870666243099,4
1480005330,0.4894870025095964,42.331565094465617,-71.109876623032903,66.970715201576752,0.008158116708493274,0.00013163156294348217,0.00040282553246974326,1.2480605988052961e-05,5.5598414679453744e-05,0.00017385163027301503,1.7917594692280547,-3.0201660389936209,-0.8252460728554043,-0.12436777452800483,4
1480005360,3.9724645572232955,42.331562294718672,-71.109871369684015,70.752962808307828,0.06620774262038825,7.7873198174486876e-05,0.00021599421215069163,1.2480605988052961e-05,4.8573650452686515e-05,0.00019481732586010985,1.945910149055313,-3.0084646817902096,-0.82888455971923569,-0.10474290552970923,4
1480005390,5.63124139439569,42.331551912484016,-71.109851756300557,68.585176086573398,0.09385402323992816,7.6179862541020599e-05,0.00021599421215069163,2.2299431932846946e-05,3.4193898818339204e-05,0.00012292179137546989,1.945910149055313,-2.9813900111942813,-0.82853436893185872,-0.080469145462171238,4
1480005420,0.9886803702555748,42.331540335725677,-71.109834697909903,65.0,0.016478006170926245,1.6208084535542626e-05,6.2487236509611727e-05,2.1728503821829311e-05,2.2927621218283641e-05,5.1497021622723115e-05,1.7917594692280547,-2.9596327485221567,-0.82378513338755555,-0.063527293633929727,4
1480005450,2.9484582638300703,42.331538347008923,-71.109835247390691,71.478677368403453,0.049140971063834506,0.00096143484714793432,0.0027812402206363871,5.4555770406456895e-06,2.3600797612194917e-05,5.8279024752982516e-05,1.945910149055313,-2.9699834961757836,-0.82643163249320395,-0.065522652578290874,4
1480005480,0.37960868024140193,42.331550745426782,-71.109850140322493,72.126545105243807,0.006326811337356699,0.00096373418116853823,0.0027812402206363871,5.4555770406456895e-06,1.8250695390180653e-05,4.8208213251712726e-05,1.945910149055313,-2.9750814914730355,-0.82961086589198063,-0.066977286889183252,4
1480005510,2.819914547812074,42.331564011229844,-71.109863366834063,65.0,0.046998575796867906,1.5290381345227919e-05,6.0489874988539288e-05,1.1028299377800782e-05,2.9805352811161783e-05,4.3706175508348555e-05,1.7917594692280547,-2.9830745934936154,-0.83091425543324959,-0.062592613765589875,4
1480005540,0.6068772219351433,42.331555593824795,-71.109860146130714,65.0,0.010114620365585721,5.0645029523321234e-06,4.5295800408703657e-05,2.8995797329826938e-05,3.3158816590124645e-05,3.8713594126060497e-05,1.945910149055313,-2.9769759177837973,-0.83491956844730097,-0.061125896394369002,4
1480005570,0.1744850367881184,42.331549982900469,-71.109859782676395,65.0,0.0029080839464686397,1.2741127447390602e-05,6.763660939576657e-05,2.8995797329826938e-05,3.0127558207397936e-05,3.6471021847480039e-05,1.945910149055313,-2.9610672319155458,-0.84354345442957313,-0.059188422111825234,4
1480005600,1.9599691451991919,42.331550861732303,-71.109862244737343,65.0,0.03266615241998653,1.3430456293381585e-05,6.763660939576657e-05,2.9658139832550019e-05,3.1301302204246081e-05,4.621981481450268e-05,1.7917594692280547,-2.9497614037524182,-0.85284079175888883,-0.058032654478175884,4
1480005630,1.9176194258555381,42.33154796408752,-71.109858203254547,67.236242093399738,0.03196032376425897,1.0387629766139339e-05,5.9338708244650041e-05,3.2579574436543675e-05,3.5741240139493206e-05,5.3435924798499098e-05,1.945910149055313,-2.9278720912056082,-0.86670485566211242,-0.068445191395715269,4
1480005660,3.5127351801603006,42.331551043165561,-71.10987111816236,67.236242093399738,0.05854558633600501,9.2450162729604407e-06,5.9338708244650041e-05,3.3381505788979985e-05,4.1288949176728645e-05,5.6671008703183532e-05,1.945910149055313,-2.8866631182982654,-0.8822433223142967,-0.090637560577125229,4
1480005690,0.49954541708880523,42.331555998780892,-71.109882919862969,65.0,0.008325756951480088,1.4492993292460296e-05,5.5396262732036955e-05,1.1784801430946066e-05,4.4122668669567465e-05,5.1598749587521966e-05,1.7917594692280547,-2.854340419348111,-0.8900381345437024,-0.11160594263425851,4
1480005720,11.838311480879971,42.331556756767768,-71.109869744721067,65.465038485477947,0.19730519134799954,6.2564031268060345e-05,0.00021426065086270349,1.1784801430946066e-05,3.7726068298185396e-05,5.0480309369315292e-05,1.945910149055313,-1.1553350935627358,-0.89246853046249475,-0.11902298006798143,4
1480005750,5.712603480258163,42.331559757047401,-71.109836947506963,65.664340693539913,0.09521005800430271,6.4931956241017364e-05,0.00021426065086270349,7.6699004370609057e-06,3.151686269773664e-05,6.8582691370314082e-05,1.945910149055313,1.3662658313247587,-0.90215141795184128,-0.13383990969495857,4
1480005780,7.074914448549577,42.331571683227502,-71.10979510846596,65.0,0.11791524080915962,2.8853192367547127e-05,9.1290955667872964e-05,7.5528783411735785e-06,1.2649016074980526e-05,4.7283375671212889e-05,1.7917594692280547,2.0394917803589734,-0.9101268617012791,-0.13370975828613441,4
1480005810,0.0,nan,nan,nan,0.0,1.4814539021453656e-05,5.465013874667329e-05,7.5528783411735785e-06,3.030952096190143e-05,4.7163364209193419e-05,1.945910149055313,-1.2459870918792542,-0.90196319778088463,-0.094519726140999918,4
1480005840,0.0,nan,nan,nan,0.0,7.7114737566049693e-05,0.00025095443999476952,2.3743401621071496e-05,3.1369993627932135e-05,9.1924165734767418e-05,1.945910149055313,-2.9902485970741268,-0.89801008423438622,-0.083147424951678081,4
1480005870,0.0,nan,nan,nan,0.0,0.00017217634233926052,0.00052737661811648017,2.1395836974774346e-05,5.0107099396519003e-05,0.00024236275045398794,1.7917594692280547,-3.0566148995864584,-0.89553965529102142,-0.11165202109186727,4
1480005900,0.0,nan,nan,nan,0.0,0.00018684836034342967,0.00052737661811648017,1.0143753393729671e-05,3.2589917495201981e-05,0.00029472364524885423,1.945910149055313,-3.0957624995158457,-0.89175312021920328,-0.13229377121275243,4
1480005930,0.0,nan,nan,nan,0.0,0.00012303990939377052,0.00037285960866606516,5.886987685209892e-06,2.6963875704679644e-05,0.00017869172249783774,1.945910149055313,-2.2115754934145184,-0.89268761975464417,-0.1402959757018403,4
1480005960,0.0,nan,nan,nan,0.0,8.9928600673258214e-05,0.00026429133597552159,5.886987685209892e-06,5.640840179844319e-05,0.00019261250410639754,1.7917594692280547,1.0400683881659301,-0.89777750791348232,-0.16110166025420666,4
1480005990,2.2040401058768664,42.331566617481876,-71.109841358093675,99.045003276933244,0.036734001764614437,0.00012658844930221741,0.00037982783555444145,1.0650036749477532e-05,4.2568232756297874e-05,0.00021586201083323463,1.945910149055313,3.1081105389294401,-0.89824402907657519,-0.17119760580812302,4
1480006020,3.2159619608607475,42.331553896904168,-71.109857748594422,78.618001310773295,0.05359936601434579,0.00012577339412402053,0.00037982783555444145,1.0650036749477532e-05,3.3435772920544124e-05,0.00020307539833067068,1.945910149055313,3.1101781321594624,-0.89531504815626939,-0.16831451895344446,4
1480006050,2.532430464607527,42.331545180719303,-71.10986944783896,65.0,0.04220717441012545,0.00011748248870540718,0.00030999608680827323,1.3063573954213909e-05,1.6755665212657129e-05,0.00019950239955751427,1.7917594692280547,3.1162314473922899,-0.89342617943547864,-0.16784178587551701,4
1480006080,9.18423308751158,42.331570225260158,-71.109929370897461,21.0,0.15307055145852633,0.0015683546443468373,0.0046631075478079931,1.3063573954213909e-05,2.4456233613974798e-05,0.00074593214282974807,1.945910149055313,2.0845301075819811,-0.00073146471617694232,-0.24124481442392026,4
1480006110,5.424304771559576,42.33157539720947,-71.10994223364591,11.0,0.09040507952599293,0.011330803382124032,0.033749376141215134,3.5819626473884159e-05,0.00039210470567639091,0.0041468596663154188,1.8675843750169279,0.66377838581787241,1.0867086274453768,-0.11515773217151161,4
1480006140,0.0,42.331575485917107,-71.109943119875297,10.0,0.0,0.011939398023196558,0.033749376141215134,4.7429027070845927e-05,0.00052359842151963431,0.0061176776005935248,1.6581101035673729,0.44921687040396469,0.025473588894639947,-0.6128830800412145,4
1480006170,4.97166775313583,42.331574396968186,-71.109949761136576,10.666666666666666,0.0828611292189305,0.11963152001075882,0.32190659120689508,4.7429027070845927e-05,0.0019182835367971887,0.14983483715280957,1.8043716191528456,1.4506077409468687,-0.6562401865723152,-1.3178766721757602,4
1480006200,0.9255704664364377,42.331554889485552,-71.109958495079653,10.666666666666666,0.015426174440607295,0.16459043894274059,0.46140278087958375,0.00029477711893729347,0.023400888028213607,0.26890992482816445,1.8891591637540215,1.2512187829458761,0.8752895968005644,-0.80234077259408509,4
1480006230,44.984292641243286,42.33153528980197,-71.109897587980242,10.0,0.7497382106873881,0.16513638568669722,0.46140278087958375,0.00029477711893729347,0.0017704311990316903,0.11350338173855139,1.6609474332869181,0.23353838472848273,2.3429523936532166,0.05255681578838866,4
1480006260,68.37582317532527,42.332049138311937,-71.109708582701757,10.0,1.1395970529220878,0.045991947288102485,0.13677391612417172,4.0674555506054212e-05,0.0027501319050557875,0.012707547408641029,1.8640435797520258,-0.19064738956883071,1.9211872802647714,0.24008729392031358,4
1480006290,221.61893409033337,42.332883131618651,-71.109281004166874,10.0,3.693648901505556,0.006456567341964984,0.018392707832824474,4.0674555506054212e-05,0.0048119449624961065,0.014438066753430498,1.9254081650860659,-0.30417883808309243,1.0068782324546912,0.30430526830973742,4
1480006320,277.3143680483228,42.333196964017226,-71.108125470048833,10.0,4.6219061341387135,0.0064363050983679724,0.017281694901704489,1.6149096775370795e-05,0.00068832304218645877,0.0095039201153601059,1.6581101035673729,-0.37462394574986885,0.30760423389321417,0.37818614924554211,4
1480006350,282.0358377682197,42.333450551882713,-71.106526607248099,10.0,4.700597296136995,0.0064838622672218375,0.019861238492010533,1.6149096775370795e-05,0.00040535937367442543,0.0044673916222747623,1.8056165767134955,-0.38034312457788416,0.31741728832169297,0.37790711717526515,4
1480006380,696.389686706163,42.334240905281483,-71.104358838937344,10.0,11.606494778436051,0.0062537319506335331,0.019861238492010533,0.00019610610673219072,0.001667633492373454,0.0065332275345900571,1.8562701281920886,-0.42302509600039612,0.54438115975740808,0.39021899940276272,4
1480006410,801.8520047337113,42.335399408631353,-71.101271253145399,10.0,13.364200078895188,0.014457504979751795,0.039263687724127111,0.00019610610673219072,0.0031781166722513006,0.022157597495102255,1.7480673485460894,-0.30588221423101936,0.51803837469461578,0.26293785851576074,4
1480006440,623.0823642067375,42.336673765948355,-71.097920964538204,10.0,10.38470607011229,0.014325582133249104,0.039263687724127111,0.00022256319383646213,0.0013082183960283062,0.016074010798266859,1.7770332013812697,-0.23185835474266386,0.44720420005775152,0.15638990177095038,4
1480006470,533.4007518357294,42.337906148091285,-71.094837463527071,10.0,8.89001253059549,0.0047067244095565612,0.014023034888009482,5.6993531648607186e-05,0.00014080340245132536,0.003089573783769848,1.8675843750169276,-0.23228265732104755,0.45764308174944668,0.15169593847121091,4
1480006500,368.10216933072684,42.338620903708382,-71.093055479294733,10.0,6.135036155512114,0.0051568554242458807,0.014023034888009482,1.8428264598065972e-05,5.7506051503002534e-05,0.00051949389902331922,1.7105600837579242,-0.23484337504896799,0.48522459342748897,0.17086559565730705,4
1480006530,412.35363761251324,42.339302529154672,-71.091309959135117,10.0,6.872560626875221,0.0021077700622535306,0.0061656145302770356,1.8428264598065972e-05,0.0004238609762272867,0.0031915745876786002,1.8675843750169276,-0.25815958442263987,0.50946366322517644,0.20123540812619384,4
1480006560,554.3623398252649,42.340293865224666,-71.088873735229569,10.0,9.239372330421082,0.0019990186136508901,0.0064649476624995279,0.0017144484175427904,0.0020366291047220512,0.0061144577336438889,1.9361470098309512,-0.20864472571598755,0.59418044311620566,0.18682422565928516,4
1480006590,278.1824622156656,42.341039477421283,-71.087229133184167,10.0,4.636374370261094,0.0037706225977359735,0.010221894973249435,4.6475210839728795e-06,0.00048006346765987532,0.0063645359811273314,1.7917594692280547,-0.18255168639432962,0.80050536373825054,0.15595881245838883,4
1480006620,234.41142243450284,42.341216259442596,-71.086966715353626,10.0,3.9068570405750473,0.034288935671456841,0.10148450791851947,4.6475210839728795e-06,0.00021084755348717174,0.0088395439878957774,1.9036483899019156,-0.22360280776801472,-0.57654680334923136,0.17505403007729942,4
1480006650,382.3472915509825,42.340324038679107,-71.088661520808088,10.0,6.372454859183041,0.035777153467344024,0.10148450791851947,0.00041209466591244829,0.0053330915876964357,0.032777386389857097,1.8640435797520258,-0.20890342503903286,-1.6508026378241365,0.22576079103352381,4
1480006680,134.01390625039573,42.338506847659453,-71.089893527860852,10.0,2.233565104173262,0.020815848240691725,0.058097579777172073,0.0013214631018605076,0.0034582123726737048,0.024661454820870149,1.6609474332869181,-0.22585838423533514,-0.96841283884651974,0.17911579878001646,4
1480006710,42.08543255582942,42.337491853667757,-71.089685259918781,10.0,0.7014238759304904,0.010455892464483243,0.030989809995723882,2.3131532314189648e-05,0.00066493912271518927,0.00235272496728035,1.8675843750169276,-0.23137708293617232,1.0843606122878413,0.1652465560401864,4
1480006740,21.581236534728813,42.337511411341744,-71.08965206357577,10.0,0.3596872755788135,0.0027459350310877978,0.00815371096141378,1.8804892996026004e-05,2.3625554933888689e-05,0.0015317616992835945,1.8675843750169276,-0.19992434758269745,2.2511455921287538,0.21596312181286884,4
1480006770,116.40016224287254,42.338178688703778,-71.089935672866375,10.0,1.9400027040478756,0.0034467489968309359,0.00815371096141378,1.8804892996026004e-05,0.00029448611095002022,0.0068544021549555127,1.7917594692280547,-0.20565067080529187,2.3426195525241065,0.2254113402934225,4
1480006800,122.6931283784123,42.339156913370488,-71.090357415400803,10.0,2.0448854729735384,0.002465825425813104,0.0081286920088714104,0.00088111555764905695,0.0029679767291683526,0.0065491038062078823,1.9361470098309517,-0.24913012634448228,2.3200669041137369,0.20283822266807125,4
1480006830,104.99588882804501,42.340285733142125,-71.090696505998366,10.0,1.7499314804674169,0.0076201693089576602,0.024228755167251072,0.00020879637429184705,0.0021120789703837199,0.0061499604878652988,1.8056165767134955,-0.28682212490270187,2.1122427082098745,0.17750025047596513,4
1480006860,163.39767503654403,42.342352147744698,-71.090557895252658,10.0,2.7232945839424003,0.011991916334471399,0.031850885323285907,0.00020879637429184705,0.0024693990790434399,0.020761880132477477,1.6609474332869181,-0.28019529681839966,0.99347075579756172,0.15715949630647469,4
1480006890,149.16356591024083,42.344748948446416,-71.090477282510079,10.0,2.4860594318373472,0.037241888772232674,0.11341953916231481,0.0011008800289235776,0.0065831719905557447,0.041136776547191424,1.8937882323911377,-0.26047324659517856,1.2995968402146099,0.14138191003242648,4
1480006920,59.5789427093551,42.346105616200404,-71.090753678754695,10.0,0.9929823784892516,0.03852639156384325,0.11341953916231481,0.00028684473987324163,0.0018068859716764804,0.033294016197109436,1.8043716191528454,-0.26592388593391358,2.2522781295973426,0.15233996899087163,4
1480006950,89.33182232567437,42.346388865511521,-71.090886679985672,10.0,1.4888637054279061,0.010963139944872316,0.029051329610259472,3.5163749692414656e-05,0.00030627109972957041,0.012752246445948794,1.6581101035673729,-0.32498180641989416,1.5958325854750965,0.20643241012047064,4
1480006980,142.81788102379065,42.346856779952979,-71.091486123980843,10.0,2.3802980170631773,0.017548032771953357,0.047906361794464433,1.6549078131733302e-05,0.00014706467750050196,0.023458835843260119,1.7770332013812693,-0.33669053079487027,0.22319123518015441,0.19176815429128485,4
1480007010,150.05493484835614,42.348079382917817,-71.091966063589851,10.0,2.500915580805936,0.015211770131282816,0.047906361794464433,1.6549078131733302e-05,0.0031619822023810284,0.017309379437116475,1.9251211907908181,-0.28719090744927528,0.33426343083650278,0.16564024298779817,4
1480007040,211.53717102407563,42.349044328533367,-71.092387568560582,10.0,3.5256195170679274,0.0056654476603941592,0.016752416797972181,0.00090507374509302607,0.0029268471912862384,0.010954710489220507,1.7347645210257756,-0.29011643380047819,-0.43701958097152832,0.18297363687472554,4
1480007070,471.6795183591116,42.349110995073914,-71.09439162511174,10.0,7.8613253059851935,0.0027600261920609488,0.0089153458727351427,0.0008260348240328629,0.0017244102082981053,0.0052899742629546609,1.8842428460867402,-0.28897764738156212,-1.8891124116806286,0.16413618874936917,4
1480007100,592.030290693908,42.348907491245171,-71.096722337494597,10.0,9.867171511565134,0.0068807267002258497,0.022077996256527406,0.0008260348240328629,0.002099976997936244,0.0099507940557514024,1.9036483899019156,-0.29012183674693243,-1.7495274386218871,0.18220418730030236,4
1480007130,908.3607568291993,42.348132065325018,-71.09988912976381,10.0,15.139345947153322,0.031498661220104342,0.092565895077873148,0.0013835412019518772,0.0067371779540155996,0.019305057752087473,1.6609474332869181,-0.315943341590397,-1.551778014003075,0.1996668186176945,4
1480007160,895.8368854896692,42.346892287295638,-71.104559609267028,10.0,14.930614758161152,0.031233399857531458,0.092565895077873148,0.00018719275801283136,0.00081314925176983002,0.019083931694001181,1.8640435797520256,-0.26789609901249728,-1.4723199860934257,0.17435144098933558,4
1480007190,299.33332160850824,42.346187828148111,-71.107229048452439,10.0,4.988888693475137,0.011851267745074853,0.030148909753997463,1.9321197038570576e-05,0.000315659412949054,0.011894291017719019,1.8056165767134955,-0.26026716263824901,-1.4412194687578672,0.20567337583953343,4
1480007220,40.05332042979185,42.346055021781801,-71.10773683671944,10.0,0.6675553404965309,0.01130249082969296,0.026635463427939862,1.9321197038570576e-05,0.00023383034826955526,0.017561473707024003,1.6581101035673729,-0.28842597193041669,-1.3101743679281037,0.23611794519562049,4
1480007250,2.1207624947650725,42.346040379993944,-71.107810299909772,10.0,0.035346041579417876,0.025328835692353634,0.06221790650910234,2.5228427929493483e-05,0.00021484823666950237,0.040485938044334605,1.7770332013812697,0.64970491230549798,-1.2004999261319504,-0.38202867164437188,4
1480007280,12.09968646725677,42.346047079230068,-71.107796194563718,10.0,0.20166144112094617,1.3943342906265028,4.0358758379336788,3.2379350478434255e-05,0.00021484823666950237,0.14272039359696062,1.8043716191528456,1.3426942217263378,0.10609594167692002,-0.90568749984321983,4
1480007310,75.02789030990064,42.346148173364199,-71.107530840273114,10.0,1.2504648384983441,2.3273326219132824,6.097777756669017,3.2379350478434255e-05,0.16271229809429874,3.2773039137537388,1.791759469228055,1.3784743458764916,0.37094510776391992,-0.93592910866953372,4
1480007340,54.105097777470256,42.346300351705729,-71.107214533790113,10.0,0.9017516296245043,2.0659292775033218,6.097777756669017,0.0030494355491659519,0.077105127312816255,0.63069813079232406,1.9459101490553139,1.7793156564814159,-0.4300094937254032,-0.99372110348291354,4
1480007370,10.851883026210121,42.346391509792163,-71.107208139794977,10.0,0.18086471710350202,0.097059195504793389,0.25980812037073009,0.00022800647664083203,0.0017083614480414579,0.087158603820480393,1.8640435797520258,1.0907144506306898,0.041840524022503635,-0.65368135123119431,4
1480007400,4.205084942500288,42.34645202783156,-71.107224262385728,10.0,0.07008474904167146,0.0033915389145896995,0.0088532783204274719,0.00017909920333032965,0.00026282669420986502,0.0057398367151026228,1.7480673485460896,-0.23139154054358749,-0.03493238962514978,-0.091903311539660026,4
1480007430,0.36100859249277817,42.346477459224282,-71.107218692611085,10.0,0.006016809874879636,0.0030505436757906628,0.0088532783204274719,6.7079892410823937e-06,9.2918951331863458e-05,0.0019509036589711623,1.8675843750169276,-0.25262584639231228,-0.093015189194168152,-0.15425287270328614,4
1480007460,3.49833698027963,42.34647767855072,-71.107230573958816,10.0,0.05830561633799383,0.0028846573684419797,0.0073163933365611609,6.7079892410823937e-06,0.00015428105195585339,0.0031608508850260991,1.8842428460867402,-0.28594908764232041,-0.18705991422049781,-0.2042730034572626,4
1480007490,5.258303768753855,42.346467230508431,-71.107253214876266,10.0,0.08763839614589758,0.0027312047974163579,0.0073163933365611609,0.00022610377834510702,0.00057296005588751192,0.0050104929949534053,1.7480673485460896,-0.37621901201889169,-0.342812085223065,-0.21991408936877285,4
