TIMESTAMP,DISTANCE,AVG_LAT,AVG_LNG,GPS_ACCURACY,AVG_SPEED_BY_GPS,ACCLERATOR_STD,MAX_ACCLERATOR,MIN_ACCLERATOR,PERCENTILE_25_ACCLERATOR,PERCENTILE_75_ACCLERATOR,ACCLERATOR_ENTROPY,AVG_ROLL,AVG_YAW,AVG_PITCH,WEEK_DAY
1480600620,4.799774636030777,42.331567732834031,-71.109899942926816,52.8125,0.07999624393384627,0.0045407091357529301,0.010529762673842098,3.5750941579602713e-05,3.8365831395028075e-05,0.0026739800015970661,1.3138340331927469,-0.014741970696925927,0.026679398505704013,0.022035191949424524,4
1480600650,3.1118207592976566,42.331580032826068,-71.109907688651347,42.666666666666664,0.05186367932162761,5.8378264308568846e-06,5.5385777515388741e-05,3.5750941579602713e-05,4.0432705192398137e-05,4.6519036543896089e-05,1.945910149055313,0.031230084675178498,0.037504396824521932,0.043398934556915424,4
1480600680,2.7971959769339074,42.331590632016152,-71.109911155487509,34.0,0.046619932948898456,4.2742407065347054e-06,4.6582491506570912e-05,3.3708310304551494e-05,4.2112979612625826e-05,4.6519036543896089e-05,1.945910149055313,0.031073447040739301,0.037693488698436382,0.043506026208034287,4
1480600710,0.0,42.331593171732813,-71.109912106833519,30.0,0.0,4.8934301279003631e-06,4.7602802048289602e-05,3.3708310304551494e-05,3.8144287647586041e-05,4.5586371173417828e-05,1.7917594692280547,0.030998519882345799,0.03784874299096963,0.043539057015959524,4
1480600740,0.0,42.331593171732813,-71.109912106833519,29.666666666666668,0.0,6.3958212638480769e-06,5.1109832385411183e-05,3.0090444994735262e-05,3.7779561665673937e-05,4.4273007702208948e-05,1.945910149055313,0.030899615878163388,0.037705764199016605,0.043546355468438339,4
1480600770,0.0,42.331593171732813,-71.109912106833519,26.0,0.0,1.2493919554873816e-05,7.1547757430108255e-05,3.0090444994735262e-05,3.9368221737759996e-05,5.3027593932087111e-05,1.945910149055313,0.030842315033373712,0.037257343674725316,0.04350927508233441,4
1480600800,0.0,42.331593171732813,-71.109912106833519,16.333333333333332,0.0,1.0131174218155546e-05,7.1547757430108255e-05,4.0279301981297144e-05,4.5122802307987542e-05,5.3417350172167786e-05,1.7917594692280547,0.030812271831932549,0.036697761093807478,0.043503360799770956,4
1480600830,0.0,42.331593171732813,-71.109912106833519,10.0,0.0,5.0507568410189198e-06,5.01088214583636e-05,3.4595291542672162e-05,4.079754855054667e-05,4.7872339448215554e-05,1.945910149055313,0.030761563729085728,0.03662557600889662,0.043537768351744957,4
1480600860,0.0,42.331593171732813,-71.109912106833519,10.0,0.0,5.3334468064946708e-06,5.0267857755712248e-05,3.4595291542672162e-05,4.0098403171199233e-05,4.7714133273214084e-05,1.945910149055313,0.030727222714436699,0.036701469049917411,0.043501375491624132,4
1480600890,0.0,42.331593171732813,-71.109912106833519,10.0,0.0,4.4621318957154051e-06,5.0267857755712248e-05,3.7966553977203834e-05,4.0324292277514313e-05,4.729035118901325e-05,1.7917594692280547,0.030708058086398649,0.036561470301441683,0.043464901693616907,4
1480600920,3.7154315335233994,42.331595770122796,-71.1099141687817,10.0,0.061923858892056656,4.2782259297068248e-06,4.7947319889329476e-05,3.580697054009278e-05,3.709086780032378e-05,4.3820339221423233e-05,1.945910149055313,0.030612768773324171,0.036563185917442086,0.043448542722971925,4
1480600950,3.7154315335233994,42.331615258047698,-71.109929633393023,10.0,0.061923858892056656,5.204436962713481e-06,4.2986543000596071e-05,2.475240065952417e-05,3.601107608176825e-05,3.8649816724251619e-05,1.945910149055313,0.030549740671352299,0.036698365381467001,0.043449796334049391,4
1480600980,0.0,42.33163214758261,-71.109943036056194,10.0,0.0,7.1381576571514467e-06,4.4372698565488897e-05,2.475240065952417e-05,2.8328516893610417e-05,3.8332503702295014e-05,1.7917594692280547,0.03055148935268415,0.036683223283252915,0.043457254671640168,4
1480601010,0.0,42.33163214758261,-71.109943036056194,10.0,0.0,6.4758649998194407e-06,4.4372698565488897e-05,2.4708798357737434e-05,2.8552381129346237e-05,3.7105047663614298e-05,1.945910149055313,0.030568057077840782,0.036457303689152357,0.04345366209160538,4
1480601040,0.0,42.33163214758261,-71.109943036056194,10.0,0.0,7.4084576377974009e-06,5.0010286061560877e-05,2.4708798357737434e-05,3.0639088807497566e-05,3.7277817790659019e-05,1.945910149055313,0.030553128280786327,0.035979977098995412,0.043412439964542131,4
1480601070,0.0,42.33163214758261,-71.109943036056194,10.0,0.0,6.2287921567567514e-06,5.0010286061560877e-05,2.9718182290736094e-05,3.6907449897032976e-05,4.2595467263728857e-05,1.7917594692280547,0.030503238384479783,0.035114727464414734,0.043389483307745731,4
1480601100,0.0,42.33163214758261,-71.109943036056194,10.0,0.0,7.1025513446295328e-06,5.6054672876751607e-05,3.349099299091056e-05,3.5442475030159147e-05,4.1979544222588678e-05,1.945910149055313,0.030447641733185128,0.034423605083556845,0.043391808457889702,4
1480601130,0.0,42.33163214758261,-71.109943036056194,10.0,0.0,0.00010348928277993078,0.00033524036362328371,3.2354889263575925e-05,3.3996651314079422e-05,5.0522421882055564e-05,1.945910149055313,0.030068372658835725,0.025162807267684412,0.038774137473899122,4
1480601160,0.0,42.33163214758261,-71.109943036056194,10.0,0.0,0.00011145314307247023,0.00033524036362328371,2.5271575140710782e-05,3.4027583404609112e-05,4.4177569390335575e-05,1.7917594692280547,0.029404446748727286,0.012386763701007832,0.032864592593382307,4
1480601190,0.0,42.33163214758261,-71.109943036056194,10.0,0.0,5.8914973001227412e-06,4.1739764899263755e-05,2.5271575140710782e-05,3.2309104297200947e-05,3.9446814030706315e-05,1.945910149055313,0.029042753437612746,0.011703260640317273,0.032944445100121254,4
1480601220,0.0,42.33163214758261,-71.109943036056194,10.0,0.0,4.1846224916272907e-06,3.9847962233703957e-05,2.8075875438122298e-05,3.1937941520421153e-05,3.7743524492696935e-05,1.945910149055313,0.028727052808609103,0.011315305156861914,0.032690490690121678,4
1480601250,0.0,42.33163214758261,-71.109943036056194,10.0,0.0,7.8991860949956909e-06,4.9430650202876667e-05,2.5901035071224765e-05,3.0559662543037662e-05,4.0768690714645954e-05,1.7917594692280547,0.028479455961313144,0.010890442563659319,0.032332990921042234,4
1480601280,0.0,42.33163214758261,-71.109943036056194,10.0,0.0,7.4482699948332624e-06,4.9430650202876667e-05,2.5901035071224765e-05,3.7734081549728831e-05,4.5878555127705201e-05,1.945910149055313,0.028586593205268584,0.0109315838745906,0.032161649208319855,4
1480601310,0.0,42.33163214758261,-71.109943036056194,10.0,0.0,6.4621995875778967e-06,4.916134435096161e-05,2.8843825564490405e-05,3.3293574510405986e-05,3.9426209991727713e-05,1.945910149055313,0.028788475086325201,0.010935563311144729,0.032331983811252109,4
1480601340,0.0,42.33163214758261,-71.109943036056194,10.0,0.0,5.4656928441996888e-06,4.1852745168836675e-05,2.8723877691195051e-05,2.8855834961908374e-05,3.7080919568797442e-05,1.7917594692280547,0.028933224846999315,0.011228408846194284,0.032501477779130414,4
1480601370,0.0,42.33163214758261,-71.109943036056194,10.0,0.0,4.6495303017509885e-06,4.1852745168836675e-05,2.7732002366881432e-05,2.94638215364253e-05,3.6118544862412955e-05,1.945910149055313,0.028915705792360576,0.011215247720828828,0.032431302243680189,4
1480601400,0.0,42.33163214758261,-71.109943036056194,10.0,0.0,3.2729148782392186e-06,3.6782706668310411e-05,2.7732002366881432e-05,2.8901027190859068e-05,3.4367651811469522e-05,1.945910149055313,0.028882871191580773,0.010934280838592087,0.032523481778543799,4
1480601430,0.0,42.33163214758261,-71.109943036056194,10.0,0.0,4.1378444904345692e-06,4.039442916778446e-05,2.8214299939118801e-05,3.0303952998164769e-05,3.6118163008445184e-05,1.7917594692280547,0.028925253814537533,0.010419007985657777,0.032610706710838079,4
1480601460,0.0,42.33163214758261,-71.109943036056194,10.0,0.0,5.1352689718149185e-06,4.039442916778446e-05,2.4738870523978101e-05,3.0513546969692691e-05,3.7632125902084746e-05,1.945910149055313,0.028718167679458416,0.0096365060803743994,0.032596715112981928,4
1480601490,0.0,42.33163214758261,-71.109943036056194,10.0,0.0,5.2492795886488399e-06,3.8614035810460235e-05,2.0763235178022531e-05,2.5769388616081938e-05,3.0513546969692691e-05,1.945910149055313,0.028395469151407011,0.0092734736215969189,0.032569604053667163,4
1480601520,0.0,42.33163214758261,-71.109943036056194,10.0,0.0,0.00019684185208726,0.00055790147136213246,2.0763235178022531e-05,2.71829575376179e-05,4.0628948589487197e-05,1.7917594692280547,0.028292063929299269,0.009247194495998012,0.032464287399051821,4
1480601550,0.0,42.33163214758261,-71.109943036056194,10.0,0.0,0.00018481077733438196,0.00055790147136213246,1.9375349045657158e-05,2.5123785120823758e-05,4.0690231238139143e-05,1.945910149055313,0.028270601154798899,0.0089947643566000764,0.032410023338893083,4
1480601580,0.0,42.33163214758261,-71.109943036056194,10.0,0.0,5.4041323577700588e-06,3.7314970380079075e-05,1.9375349045657158e-05,2.5123785120823758e-05,3.1190483865563974e-05,1.945910149055313,0.028187601395375701,0.008908093397517915,0.032521038711276228,4
1480601610,0.0,42.33163214758261,-71.109943036056194,10.0,0.0,4.1735458239188781e-05,0.00014529842524543555,2.9460928132794909e-05,3.0863190834573803e-05,5.8214027800342251e-05,1.7917594692280547,0.028356527970797834,0.00949831099216371,0.032574259930947778,4
1480601640,0.0,42.33163214758261,-71.109943036056194,10.0,0.0,4.4625698598211174e-05,0.00014773640947637401,2.7214316680608685e-05,5.046675553598958e-05,0.00012139790319839017,1.945910149055313,0.029130008996163099,0.010584809100636217,0.032778394101455645,4
1480601670,0.0,42.33163214758261,-71.109943036056194,10.0,0.0,0.00021508062090702264,0.00067244071288152124,2.0687996855647355e-05,3.132206029384134e-05,0.00012261689531385941,1.945910149055313,0.029197085155273889,0.009511885519089696,0.033182123137217474,4
1480601700,0.0,42.33163214758261,-71.109943036056194,10.0,0.0,0.00023962738825727712,0.00067244071288152124,2.0687996855647355e-05,2.8245729727851602e-05,3.4791999556738296e-05,1.7917594692280547,0.028653002806370526,0.0093919429714567279,0.031809760437804598,4
1480601730,0.0,42.33163214758261,-71.109943036056194,10.0,0.0,4.9869304949796211e-06,3.2878586505731215e-05,1.844920411913595e-05,2.2362459614847067e-05,2.9451092238374826e-05,1.945910149055313,0.028594722415168802,0.011485948238956458,0.030102771373651527,4
1480601760,0.0,42.33163214758261,-71.109943036056194,10.0,0.0,6.8976570152331768e-06,3.8236645238330815e-05,1.844920411913595e-05,2.2362459614847067e-05,3.277067815587221e-05,1.945910149055313,0.028561483880706718,0.0111921317977145,0.02999127719567176,4
1480601790,0.0,42.33163214758261,-71.109943036056194,10.0,0.0,5.2466921007059171e-06,4.0551195209785956e-05,2.5312965545708685e-05,2.9558503017925928e-05,3.7310636087238539e-05,1.7917594692280547,0.028401735930608601,0.0109746264458013,0.029874772156365165,4
1480601820,0.0,42.33163214758261,-71.109943036056194,10.0,0.0,7.8672508341723934e-06,4.137744420910277e-05,2.113814229076563e-05,2.3361940422060651e-05,3.7444654627044699e-05,1.945910149055313,0.028297247078472986,0.011795647136545986,0.029758172926223597,4
1480601850,0.0,42.33163214758261,-71.109943036056194,10.0,0.0,7.4971221878791337e-06,4.137744420910277e-05,2.113814229076563e-05,2.1866531908148417e-05,3.4906435983211177e-05,1.945910149055313,0.028256783242940172,0.01214197040085087,0.02969839717811814,4
1480601880,0.0,42.33163214758261,-71.109943036056194,10.0,0.0,6.0000675041313556e-06,3.7127974354418998e-05,2.1638617541598623e-05,2.3346163886379768e-05,3.325138221617145e-05,1.7917594692280547,0.028168495759520063,0.012113058552670449,0.029581673572270012,4
1480601910,0.0,42.33163214758261,-71.109943036056194,10.0,0.0,1.3331672531953784e-05,6.5281833401028433e-05,2.1638617541598623e-05,2.7704522349964207e-05,4.1049513686312568e-05,1.945910149055313,0.028142968810070012,0.011830174901578314,0.029459313322339344,4
1480601940,0.0,42.33163214758261,-71.109943036056194,10.0,0.0,1.505179755079085e-05,6.5281833401028433e-05,1.2260823107822726e-05,2.8480295333858492e-05,4.1049513686312568e-05,1.945910149055313,0.028186068923023971,0.011602958430217056,0.029305429667771905,4
1480601970,0.0,42.33163214758261,-71.109943036056194,10.0,0.0,7.6541705407210239e-06,3.5805355351927896e-05,1.2260823107822726e-05,1.9529864957835528e-05,2.8467722940236149e-05,1.7917594692280547,0.028132409376429982,0.0111571295758823,0.029089024615398248,4
1480602000,0.0,42.33163214758261,-71.109943036056194,10.0,0.0,4.957147765347269e-06,3.2318903050509369e-05,1.7539308898728827e-05,2.1036701080916682e-05,2.696243234676471e-05,1.945910149055313,0.0280161212205614,0.010738858823900731,0.029109144540979986,4
1480602030,0.0,42.33163214758261,-71.109943036056194,10.0,0.0,4.6238247816460198e-06,3.2318903050509369e-05,1.7539308898728827e-05,2.4777119129429259e-05,3.0110073572006483e-05,1.945910149055313,0.028022691187065428,0.011097296574458558,0.0291216316470389,4
1480602060,0.0,42.33163214758261,-71.109943036056194,10.0,0.0,4.9150100558968716e-06,3.0333693950718038e-05,1.6639576682349671e-05,2.8762506918548621e-05,3.014231031662334e-05,1.7917594692280547,0.028047606221540098,0.0115480251977493,0.029021444076163787,4
1480602090,0.0,42.33163214758261,-71.109943036056194,10.0,0.0,6.8354134284029088e-06,4.1752274764240368e-05,1.6639576682349671e-05,2.7384974579905907e-05,2.9991244925206853e-05,1.945910149055313,0.028013980067232675,0.011142752280375229,0.02901264534968467,4
1480602120,0.0,42.33163214758261,-71.109943036056194,10.0,0.0,8.2581466422735495e-06,4.3760232471793207e-05,1.84961288960987e-05,2.7384974579905907e-05,3.8426685292647391e-05,1.945910149055313,0.027987435353683598,0.010400901753456201,0.029044451031410901,4
1480602150,0.0,42.33163214758261,-71.109943036056194,10.0,0.0,0.0020564178214467462,0.0055475873323597826,1.84961288960987e-05,2.2838313747607891e-05,4.1595448309108509e-05,1.710560083757924,0.089826234721420442,-0.0099490306231625331,0.029790259304376052,4
1480602180,0.0,42.33163214758261,-71.109943036056194,10.0,0.0,0.13714737334034552,0.39052650911107767,2.0136061813973897e-05,0.0027892662009541464,0.093844549309949718,1.8937882323911379,0.070092698618161808,0.29825140979892228,-0.45173960978607219,4
1480602210,0.0,42.33163214758261,-71.109943036056194,10.0,0.0,0.1376044142424962,0.39052650911107767,5.3480738571398013e-05,6.2814875060001468e-05,0.093844549309949718,1.8043716191528452,-1.2298002791938714,-0.64900819738290194,-0.48155067329947376,4
1480602240,0.0,42.33163214758261,-71.109943036056194,10.0,0.0,0.0012900813299520544,0.0035383415963974769,5.3480738571398013e-05,6.2230822977873274e-05,0.00011963728302817842,1.7917594692280547,-2.6919908760269746,-2.19930691576362,-0.27581099862649772,4
1480602270,0.0,42.33163214758261,-71.109943036056194,10.0,0.0,0.015355846470708305,0.044747177771038711,4.2159125057559046e-06,4.2510009168981232e-05,0.0029557958486711557,1.8675843750169279,-1.5330580271096987,-1.798858600316503,-1.03706024681755,4
1480602300,0.0,42.33163214758261,-71.109943036056194,10.0,0.0,0.014680021376313815,0.044747177771038711,4.2159125057559046e-06,0.001192681091988741,0.012807156555941198,1.7770332013812693,-0.96910725368051931,-0.20344401140869378,-1.4267594594761286,4
1480602330,31.320517410698425,42.331670957191257,-71.110011179532009,18.036577699853396,0.5220086235116405,0.10109190011548608,0.28589700739615015,0.004923721551932398,0.00922433594510522,0.038460863854989841,1.7328679513998633,-1.3214551157979901,0.46119019990689347,-1.4030924159709499,4
1480602360,31.320517410698425,42.331763849633155,-71.110148726563068,28.036577699853396,0.5220086235116405,0.098086102418798449,0.28589700739615015,2.3085367142503287e-08,6.9420893818458771e-06,0.027521081014749635,1.7770332013812697,-2.0388717187298071,-0.80617384468457465,-1.3578214216724758,4
1480602390,0.0,42.331817932466407,-71.110218130118312,30.0,0.0,0.0280790594688658,0.08137534898716306,2.3085367142503287e-08,6.9420893818458771e-06,0.0060965834185452263,1.8056165767134955,-2.2720864579362314,-1.4708889120536557,-1.3208224177486485,4
1480602420,24.904237209617747,42.331728881031616,-71.110170062697591,24.117342198821685,0.4150706201602958,0.028550623873553647,0.08137534898716306,9.1737761677493622e-06,0.0075573932273274441,0.045717636002174322,1.7328679513998633,-2.1020813793633044,-0.035566199201945002,-1.256669065443605,4
1480602450,49.7471851481112,42.33159110279972,-71.110009746226581,14.252442717765502,0.82911975246852,0.014866005162572188,0.045993352624110737,0.0060154850747384326,0.013101051814832799,0.038128061014190071,1.8937882323911377,-2.0081114578954753,0.83158086820370281,-1.2842896954605787,4
1480602480,43.51289324876801,42.331533630883634,-71.10979706521249,10.135100518943821,0.7252148874794668,0.016292810253817246,0.053370995066334387,0.0063756936869794664,0.013101051814832799,0.037819943095371969,1.8937882323911377,-1.7910415698006983,0.23066375694954142,-1.2712658953275415,4
1480602510,18.2034759815419,42.331415788309968,-71.109667323130282,10.0,0.30339126635903163,0.21148046942542445,0.62654081735123579,0.0063756936869794664,0.04654843649063025,0.18502203364325659,1.791759469228055,-1.9910873806574296,1.0226693785335235,-1.137251412729638,4
1480602540,24.57319303764485,42.331138734279513,-71.109640773451986,10.0,0.40955321729408084,0.18003857080999042,0.62654081735123579,0.058506653046676564,0.16305629075794112,0.34842509707071928,1.9459101490553139,-1.8723450251676306,1.8866584495201673,-1.0797762483096007,4
1480602570,67.55894471565573,42.330878692020043,-71.109470587289991,10.0,1.1259824119275954,0.11541402549414917,0.43020366839975699,0.058506653046676564,0.15783549184920337,0.2799241550534014,1.8891591637540215,-1.5303198784058683,0.92429794782605257,-1.1007193397910482,4
1480602600,93.91830396203252,42.330726909024953,-71.109069306469635,10.0,1.5653050660338754,0.095112811295655963,0.31340109837827557,0.075534995424456811,0.11074337803598375,0.28296387590376859,1.791759469228055,-1.5848001790977724,-1.1079128873554667,-1.0974683765247804,4
1480602630,37.022908315770735,42.330537419339954,-71.108774854402157,10.0,0.6170484719295123,0.23096929427930468,0.74792158271405929,0.061958328133582825,0.075614698360502747,0.34282647489497708,1.8891591637540215,-1.9124230976049226,0.054208124329513663,-1.179195045097416,4
1480602660,36.78155460682833,42.3302333064306,-71.108781914758595,10.0,0.6130259101138055,0.48435629612358477,1.5685219272792308,0.061958328133582825,0.18084806062207009,0.58789359641053696,1.9459101490553139,-2.0382138868905613,1.0860692123170372,-1.2731237565490743,4
1480602690,27.84990035829017,42.329858794614985,-71.108878674051823,10.0,0.46416500597150284,0.57143194809085096,1.5685219272792308,0.10795263754689279,0.32146769248744733,1.3274631085966297,1.791759469228055,-1.5891985217694629,1.7044836030158341,-1.2566521815612717,4
1480602720,45.09422947628201,42.329494575776472,-71.108796714405628,10.0,0.7515704912713669,0.76009920656084917,2.5024300638942449,0.10795263754689279,0.5010715397608918,1.3845710824161224,1.9459101490553139,-1.3625714742822044,1.2259884595718855,-1.1043010546376857,4
1480602750,22.44151467273932,42.329305052563861,-71.108645481123688,10.0,0.37402524454565533,0.88275300072725149,2.5024300638942449,4.2940051854717811e-05,0.00040318680012302994,1.1814157646710197,1.8043716191528452,0.42935712538608783,-0.5592101945386273,-0.37884105029857984,4
1480602780,83.0436963455816,42.329709263916122,-71.108660243847211,10.0,1.3840616057596933,0.036593319553553619,0.10290433660037197,4.2940051854717811e-05,0.00023172180221573907,0.016211766352534865,1.7347645210257749,2.9727888913776468,-2.1697348804994987,0.4310951805308843,4
1480602810,174.21138371645614,42.331137788187789,-71.109141883127819,10.0,2.903523061940936,0.041468227556490572,0.10290433660037197,0.0012392582178935765,0.011420056687101651,0.059228240467400745,1.9251211907908181,0.39735399418951439,-2.4648098375393102,0.33613696605263849,4
1480602840,95.91768698604524,42.332578959700307,-71.109575809319423,22.0,1.5986281164340874,0.034587279557901932,0.10191324571716046,5.3300445071672599e-05,7.2151707062177356e-05,0.011420056687101651,1.8562701281920884,-2.1721445259137213,-2.5500652314685412,0.26834318850944089,4
1480602870,150.1055955357305,42.333117045299751,-71.109476426389534,31.0,2.501759925595508,0.0059236589523254234,0.01618168172245546,5.3300445071672599e-05,7.2120675294022992e-05,0.0011031974993199478,1.710560083757924,-1.0017650897028498,-1.8681918276726446,0.30705764222511084,4
1480602900,346.76256630333745,42.333212196011843,-71.108371821168546,19.0,5.779376105055624,0.020605518719034627,0.06336473770626963,7.8142795446560506e-05,0.0010493112076526282,0.017150511967385797,1.8640435797520256,0.43094109004849301,0.73727111541156154,0.36448940120037471,4
1480602930,225.66011096318894,42.333313428836256,-71.106849207143398,12.0,3.7610018493864823,0.021280766703809184,0.06336473770626963,2.812538789981583e-05,0.00042909847128901296,0.014638571300887235,1.7770332013812697,-1.3334091598955002,2.2974319169849045,0.35157686810085931,4
1480602960,56.062699725331754,42.333433128001488,-71.106168611972706,15.0,0.9343783287555293,0.00067600622193682888,0.0019403426872922919,2.812538789981583e-05,0.00017570973027939004,0.00079614890278023153,1.7917594692280547,-2.0717159832196184,2.654459422566275,0.35001372377657664,4
1480602990,3.4444426294360837,42.333519223418406,-71.106047751913891,14.333333333333334,0.05740737715726806,0.00030867179078007901,0.00098109627099408816,3.0681832224572201e-05,5.6454667163635805e-05,0.00022337449299570798,1.945910149055313,1.3061006826082255,2.7716572151454062,0.43112214332785287,4
1480603020,171.1199824631243,42.333613081470951,-71.105922907085699,20.890315124290016,2.8519997077187385,0.029014133805415513,0.083065249660258716,3.0681832224572201e-05,5.6454667163635805e-05,0.0002784638597870887,1.8675843750169276,3.0532892380338517,2.7980930625603011,0.45403963951590259,4
1480603050,126.01336491008988,42.333862537453712,-71.10532512486138,34.070135882193213,2.100222748501498,0.030837571398451422,0.083065249660258716,0.00011303468862344732,0.00019988083762351757,0.00064120903136539542,1.7105600837579242,2.0197404344719447,2.7249604696931087,0.42363860104638934,4
1480603080,17.22103900307501,42.334019617797786,-71.104979334729492,32.636363636363633,0.2870173167179168,0.00020202912008330723,0.00074072929102138199,0.00011303468862344732,0.00017930979433756551,0.00042489494087970259,1.945910149055313,1.319547298972797,2.677193193190933,0.43729079740033416,4
1480603110,2.91687158278618,42.334022708276613,-71.104987766659931,25.0,0.04861452637976967,0.00017367758959350898,0.00050216297898288771,5.6084238928873296e-05,0.0001110382788303337,0.00042489494087970259,1.945910149055313,2.2081054977812244,2.7081009355785413,0.44896488155447356,4
1480603140,365.18680727728696,42.334292690774753,-71.104233255676107,15.0,6.086446787954783,0.0060947148825284386,0.016407068958493438,5.6084238928873296e-05,0.00016944444231420641,0.008072796992301505,1.6581101035673729,3.0376121714314164,2.7310561066987868,0.47122340811056668,4
1480603170,467.2665549752524,42.335034252416669,-71.102220299719932,16.333333333333332,7.787775916254207,0.0057665786260344618,0.016407068958493438,0.00010100812741908476,0.0018690091587137455,0.010767729338452669,1.8562701281920884,2.1467204450507698,2.7306058441097041,0.48767869506921141,4
1480603200,264.6798807299555,42.335612422826095,-71.100646653278829,18.666666666666668,4.411331345499259,0.011545310851051017,0.034779534912884984,3.7857963280084503e-05,0.0001923705383013043,0.010362393211330295,1.8562701281920881,2.1666159935258271,2.7719975936362085,0.49362320504107088,4
1480603230,381.5034933622699,42.336162634000509,-71.099194462011667,16.666666666666668,6.358391556037832,0.011860736956685365,0.034779534912884984,3.7857963280084503e-05,0.0013716030436164651,0.010611778773728721,1.7347645210257756,3.0436686743283587,2.8460099696121599,0.49652323731310699,4
1480603260,284.7717332284157,42.336777434723771,-71.097622389971363,16.0,4.7461955538069285,0.0036209739331796486,0.011215162160724091,8.8446531201731419e-05,0.00036143949353998814,0.003730867064878394,1.8675843750169276,3.0402371517820597,2.8821958072008216,0.50464838346167851,4
1480603290,368.1228912667119,42.337331019614211,-71.096345060571181,11.666666666666666,6.135381521111865,0.0030937712954400287,0.0094377092332737812,8.8446531201731419e-05,0.00015420558564530876,0.0029311187561892088,1.8675843750169276,3.0219324440296771,2.9210941414414271,0.51695326911998329,4
1480603320,394.51245663141736,42.338123882694497,-71.094400076261806,11.0,6.575207610523623,0.0031458497129013161,0.0094377092332737812,0.00014657675348778859,0.00060445072551444374,0.0030260888839377539,1.7105600837579242,3.022438818298427,2.9541866428583199,0.50398110537060459,4
1480603350,106.22277649338639,42.338594985466777,-71.093186526159826,11.0,1.7703796082231065,0.0012089148651321855,0.0032961404294009232,7.8076588508265418e-06,8.8233893709771045e-05,0.0014215064459754327,1.945910149055313,3.0204607164111144,2.984669844465873,0.49964121954837143,4
1480603380,204.804971736727,42.338764461262478,-71.09278480389257,10.0,3.4134161956121165,0.0021123625748931782,0.005922367787532164,7.8076588508265418e-06,5.5386795533733596e-05,0.001885951573221767,1.8675843750169276,3.0066162055546672,2.997638601375133,0.50755627028575867,4
1480603410,434.3914710653575,42.339412289478211,-71.091162703066217,10.0,7.239857851089292,0.0043400700572565811,0.012729009463823295,7.360213614368784e-05,0.00077124206120550019,0.0052279819661593526,1.7480673485460896,3.0306424610641454,2.9887918500055215,0.48144507846627965,4
1480603440,513.2388943780043,42.340291217241763,-71.088956309548664,10.666666666666666,8.553981572966737,0.016506932174153569,0.0510514711220761,0.00021762210306901491,0.0012385367554385337,0.012005873422558122,1.9036483899019156,2.1671874392403803,2.1537894907033399,0.37186954020766372,4
1480603470,110.5237067049054,42.341185663400545,-71.087698908123272,11.0,1.84206177841509,0.029699727414113676,0.08457086074667422,0.00021762210306901491,0.0041396564995147293,0.031167104251684525,1.8640435797520256,1.2747195207342858,0.56543332522514889,0.32352668202472346,4
1480603500,235.94453640365973,42.341546685241489,-71.087966134372266,10.333333333333334,3.9324089400609954,0.029800428299557986,0.08457086074667422,0.00029385489519682831,0.0025574323621864996,0.010896588371008346,1.7347645210257756,2.0178849948084734,-0.3053634125732923,0.29752313384911067,4
1480603530,43.14627757441537,42.341349334029807,-71.088689006465586,10.333333333333334,0.7191046262402562,0.057656300066976633,0.17096151765860462,0.00076747182574379781,0.0030934970239977159,0.011257179867641347,1.9036483899019156,1.4009199946246085,0.23933962332434938,0.03630015187599045,4
1480603560,43.362451120702296,42.34130522775682,-71.088834200586291,14.083333333333334,0.7227075186783716,0.25081708882914044,0.63243616398566538,0.00076747182574379781,0.010429730241715226,0.3834895275856518,1.8891591637540217,-0.57532491525115337,0.70240182913769067,-0.60366446608283908,4
1480603590,62.891324772896176,42.341173553645937,-71.089087188775736,21.25,1.0481887462149362,0.38338714875978053,1.2993770917341008,0.18489141694795325,0.39403703215643282,0.92774728600741896,1.791759469228055,-1.5483897072556971,0.5685750785543805,-1.1818770391910352,4
1480603620,27.516596868289408,42.340883258303954,-71.089176415531981,25.0,0.45860994780482345,0.43911065243345149,1.2993770917341008,0.04344069641203558,0.27498170513846676,1.0070975327478502,1.9459101490553139,-1.4543676190202,0.48101736366546138,-1.1052377762516064,4
1480603650,32.80257523100618,42.340581489533513,-71.089065330169248,25.0,0.5467095871834363,0.36954979534937482,0.98801073881436352,0.0029586037269884228,0.030689507334431217,0.64439567620379989,1.9459101490553139,-1.591881663258268,-0.085131218907537207,-1.1874158384729476,4
1480603680,16.6773043810275,42.34039583666469,-71.088988753101873,25.0,0.277955073017125,0.2843967751002196,0.77734319640484895,0.0029586037269884228,0.007957891492640732,0.026920799188879505,1.7480673485460896,-1.9893291199698611,0.42062471614373331,-1.3066094035750482,4
1480603710,54.182966806497426,42.340267087838001,-71.088813677496361,25.0,0.9030494467749571,0.17304667425025963,0.41714401022318048,0.0048012902106610725,0.023671327419071714,0.37608516408765991,1.9459101490553139,-1.8809584281344311,0.6718274794069935,-1.3122503776195258,4
1480603740,60.71931326490231,42.340031540293573,-71.088575757174851,25.0,1.0119885544150384,0.32644446961818735,1.1477483593244264,0.035573801656281906,0.24743555434775627,0.39866744621761657,1.9459101490553139,-1.5638387141247743,0.010226451574514961,-1.3287945416581144,4
1480603770,47.837235763860754,42.339669749413005,-71.088358704998257,25.0,0.7972872627310126,0.84529968153946411,2.6370478779163804,0.035573801656281906,0.37021974121957529,1.1131611806512058,1.791759469228055,-2.019907257769177,0.97285637832319838,-1.2332958806663668,4
1480603800,36.143788379647376,42.339291505555011,-71.088189218725176,25.0,0.6023964729941229,0.76636919118328395,2.6370478779163804,0.14731545196166437,0.50306944916958474,0.79074390929606397,1.8891591637540215,-2.1585907557722352,-0.20636020191835322,-1.1564236433891342,4
1480603830,23.507122207932376,42.338955410097114,-71.088185555833476,25.583333333333332,0.39178537013220627,0.42289653818444906,1.5695659100230115,0.14731545196166437,0.38945203799976275,0.59212989344192635,1.9459101490553139,-1.836332246857403,-1.0490619427579146,-1.0741314479241297,4
1480603860,13.270586937134581,42.338808814801602,-71.088268579981388,45.75,0.22117644895224303,0.52171910443730174,1.5695659100230115,0.0027078817105543052,0.13087364236569948,0.56002838266792665,1.791759469228055,-1.8098341649202225,-0.21430126104724864,-1.0912738796970463,4
1480603890,0.0,42.338810451368211,-71.088285874641628,110.18181818181819,0.0,0.19046540533342363,0.5242526256228397,0.0027078817105543052,0.038299812211098502,0.27914175492931181,1.8891591637540215,-1.2655419054403458,-0.14056680526646875,-1.3485776992867113,4
1480603920,4.378213272596695,42.338821427091879,-71.088280438482442,150.0809212919655,0.07297022120994492,0.43511508617770839,1.2953565020303544,0.010157000065993769,0.039288043904725727,0.3394687217897811,1.8891591637540215,-0.4119745595615748,-0.33222498689858865,-1.4255443434774686,4
1480603950,2.2128762630504486,42.33887667716499,-71.088242152410388,108.29850361461223,0.03688127105084081,0.47559986086794659,1.2953565020303544,0.00030516054794476553,0.0022117762433229013,0.073990818019791946,1.6609474332869181,-0.85379251165966341,-1.1829480070910419,-0.97401781741858606,4
1480603980,4.2550098786075585,42.338887974718304,-71.08822950158843,147.69804377269659,0.07091683131012598,0.0023866483476444418,0.0072023199985202522,3.7595633744397945e-05,0.00022508616058937306,0.0022377390942151169,1.8675843750169279,-2.5041008516481837,0.43227873173156267,-0.24619794657129046,4
1480604010,7.959164952570696,42.33888652595045,-71.088237653600146,131.37841675532391,0.1326527492095116,0.0038892177650348657,0.010370431008435831,3.7595633744397945e-05,0.00022508616058937306,0.0042752980155703734,1.8842428460867393,-2.8781751072012716,2.3184100722233514,-0.023356239737765898,4
1480604040,1.2663952928725106,42.338879813453033,-71.088253420202179,123.35333002789758,0.021106588214541845,0.0038193693403940666,0.010370431008435831,0.00031131334662482164,0.00065979087929635735,0.0054493844741572723,1.7480673485460896,-2.8774832695419938,2.2073765251374646,-0.015074012151548084,4
1480604070,1.2211105716449726,42.338873689636273,-71.088258680700832,106.59579045104879,0.020351842860749543,0.0021347684255759738,0.0068164206213361988,0.00015868874181501445,0.00047735855868928114,0.0015717235869732054,1.8675843750169276,-2.878386133003406,2.1871701928564944,-0.030225859239999871,4
1480604100,2.4222828456681227,42.338867291527009,-71.088258788252631,69.513136120112932,0.040371380761135375,0.00064642741956022107,0.0016823549740643538,0.00013607344441798598,0.00030689875415604973,0.0015538436601226673,1.945910149055313,-2.8697193604766604,2.1756603784425601,-0.031045624175227514,4
1480604130,3.6750527386871963,42.338875077384415,-71.088268947447588,68.4319244499289,0.06125087897811994,0.00074903488826423797,0.0020079806738300086,0.00013607344441798598,0.00024658402498222933,0.0015565398032231651,1.7917594692280547,-2.8698782840972563,2.1607064748706768,-0.032285016465841664,4
1480604160,1.049964675638524,42.33888517384878,-71.088272145309091,75.5501938679256,0.017499411260642066,0.0013503249130272941,0.0040172675865640358,5.0847355812872529e-05,0.00024682321564043494,0.0012603679167785035,1.945910149055313,-2.8778511951222003,2.1751742054087058,0.024052161868114371,4
1480604190,1.943471237140102,42.33888524182575,-71.088265325155731,126.77781600653564,0.032391187285668366,0.0027709390889826026,0.0075581236634445614,5.0847355812872529e-05,0.0003633778032783063,0.0045638703273939239,1.8842428460867402,-2.8887943961601983,2.1847741669674501,0.068010005979143848,4
1480604220,1.2665405998200796,42.338881685250549,-71.08824736036857,145.01784954484728,0.021109009997001327,0.0024992291214173557,0.0075581236634445614,0.00035906582636776544,0.0013489936017219738,0.0049744238813545973,1.7480673485460896,-2.8958845429103381,2.1728333503844799,0.066455285107384549,4
1480604250,16.002272075579675,42.338860806686377,-71.088235987513144,95.814554736528891,0.2667045345929946,0.0015362711893451854,0.0045662763207469518,6.5099630640175329e-06,0.00040619395702716461,0.0023748274300397108,1.945910149055313,-2.0834860673457571,2.0677066422880945,0.040917605612634508,4
1480604280,0.7375847350668004,42.338853206208782,-71.088245746094515,72.456462664495632,0.012293078917780007,0.00069759219883496664,0.0019788351441451944,3.4493524484009683e-06,5.3680839847744624e-06,0.00040619395702716461,1.945910149055313,-0.84092625167378343,1.9363299125947215,0.014210466274065222,4
1480604310,1.156647324033619,42.338868180128458,-71.088252206922093,65.0,0.019277455400560316,6.0870097304369282e-06,1.6385765342562529e-05,1.927411027235478e-06,3.6435655626835746e-06,1.4745208695743816e-05,1.7917594692280547,0.0045014947645974001,1.8610530807823185,0.0013256766830674466,4
1480604340,0.08937599990451216,42.338869214818033,-71.088254502803053,65.0,0.001489599998408536,5.4677824546217396e-06,2.0825592520604421e-05,1.927411027235478e-06,9.3318706835211913e-06,1.4674433706173052e-05,1.945910149055313,0.0045719850439401672,1.8613404419314803,0.0014101278445938701,4
1480604370,0.9942635359093065,42.338864889197211,-71.088249196619799,65.0,0.016571058931821776,8.4402236134443958e-05,0.00025480037005240746,5.998226396831567e-06,9.3318706835211913e-06,2.6058959789954158e-05,1.945910149055313,-0.00087148977890819275,1.8493764781848687,-0.00063008896117666279,4
1480604400,1.0260829762152277,42.338866821688001,-71.088246537426215,65.0,0.017101382936920463,9.1210615590314471e-05,0.00025480037005240746,2.6945599294559105e-07,5.6915900155445174e-06,2.7070696755085634e-05,1.7917594692280547,-0.0082389384225719526,1.8333928820764331,-0.0033520469635909167,4
1480604430,0.10663774243055613,42.338865822358144,-71.088246314543824,65.0,0.0017772957071759353,1.108489315273589e-05,3.6863078268534424e-05,2.6945599294559105e-07,6.0088365522060768e-06,1.4806347329940617e-05,1.945910149055313,-0.008225923658316198,1.8340055670890372,-0.0033584170585800811,4
1480604460,0.6643361250430024,42.338862706065605,-71.088242238867693,65.0,0.011072268750716707,9.9484467633790352e-06,3.6863078268534424e-05,6.4282952159633204e-06,8.4281356351747781e-06,1.7378397253897697e-05,1.945910149055313,-0.008177413835385729,1.834271569930904,-0.0032693018844714163,4
1480604490,0.9336418052804198,42.338848815235117,-71.0882281507713,65.0,0.015560696754673664,4.5381368911761268e-06,1.9549905690344996e-05,4.9333049735702692e-06,8.6760943861239908e-06,1.1478434542601152e-05,1.7917594692280547,-0.0081342012781710962,1.8347400053079834,-0.0031223806228297367,4
1480604520,1.5721733369754116,42.338842687543121,-71.08822526134486,65.0,0.026202888949590195,3.9843246366512888e-06,1.2239217566454526e-05,5.0718283698375432e-07,2.0570678414934902e-06,7.9959047377964275e-06,1.945910149055313,-0.008113639937790974,1.8347995931098429,-0.0030274271976256143,4
1480604550,2.765742890883886,42.338861610897197,-71.088243207958641,65.0,0.04609571484806477,3.8921416680796599e-05,0.00011718610698147816,5.0718283698375432e-07,2.0570678414934902e-06,2.0932612959550845e-05,1.945910149055313,-0.0080872327213176824,1.8347213867209444,-0.0029237305442411767,4
1480604580,3.9241675938936056,42.338862182508961,-71.088242043339392,65.0,0.06540279323156009,3.8655439603601563e-05,0.00011718610698147816,1.0592022819830806e-05,1.1958379792426051e-05,5.3719400000608487e-05,1.7917594692280547,-0.0080442063180752119,1.8347242739214,-0.0028954368511966253,4
1480604610,5.1612796845356295,42.338847800833584,-71.088224545757072,65.0,0.08602132807559383,4.0930373464175495e-05,0.0001251439561538181,9.0886239064449742e-06,1.0265883362456463e-05,3.8437029609025814e-05,1.945910149055313,-0.0079884762274888641,1.8347049072197472,-0.0029025167035334688,4
1480604640,6.702234422207584,42.338847671211262,-71.088225902377417,65.0,0.11170390703679307,3.931019038386714e-05,0.0001251439561538181,9.0886239064449742e-06,1.0308094420248083e-05,1.906516787575403e-05,1.945910149055313,-0.0080003375720320204,1.8349850346502143,-0.0028411133607538532,4
1480604670,1.6310247072763342,42.338857627507835,-71.088238737240161,65.0,0.027183745121272238,1.9260281398615251e-05,6.2445090590228193e-05,4.9346069898897471e-06,1.1026943840157893e-05,2.0923893362978658e-05,1.7917594692280547,-0.0080275311325595251,1.8351213190578264,-0.0028285371249806,4
1480604700,1.6070896543006046,42.338862608582886,-71.088240151465655,65.0,0.02678482757167674,1.9117141424840016e-05,6.2445090590228193e-05,4.9346069898897471e-06,1.553323397620375e-05,4.2394311626889015e-05,1.945910149055313,-0.0080272545198423351,1.834905965937643,-0.0028098290430734851,4
1480604730,2.6368730607216837,42.338864707180939,-71.088242570691619,65.0,0.04394788434536139,1.1832625497854612e-05,4.9897974408836496e-05,1.0585241700181212e-05,1.9418262721946177e-05,3.0504714033656757e-05,1.945910149055313,-0.0080838833086875495,1.8347370188961627,-0.0026504744079663039,4
1480604760,0.45709835075597705,42.338864526123757,-71.088247049630681,65.0,0.007618305845932951,8.5297205885404726e-06,2.7065637642125664e-05,1.3915017817347244e-06,1.1948495012208928e-05,2.2654509867369018e-05,1.7917594692280547,-0.0081220839587371335,1.8347608037095,-0.0025324258517216698,4
1480604790,1.2346441385927711,42.338873256140701,-71.088254260355342,65.0,0.02057740230987952,3.7146505327297273e-05,0.00011478401517948315,1.3915017817347244e-06,5.2957811804483177e-06,2.155194629520887e-05,1.945910149055313,-0.0080630031525289452,1.8348596433794613,-0.0025435233781061425,4
1480604820,0.9261657974345632,42.338878954482269,-71.088255726050519,65.0,0.015436096623909386,9.4742706803821887e-05,0.00027953596150735217,1.4262775803024664e-06,1.0814535911952856e-05,6.9172340774962293e-05,1.945910149055313,-0.0080185923672571897,1.8345592192471514,-0.0025684358856348228,4
1480604850,1.0298023089555244,42.338870182791609,-71.088253217853023,65.0,0.017163371815925407,9.7970146606232619e-05,0.00027953596150735217,1.3107210220817081e-05,1.4480326043911369e-05,2.2210427396237327e-05,1.7917594692280547,-0.0079841722882307547,1.8341656411917349,-0.0026020914522138969,4
1480604880,3.405118827068531,42.338863120149981,-71.08824582589628,65.0,0.05675198045114218,5.4314480070406317e-06,2.4439063849849169e-05,8.419815620259313e-06,1.2350537121679772e-05,2.0144680268590247e-05,1.945910149055313,-0.0080499621687883383,1.8344668841287728,-0.0025383948017907031,4
1480604910,1.064902962023974,42.33886001380391,-71.088240594467848,65.0,0.017748382700399568,6.5185126532539468e-06,2.5652059475083486e-05,8.419815620259313e-06,1.1667858490704596e-05,2.3284356956702324e-05,1.945910149055313,-0.0081003552695346655,1.83494726791041,-0.0025044929557174571,4
1480604940,4.321017364887733,42.338867866651107,-71.088248496580363,65.0,0.07201695608146222,6.7602484165114075e-06,2.6801331627727141e-05,7.5632448273049581e-06,1.4159279089295493e-05,2.4321146618564918e-05,1.7917594692280547,-0.0081061502347081569,1.8351938043002765,-0.0025419457708345749,4
1480604970,2.657307496507,42.338860099518953,-71.088240208490575,65.0,0.04428845827511666,3.1848825759410873e-05,0.00010307652775597254,7.053254916133989e-06,1.2647064938437358e-05,3.9802767917373532e-05,1.945910149055313,-0.008094196977616765,1.83486407600409,-0.0026328573640722898,4
1480605000,1.094232510516781,42.338856230229915,-71.088236572095738,65.0,0.018237208508613014,3.3758482719463446e-05,0.00010307652775597254,7.053254916133989e-06,1.5368920343118108e-05,6.2776840045565495e-05,1.945910149055313,-0.008043407149274517,1.8347566775601756,-0.002660505114737931,4
1480605030,2.782304595337195,42.338866784747673,-71.088248366309685,65.0,0.046371743255619914,2.1665081255977346e-05,7.2749475884111066e-05,1.0626477408106794e-05,1.3387282401836771e-05,2.0026429423912622e-05,1.7917594692280547,-0.0080525696651213754,1.8349610007471935,-0.0026238838581852165,4
1480605060,8.56807435217657,42.338861563211267,-71.088246024956973,65.0,0.14280123920294283,1.3215655472009106e-05,5.3133232000667085e-05,1.0626477408106794e-05,1.4976674812897852e-05,2.6879302289468269e-05,1.945910149055313,-0.0081378324495927148,1.8350741866099971,-0.0026134437980695814,4
1480605090,4.434008872481525,42.338845470221216,-71.088225406862591,65.0,0.07390014787469208,1.5039653742977165e-05,5.3133232000667085e-05,4.2602679510454687e-06,1.1675191507683664e-05,2.6879302289468269e-05,1.945910149055313,-0.0081558167066536173,1.8351454777467773,-0.002761245773169167,4
1480605120,7.8987559365336635,42.33884558276408,-71.088220406287462,65.0,0.13164593227556107,1.2177889592617463e-05,3.7234790498787952e-05,3.3147560186512984e-06,5.093620740392289e-06,2.2599012144409246e-05,1.7917594692280547,-0.0081605637553100394,1.8351998588981269,-0.0028448144662014882,4
1480605150,1.2810498456436459,42.33885313145548,-71.088230705157571,65.0,0.02135083076072743,9.5555928680489547e-06,3.7234790498787952e-05,3.3147560186512984e-06,1.5779732237596331e-05,2.2348222587857932e-05,1.945910149055313,-0.0081592436903394176,1.8347003741881558,-0.0026789213396935171,4
1480605180,1.9558264275789157,42.338846956522069,-71.088231098418973,65.0,0.032597107126315264,3.5591962597906648e-06,2.3091474097030734e-05,1.2969112656716815e-05,1.537186314187711e-05,2.1276244402009858e-05,1.945910149055313,-0.0081195627993282914,1.8343647185121199,-0.0027668142381549717,4
1480605210,4.2562714992513495,42.338852776461422,-71.088240303064111,65.0,0.07093785832085582,4.4315014492135145e-06,2.3791107985134336e-05,9.4225453061368515e-06,1.5264667851146952e-05,1.8755998927625119e-05,1.7917594692280547,-0.0080560796459135438,1.8342151891228287,-0.00286537247925156,4
1480605240,2.695824168151709,42.338863248784016,-71.088249800948148,65.0,0.04493040280252848,1.1951818082127587e-05,4.8631412361975013e-05,9.4225453061368515e-06,1.4510874083931486e-05,2.3864788433466525e-05,1.945910149055313,-0.0080740117528832582,1.834041101413993,-0.0026876443928446668,4
1480605270,1.2028757111886241,42.33887050197675,-71.088248852917403,65.0,0.020047928519810403,1.3538771810930389e-05,4.8631412361975013e-05,1.0355482518669507e-05,1.6064513988251972e-05,3.3391508435379803e-05,1.945910149055313,-0.0080992910545454426,1.8340114036690587,-0.0026394883346103214,4
1480605300,0.8915146160104601,42.338863506319385,-71.088240322269598,65.0,0.014858576933507669,2.6846837855100038e-05,9.4463905475884342e-05,1.0355482518669507e-05,2.3136890641535156e-05,4.1228409794321604e-05,1.7917594692280547,-0.0080621415405318034,1.8339883661047818,-0.0028001521686519186,4
1480605330,6.173925242488197,42.338854067267057,-71.088234857424112,65.0,0.10289875404146995,2.6660491018431036e-05,9.4463905475884342e-05,4.2385184979939972e-06,2.0144903027179853e-05,3.8525932837686078e-05,1.945910149055313,-0.0080589954126880723,1.8345113679032969,-0.0029144003556069889,4
1480605360,0.19250013837234717,42.338854019169851,-71.088237450526961,65.0,0.0032083356395391197,1.420816397702609e-05,4.9412141954470477e-05,4.2385184979939972e-06,1.8123039287965055e-05,3.0692056857889352e-05,1.945910149055313,-0.0080159018837158893,1.8349236086190099,-0.0029355472666964672,4
1480605390,1.0917745744759026,42.338857141900114,-71.088239260577978,65.0,0.01819624290793171,1.2578401372114553e-05,4.9412141954470477e-05,1.2054915953063835e-05,1.595210033155869e-05,2.588865049250556e-05,1.7917594692280547,-0.008005258546564897,1.8347042002152065,-0.0029437114688668649,4
1480605420,0.5222337208065714,42.338860240732821,-71.088239715658815,65.0,0.008703895346776189,5.8886748393890735e-06,2.8297422155232247e-05,1.2054915953063835e-05,1.499487691717568e-05,2.4874185994008334e-05,1.945910149055313,-0.0079969550928532494,1.8345262613049929,-0.0029457061852949116,4
1480605450,2.096520966132805,42.338857339493991,-71.088240641341926,65.0,0.03494201610221341,1.6210249292689186e-05,5.7985100199778299e-05,4.1227279839101546e-06,1.2250173796843934e-05,2.4874185994008334e-05,1.945910149055313,-0.0079549068633308576,1.8346494101345772,-0.0029922672999834711,4
1480605480,1.0360200186202708,42.338854044132091,-71.088236581824219,65.0,0.017267000310337847,1.999834165781939e-05,5.7985100199778299e-05,3.7618998846967775e-07,5.5717492823192545e-06,2.6146963931745848e-05,1.7917594692280547,-0.007960792779089107,1.8346355734864332,-0.0029859717015665154,4
1480605510,3.2032726452414506,42.338862838502948,-71.088240432616288,65.0,0.053387877420690844,1.1917305773025191e-05,3.4737968011817523e-05,3.7618998846967775e-07,9.824822415172943e-06,2.9371500302219196e-05,1.945910149055313,-0.0080091354125689483,1.8349394614907031,-0.0029929693922245881,4
1480605540,2.322568274562318,42.338872092658704,-71.088248887773148,65.0,0.0387094712427053,9.7972443496408827e-06,3.4737968011817523e-05,4.6297294912821766e-06,1.5569533293277793e-05,2.7046447243032104e-05,1.945910149055313,-0.0080464171683698356,1.8350285223482916,-0.0030413164346101548,4
1480605570,0.44781145372709386,42.33887140237313,-71.088252343203493,65.0,0.007463524228784897,8.5911419348055898e-06,2.6765445771428734e-05,3.9009825044574025e-06,7.3636802184212349e-06,2.1795236110317615e-05,1.7917594692280547,-0.0080937622468840922,1.8345374505271117,-0.0029165904913470582,4
1480605600,1.1932484888393606,42.338860843950286,-71.088247604407997,65.0,0.019887474813989343,1.5084965835285032e-05,5.6239958750815353e-05,3.9009825044574025e-06,1.6412728833676935e-05,2.0233292206042099e-05,1.945910149055313,-0.0080913089924505056,1.8341473877588457,-0.0027004437124447975,4
1480605630,0.39440835622490744,42.338860318855112,-71.088248836690781,65.0,0.006573472603748457,7.3119525900893677e-05,0.00023143558388388012,1.3234982919172909e-05,1.7891309027249511e-05,4.2363685245513619e-05,1.945910149055313,-0.008060517395152551,1.8337554804882017,-0.0026580837594385913,4
1480605660,1.4738749169809762,42.338850620850067,-71.088237813560838,65.0,0.024564581949682935,7.9234150160611329e-05,0.00023143558388388012,2.890451026805243e-06,1.4925095186172888e-05,3.8816482866436006e-05,1.7917594692280547,-0.0080667563876214068,1.83322612633872,-0.0027046200831936963,4
1480605690,1.021279449837897,42.33884786297601,-71.088231393154871,65.0,0.01702132416396495,1.9646179853864035e-05,5.9374115416955152e-05,2.3519697892524951e-06,7.5665254642280597e-06,3.1127469281175106e-05,1.945910149055313,-0.0080358749878471896,1.8331107826857713,-0.0028471381467126459,4
1480605720,1.4763290052606128,42.338865635030459,-71.088241598471953,65.0,0.024605483421010214,1.8286922753558067e-05,5.9374115416955152e-05,2.3519697892524951e-06,1.380010844456117e-05,3.77456477323207e-05,1.945910149055313,-0.0080063801825315372,1.8332373117062757,-0.0029121234494326486,4
1480605750,0.4251371701460238,42.33886765338022,-71.088243788585928,65.0,0.0070856195024337305,1.1808978050756501e-05,4.7399633082598699e-05,1.4355834731941814e-05,2.2387080853714756e-05,4.0247599046666665e-05,1.7917594692280547,-0.0080098731198771488,1.8333268150093784,-0.0028846920633873621,4
1480605780,0.5526676893387651,42.338863152023329,-71.088247623362804,65.0,0.009211128155646085,1.3614296483166496e-05,4.7399633082598699e-05,3.2134137770398388e-06,1.5403191037643117e-05,3.2494182670052693e-05,1.945910149055313,-0.0080705521787307558,1.8331311659350373,-0.0028504109516656337,4
1480605810,0.3833950284733767,42.338845151304135,-71.088233888619385,65.0,0.006389917141222945,9.0083115168308831e-06,2.9997346450663386e-05,3.2134137770398388e-06,9.5194952545406705e-06,2.2014042782213552e-05,1.945910149055313,-0.0083695223140984962,1.8433545767224147,-0.0025429986164856523,4
1480605840,1.155147891254635,42.338847176010766,-71.088234383504371,65.0,0.019252464854243916,4.3129190121853712e-05,0.00012751061513131839,4.5955966663079719e-06,8.191879150342681e-06,2.169944081554153e-05,1.7917594692280547,-0.0087689494216729117,1.8571513767346464,-0.0021247735461723347,4
1480605870,0.9520785089180106,42.338859198636143,-71.088239367863054,65.0,0.01586797514863351,3.9040431498387828e-05,0.00012751061513131839,6.1080409195324531e-06,1.3369318165355953e-05,2.8186830724091869e-05,1.945910149055313,-0.0087569992582410185,1.8568062898878015,-0.0020499744983264985,4
1480605900,2.286008173363009,42.338854259216617,-71.088236198693323,65.0,0.03810013622271682,7.6772702871865866e-06,2.9482494697194911e-05,9.7715146992837141e-06,1.0091927481281945e-05,2.3321658947248108e-05,1.945910149055313,-0.0086714902117094837,1.8565631579626287,-0.0020657484332261724,4
1480605930,4.233776849242672,42.338847960528398,-71.088234410094543,65.0,0.07056294748737788,5.7369450365623761e-06,1.9277510263698372e-05,5.3152028043963074e-07,9.5966581939421736e-06,1.373763880752969e-05,1.7917594692280547,-0.0086147557703442883,1.8567700006131398,-0.0021339652791831686,4
1480605960,8.81727710870107,42.338851641772116,-71.08822780148283,65.0,0.14695461847835117,1.1941937885706831e-05,3.2433512198023333e-05,5.3152028043963074e-07,5.4541670560582896e-06,2.5094809323362488e-05,1.945910149055313,-0.0086242710924727545,1.8571737795771686,-0.0021220245633169288,4
1480605990,4.119899314270577,42.338856952717336,-71.088219206782071,65.0,0.06866498857117628,1.5477586692604459e-05,5.5601457113337733e-05,1.3699614199549192e-06,2.1168946222527433e-05,3.1672810290524969e-05,1.945910149055313,-0.008617450192089449,1.8574434353166658,-0.0021752517659569359,4
1480606020,3.808155451242361,42.338857009297826,-71.088223970859516,65.0,0.06346925752070602,1.5672610994686803e-05,5.5601457113337733e-05,8.9564791191618662e-06,1.2787758003309393e-05,2.9523013380624007e-05,1.7917594692280547,-0.0086284230926725897,1.8575022138218535,-0.0022039414446547432,4
1480606050,4.484301088954929,42.338853008395425,-71.08823432845027,65.0,0.07473835148258215,1.4224447924025282e-05,4.9861647489237583e-05,8.9564791191618662e-06,1.4327709691158095e-05,3.3805799294346753e-05,1.945910149055313,-0.0086894814180605434,1.8574291813837271,-0.0022280385816014531,4
1480606080,5.597869588083553,42.338832139539171,-71.088221681408484,65.0,0.09329782646805922,1.0304298874716983e-05,4.9861647489237583e-05,1.8906449920647916e-05,2.4854626580725614e-05,3.9369945403096753e-05,1.945910149055313,-0.0087229056329383835,1.8576030916533439,-0.0022812526310486171,4
1480606110,0.46089508289768866,42.33881816619062,-71.088206769126984,65.0,0.007681584714961478,2.221736514591579e-05,8.0470141153059558e-05,1.3613675032625324e-05,2.011400284848757e-05,3.413970772481947e-05,1.7917594692280547,-0.0087094157821210674,1.85793561319968,-0.0022790294563866486,4
1480606140,3.187999009326815,42.33883113970699,-71.088217313404002,65.0,0.05313331682211358,2.1174713620691417e-05,8.0470141153059558e-05,1.3150142311465608e-05,1.8675168332315924e-05,3.2897061245301975e-05,1.945910149055313,-0.0087285371452392128,1.8580024925907044,-0.0022465313668844759,4
1480606170,3.9785408385828074,42.338847764767301,-71.088226815665948,65.0,0.06630901397638013,3.1022826169456451e-05,0.00011223723768635888,1.3150142311465608e-05,2.2966460713423239e-05,3.2897061245301975e-05,1.945910149055313,-0.008781610558353279,1.8580127734299057,-0.0022380795515327197,4
1480606200,1.603573933911076,42.338858825301095,-71.088233300068808,65.0,0.026726232231851266,3.5018523150766877e-05,0.00011223723768635888,8.3520351800973664e-06,2.0585620856837302e-05,2.3665997469361121e-05,1.7917594692280547,-0.0087967538112085856,1.858491475053925,-0.0021423241212016868,4
1480606230,2.007426587004879,42.338868880643439,-71.088252361520233,65.0,0.03345710978341465,1.2457267631975246e-05,4.2571570795789963e-05,1.1242819807157514e-06,8.4694727248104239e-06,2.1071065946340947e-05,1.945910149055313,-0.0087537870545401578,1.858750493619963,-0.0021571360681449914,4
1480606260,0.0,nan,nan,nan,0.0,1.3163671249055677e-05,4.2571570795789963e-05,1.1242819807157514e-06,7.328507987650266e-06,2.0750059377518743e-05,1.945910149055313,-0.0087323755991130046,1.8584064926918116,-0.0021135616394578256,4
1480606290,9.104499465471557,42.338838346070801,-71.088218582607055,65.0,0.15174165775785928,6.1624734548602495e-06,2.4936415565586862e-05,6.3461101172415148e-06,8.6014235982817475e-06,1.470966326443035e-05,1.7917594692280547,-0.0087337673204648959,1.8581008181925533,-0.0020192254448024483,4
1480606320,3.4365704640937866,42.338808545999356,-71.088199070364311,65.0,0.05727617440156311,1.0513507503739611e-05,4.0363352632289389e-05,5.6088332165531767e-06,1.0872227200295685e-05,1.7258599309671232e-05,1.945910149055313,-0.0086539165486291467,1.8580077475979826,-0.002232095533027357,4
1480606350,5.020632463508827,42.338826995649221,-71.088216246759316,65.0,0.08367720772514711,1.0855725120162102e-05,4.0363352632289389e-05,5.6088332165531767e-06,1.1648686845810469e-05,2.4738908914074368e-05,1.945910149055313,-0.0086067006151862822,1.8578547485954486,-0.0022545373727052343,4
1480606380,0.8643325876611283,42.338857657859414,-71.088242521280932,65.0,0.014405543127685471,7.3374403713855155e-06,2.7381076648974851e-05,5.1502891061917036e-06,1.1692867905999001e-05,2.1208432315993487e-05,1.7917594692280547,-0.0086012109066135514,1.8578404804411648,-0.0021374407951524764,4
1480606410,0.472652302349211,42.338850720804054,-71.088237756125466,65.0,0.00787753837248685,6.5416659508137462e-06,2.6433277875233317e-05,5.1502891061917036e-06,1.5950599012035942e-05,2.1893893187781985e-05,1.945910149055313,-0.008587726117167389,1.8579193862174102,-0.0021859619868583829,4
1480606440,1.23078190705949,42.338846559594941,-71.088233099802252,65.0,0.020513031784324835,7.3501578811306323e-06,3.37762368199459e-05,1.3951631378522006e-05,1.5950599012035942e-05,2.8717635043602308e-05,1.945910149055313,-0.0085749328212099702,1.8579676606608155,-0.002180454488687623,4
1480606470,0.7852289966720356,42.338853192005914,-71.088237008275939,65.0,0.013087149944533926,9.1571191266841291e-06,3.37762368199459e-05,1.0355753999733856e-05,1.2537001699518426e-05,2.8296053753381562e-05,1.7917594692280547,-0.0085562130147333135,1.8579842204728181,-0.0020896841571565136,4
1480606500,0.6750349206181157,42.338862577133789,-71.088246197613628,65.0,0.011250582010301928,1.3103021579389202e-05,4.6304823365768214e-05,3.5226261392634438e-06,9.5061610124641209e-06,1.6540060358147189e-05,1.945910149055313,-0.0085820842140405928,1.8577259896949945,-0.0020801646583530559,4
1480606530,0.5115551602738302,42.338864667626922,-71.088247327851491,65.0,0.00852591933789717,1.3500062849895598e-05,4.6304823365768214e-05,3.5226261392634438e-06,9.2459212181978198e-06,1.9443614232325819e-05,1.945910149055313,-0.0046526491901578617,1.732051202350013,-2.7917219364477393e-05,4
1480606560,1.1414560502334135,42.338860259939047,-71.088242008495826,65.0,0.019024267503890226,6.6523385110493069e-06,2.5985346125969607e-05,7.8931656300685581e-06,1.0594507622849266e-05,2.1167494459797751e-05,1.7917594692280547,0.0022776845338752568,1.5046860298382352,0.0019699147770609383,4
1480606590,0.48754267479610963,42.3388484616613,-71.088228640781409,65.0,0.008125711246601827,1.6473716365291197e-05,5.7265125713220251e-05,7.8931656300685581e-06,1.4202066030098212e-05,3.3047893891094036e-05,1.945910149055313,0.0039618526279954196,1.4446185569255143,0.0011745255115197428,4
1480606620,0.7008799485250095,42.338845728416075,-71.088228124983516,65.0,0.011681332475416825,1.5483141430426765e-05,5.7265125713220251e-05,1.330592711154224e-05,1.6226468493488978e-05,3.2174106706502562e-05,1.945910149055313,0.0039818598185052652,1.4446942768366731,0.0010508633112115747,4
1480606650,1.1839590667217148,42.338854694792943,-71.088243440879339,65.0,0.01973265111202858,5.3096575136168184e-06,2.8408468047030637e-05,1.1002756732252018e-05,1.5580423703937871e-05,1.9065126863896319e-05,1.7917594692280547,0.0040303216812015369,1.4449948233316483,0.00098406326689685496,4
1480606680,1.3616683991128482,42.33884399008565,-71.088230820176278,65.0,0.02269447331854747,2.8115540121677541e-05,9.324739210862077e-05,3.1015352033267101e-06,1.1674505615059998e-05,2.5820707744016466e-05,1.945910149055313,0.004009909198495097,1.4454121688367099,0.0010462826820418325,4
1480606710,1.2541664144409723,42.338847955928053,-71.08822912775176,65.0,0.020902773574016206,2.9201842093413596e-05,9.324739210862077e-05,3.1015352033267101e-06,7.1980911717092097e-06,2.0554764414564877e-05,1.945910149055313,0.0039810661866955888,1.4452470399140314,0.0010932040755970262,4
1480606740,2.4990942049210987,42.338864194831146,-71.088237087231292,65.0,0.041651570082018315,1.2347045454095512e-05,4.0597198505487605e-05,6.5480432236754313e-06,1.0355249686839104e-05,3.0231013166890547e-05,1.7917594692280547,0.004031332430604862,1.4446111771385333,0.0012309229587802121,4
1480606770,3.272013218455957,42.338848762807572,-71.088223379508591,65.0,0.05453355364093262,2.2261281193569523e-05,7.0027306351154906e-05,2.0692678714522587e-06,7.1120102079574032e-06,3.5903058409859921e-05,1.945910149055313,0.0041201822691338914,1.4444215867689416,0.001215769482517903,4
1480606800,2.8913720348212744,42.338841883531607,-71.088214868064185,65.0,0.0481895339136879,2.2620476554907254e-05,7.0027306351154906e-05,1.514644728138061e-06,3.8714954808865231e-06,2.5037210579811344e-05,1.945910149055313,0.0041322899589022631,1.4444323362141416,0.0010929938991030132,4
1480606830,2.1846643206340093,42.338854219103091,-71.08822693616743,65.0,0.03641107201056682,1.103901346757991e-05,3.4541544086719336e-05,1.514644728138061e-06,2.2906580377324301e-05,3.1389663609144314e-05,1.7917594692280547,0.0041992251839473305,1.4444036943258434,0.0012999349701254268,4
1480606860,1.1849617697733292,42.338855105481201,-71.088236122152736,65.0,0.019749362829555486,1.0656230794264846e-05,3.4541544086719336e-05,4.2508944126509303e-06,1.2840566175046346e-05,3.0122140223549061e-05,1.945910149055313,0.0042909802987774045,1.444361251356,0.0015034769066308612,4
1480606890,1.3818000665116428,42.338855586572365,-71.088228451244646,65.0,0.02303000110852738,1.1049102099645914e-05,3.1504481905260788e-05,1.3729306859779671e-06,6.9182351585034848e-06,2.4944870426563695e-05,1.945910149055313,0.0042977867834572431,1.4442104690805129,0.0014892908560910287,4
1480606920,2.6053690951465813,42.338853208613109,-71.08822498778764,65.0,0.04342281825244302,1.3191093012207583e-05,3.9181995620415853e-05,1.3729306859779671e-06,1.1948547245095906e-05,3.1246283793492719e-05,1.7917594692280547,0.0043476873934326053,1.4442186054143917,0.0015097451414782419,4
