TIMESTAMP,DISTANCE,AVG_LAT,AVG_LNG,GPS_ACCURACY,AVG_SPEED_BY_GPS,ACCLERATOR_STD,MAX_ACCLERATOR,MIN_ACCLERATOR,PERCENTILE_25_ACCLERATOR,PERCENTILE_75_ACCLERATOR,ACCLERATOR_ENTROPY,AVG_ROLL,AVG_YAW,AVG_PITCH,WEEK_DAY
1478704980,9.609260972084893,42.331643716937251,-71.109843179649786,19.630206260856287,0.16015434953474822,0.085048031992691273,0.19447940641852735,0.0004690554384721759,0.0023829556994388358,0.12897517715251763,1.6581101035673729,1.150887158872574,-1.3059956158132466,-1.0402842517685797,3
1478705010,2.84565964199973,42.33167316442573,-71.109853493581625,26.093398592636799,0.0474276606999955,0.028196725087025438,0.070561009922567947,2.1347992264297848e-05,0.0025416257447617003,0.047790563924694017,1.7770332013812695,1.5642895768707896,-1.6891456466766201,-1.391709066106579,3
1478705040,24.59009933613485,42.331714983137637,-71.109886149476381,21.311799362562109,0.4098349889355808,0.028823356207883174,0.070561009922567947,2.1347992264297848e-05,0.00087335057272872833,0.047790563924694017,1.7770332013812697,1.2524859517967815,-0.30543273033096802,-1.3495914307735848,3
1478705070,19.842695650107412,42.331667548550605,-71.109940855364414,23.206277145230711,0.33071159416845686,0.010988932872983215,0.02464952598709496,0.00016932506758803682,0.00058842778972492986,0.018746070794207165,1.7480673485460894,1.1856472512554515,0.093775145372978708,-1.3982304523724318,3
1478705100,14.588516875940215,42.331570416262686,-71.110009802105935,19.40285689537814,0.24314194793233693,0.010994176687578114,0.02464952598709496,8.4228121419177237e-06,1.3364376181260969e-05,0.012142694105718277,1.8842428460867393,1.7711651713826266,0.76392836865812996,-1.4442750486021805,3
1478705130,4.48349493465771,42.331528191726967,-71.110044553476484,10.0,0.07472491557762849,8.8597352786169343e-05,0.00026709505822231316,7.9261682246208975e-06,8.4270794031448402e-06,2.8071422184964881e-05,1.945910149055313,2.4853410102081446,1.6418485598910688,-1.4235658196017229,3
1478705160,3.179130834665111,42.331532906547501,-71.11002995220116,10.0,0.052985513911085184,0.00012029093122694659,0.00027262661561304642,7.9261682246208975e-06,1.0599365409498105e-05,0.0002080172672117433,1.7917594692280547,2.4059361518659319,1.0527992091573222,-1.4327936588840755,3
1478705190,1.6618253299653551,42.331543954594373,-71.110016791216196,10.711466370531422,0.027697088832755918,0.054337457481758791,0.15745137524001887,1.0161621443397418e-05,2.2784810126721502e-05,0.01040723964379164,1.8056165767134955,2.2060509170962459,0.32555055864398103,-1.3722566331627779,3
1478705220,0.888328497033107,42.331545079166382,-71.110012790254416,11.348074994126007,0.014805474950551784,0.05435528218908843,0.15745137524001887,6.0865176077321601e-06,1.4884768971754476e-05,0.010294581045233453,1.8056165767134953,2.3984253742296215,-0.35448186821611544,-1.3462341598144003,3
1478705250,34.25366783168796,42.331512709653317,-71.109950273829611,10.636608623594581,0.570894463861466,0.54334825496407146,1.4852997500592919,6.0865176077321601e-06,1.7418743383086728e-05,0.095848077905576812,1.6609474332869181,1.1178370143216718,0.16368378817280549,-1.3249360294293837,3
1478705280,51.99564807199216,42.331389870766863,-71.109745042930456,10.0,0.8665941345332027,0.48555580112868035,1.4852997500592919,0.04033546822313553,0.067356208786159416,0.18657851621998484,1.8891591637540215,0.28217927236386514,0.79728007850548011,-1.2063402125133866,3
1478705310,22.9899531391949,42.331147285217732,-71.10959470092422,10.0,0.38316588565324833,0.19416768810470444,0.60708347154142672,0.04033546822313553,0.074342955645935932,0.31964113880471628,1.9459101490553139,1.3737702286055378,-0.15299064589780167,-1.2225009490334429,3
1478705340,40.070176477826735,42.330916339338138,-71.109495653371425,10.0,0.6678362746304456,0.16408766624899893,0.60708347154142672,0.057589594837804139,0.26090547016751847,0.36940612195858791,1.791759469228055,1.9873460714041589,-0.22921165507419902,-1.22353966817765,3
1478705370,55.63716661890967,42.33080648192422,-71.109258730496379,10.0,0.9272861103151612,0.14976720303206786,0.35984500493083549,0.00097624990210184754,0.011300369153234556,0.30348055130579726,1.8891591637540215,1.5545176849775879,0.55893287564705096,-0.72612014088720611,3
1478705400,15.653795071506629,42.330782444022908,-71.109091937608184,10.0,0.2608965845251105,0.12397097619225597,0.35984500493083549,0.00016964749773640429,0.0013221311959625882,0.015327310877997557,1.7770332013812693,0.55049794097448346,1.6553665620340272,-0.066974862372650448,3
1478705430,267.66765229311784,42.33078597364873,-71.108590353276881,10.0,4.461127538218631,0.014578666628476285,0.039107683526524967,0.00016964749773640429,0.0018695011137968599,0.022473953609531926,1.6609474332869181,-0.33125317798445914,2.0853305782158049,0.38556656638236753,3
1478705460,614.054812213896,42.330839286592926,-71.106563382741598,10.0,10.2342468702316,0.043355414235891218,0.13127737974857406,0.00036445074706593455,0.0022415432873674375,0.032916161513058879,1.8043716191528456,-0.26336596538934698,0.42165811642019141,0.31725628917806559,3
1478705490,527.26179151512,42.330973670639068,-71.10387798965165,10.0,8.787696525251999,0.043412156587818371,0.13127737974857406,0.00036445074706593455,0.0020296707000068211,0.024853362716720839,1.8043716191528456,-0.22705862928837806,-1.3098753150590257,0.29252999215398606,3
1478705520,245.00560276209507,42.331906201590165,-71.102038919526251,10.0,4.083426712701584,0.011361672111777667,0.031143652880414544,2.1191735137159711e-05,0.0011096769244614609,0.016694878234757519,1.6609474332869181,-0.19676853151062279,-2.7051350056442307,0.28573285286244599,3
1478705550,63.35491904993701,42.332830242852062,-71.101330492246063,10.0,1.0559153174989502,0.0038138368313360596,0.011090295279948661,1.230414507562149e-05,2.6739241790577251e-05,0.00074146894919607277,1.8675843750169276,-0.20092378782443629,-2.7040774607795091,0.26896308461472979,3
1478705580,164.76290734829962,42.333276404572963,-71.101067440184863,10.0,2.746048455804994,0.0056801176387969998,0.016390076318764438,1.230414507562149e-05,5.003652918702888e-05,0.00038031938302475899,1.8675843750169276,-0.23640870226388613,-2.7797182700843144,0.30083054132302939,3
1478705610,333.5727565866813,42.334760712499111,-71.100103507350298,10.0,5.559545943111355,0.0082228651659825396,0.02141482569437959,0.00022344169329902155,0.00090660272919603282,0.013815203316938703,1.7347645210257754,-0.26285268801567352,-1.835695263274113,0.31224500552254303,3
1478705640,472.52180715815473,42.336491274454026,-71.097992516654642,10.0,7.875363452635912,0.018868226971691993,0.057064730154988481,0.00054684685537071277,0.0017757493856946677,0.014529319739496241,1.8640435797520258,-0.22402163070954786,1.1929584485591327,0.27668231623534811,3
1478705670,372.59632131655496,42.337344071634426,-71.096166450596513,10.0,6.20993868860925,0.019030395160685856,0.057064730154988481,0.00014509666081487108,0.0010417629641137033,0.0074333979066473687,1.8562701281920884,-0.21050640442167606,2.7346283006684691,0.26742453240175873,3
1478705700,495.7610350910366,42.338132938642374,-71.094337526309403,10.0,8.262683918183944,0.0027907656783460254,0.0072229820286818461,0.00014509666081487108,0.0010641581726186741,0.0062338905622656877,1.7917594692280547,-0.21919565098827309,2.7635685802617735,0.2658585513986777,3
1478705730,414.1243696546378,42.339019658781901,-71.092120686146529,10.0,6.902072827577297,0.0024342486981691466,0.0065708078448221963,2.3730536987943333e-05,0.00052712987662286077,0.004125417578275092,1.8842428460867393,-0.21913978892209804,2.7603804477747684,0.25150126291257668,3
1478705760,216.80186402744604,42.339560501084051,-71.090720232176693,10.0,3.613364400457434,0.0038614278906463732,0.011862555045563508,2.3730536987943333e-05,0.00057183109480238531,0.0042388608130825931,1.8842428460867402,-0.22560860712356159,2.7414549482379664,0.24712916404177032,3
1478705790,441.71277641670014,42.340120746793552,-71.089315258964064,10.0,7.361879606945002,0.0038403957004668442,0.011862555045563508,0.00029090010880371747,0.0023961800028943774,0.0068698090031579645,1.7917594692280547,-0.22552141316261734,2.7301815857490861,0.27511772869320122,3
1478705820,290.924070577195,42.340845974201663,-71.08762985102004,10.0,4.848734509619916,0.0037277596411258635,0.010509943829793991,0.00019468029863239309,0.00043246486386829734,0.0048724635224617046,1.8842428460867393,-0.21173562564928888,2.8821751193201592,0.29970289767705111,3
1478705850,356.45182185559287,42.341683327026992,-71.086226028922098,10.0,5.9408636975932145,0.0033318778609474314,0.010509943829793991,0.00019468029863239309,0.00057078115519716612,0.0033712705991172038,1.8675843750169276,-0.22834065485081467,1.2673000752045704,0.34425497769656949,3
1478705880,536.7094945318801,42.343162280313997,-71.0843492495558,10.0,8.945158242198001,0.0016583014155566104,0.0060174344914793593,0.00056753269146145487,0.0022496079834173769,0.003511033963984684,1.710560083757924,-0.2436014860040899,-0.005552158798839339,0.3824208823870589,3
1478705910,247.33949126107683,42.344680749385013,-71.082449950809661,12.666666666666666,4.12232485435128,0.019110216293082866,0.056189272784292088,2.0367165019903656e-05,9.3800871685522269e-05,0.0045580193241840632,1.8056165767134953,-0.2091133015583293,2.1947603102323581,0.37092242147330545,3
1478705940,61.00888589992938,42.345311570719211,-71.081689853287372,17.0,1.016814764998823,0.019399492969980257,0.056189272784292088,2.0367165019903656e-05,9.3800871685522269e-05,0.0069361807958655168,1.8056165767134955,-0.20228819338255238,3.0044035546760739,0.34185432407661392,3
1478705970,224.3095717787366,42.345788268411859,-71.081133722393844,17.333333333333332,3.7384928629789433,0.0047286291124052455,0.013620912446580827,0.00015343582611004479,0.00038543435602413935,0.0024487558742231335,1.7105600837579242,-0.24536642214881066,1.9371938616507043,0.29827661995191801,3
1478706000,191.93174731478032,42.346482964737675,-71.080277114241454,13.666666666666666,3.198862455246339,0.00098070597618101461,0.0025939874387317821,5.0379671046721901e-06,2.9485861939951244e-05,0.0014002255846715618,1.945910149055313,-0.24656557129230555,1.2775561882584279,0.25202464598205981,3
1478706030,3.8288506128984787,42.346825211814007,-71.079827679387364,13.666666666666666,0.06381417688164132,0.00010525726247875671,0.00032278715471104177,5.0379671046721901e-06,1.6495304851578823e-05,4.1107628869155126e-05,1.945910149055313,-0.2251023281500717,-0.45589038928944298,0.22202856125424572,3
1478706060,2.731824170754913,42.346826376200049,-71.079821641623113,13.333333333333334,0.04553040284591522,1.9025182477799274e-05,5.0370553047174348e-05,7.4441663108228999e-07,1.6371978071404473e-05,4.7426359281453333e-05,1.7917594692280547,-0.23214528727339365,-3.0704278787337174,0.23565268470663905,3
1478706090,9.712602224781644,42.346827961776725,-71.079830129697058,10.333333333333334,0.16187670374636073,0.0012602024018819537,0.0036484971997441935,7.4441663108228999e-07,3.2414944836702588e-05,9.1662322863017047e-05,1.945910149055313,-0.24294918736049897,-3.0342403477428848,0.24613108995620681,3
1478706120,123.55096379690482,42.346632532814844,-71.080129240705702,17.333333333333332,2.0591827299484136,0.0025484477122515803,0.0069270142690150555,2.8655468522950785e-05,8.4564256914657068e-05,0.0041026037557606023,1.8675843750169276,-0.24402030712376019,-1.6787942272045111,0.24057921220440623,3
1478706150,171.59690986143124,42.346228600519105,-71.080743962499383,19.666666666666668,2.8599484976905205,0.0025819182032296517,0.0069270142690150555,2.3719017512891532e-05,0.00050594984668310894,0.0036249256160978626,1.7105600837579242,-0.215515049455557,0.12127677023631246,0.21384208934810775,3
1478706180,50.863329224566115,42.345966775009735,-71.081201164583746,14.333333333333334,0.8477221537427686,0.0042668540303412161,0.012600258088089107,1.9584924687257666e-05,0.00020524942040971684,0.00090917403744835562,1.8675843750169276,-0.18306269529335642,0.079591739867436131,0.20406739357055484,3
1478706210,19.329478513522865,42.345885424448511,-71.081396013098839,14.666666666666666,0.3221579752253811,0.61786904106431118,1.7704313786544805,1.9584924687257666e-05,0.00045775224632963347,0.013322544977580706,1.8562701281920884,-0.062009285752388177,0.083841392603240389,0.04938085122234516,3
1478706240,5.498851189183139,42.345802333943872,-71.081420738316211,12.666666666666666,0.09164751981971898,0.6564883288509924,1.7704313786544805,0.00021058816719369882,0.0037768782448927072,0.01593545120237477,1.7480673485460896,0.41036909227755264,0.25168397220986649,-0.14065255698384641,3
1478706270,44.8576894898739,42.345631494691922,-71.08147900930706,10.0,0.747628158164565,0.0064916591395158896,0.016565657647475591,9.7099812511410827e-05,0.00024574159790364088,0.012568103820993902,1.9036483899019154,0.41056457103463501,-0.58732277543934064,0.13831521671460184,3
1478706300,57.58807517300532,42.345420160370281,-71.081709254599247,10.0,0.959801252883422,0.0039525924414204544,0.011614868670475148,9.7099812511410827e-05,0.00038113074038729713,0.0044834392889500328,1.8842428460867393,0.1573451604436289,-1.0900787852615219,0.39731441693687508,3
1478706330,8.320712359704261,42.34529626187156,-71.081864330983791,10.0,0.13867853932840435,0.0011413791827792185,0.0028762739271327243,9.0657343321970743e-05,0.00020220855097090735,0.002241043016992795,1.7917594692280547,0.22821771131262861,-1.3674714457818855,0.17844969889110476,3
1478706360,6.979713097691608,42.345262280937611,-71.081892489987496,10.0,0.11632855162819347,0.0014115034197991953,0.0039959486271026641,9.0657343321970743e-05,0.0001896634128405466,0.0017778802790719729,1.945910149055313,0.31093338923202279,-2.345071534179842,-0.16303650055978844,3
1478706390,10.80423966331241,42.345223059917203,-71.081928743115697,10.0,0.18007066105520683,0.0012538271178899637,0.0039959486271026641,0.00022291898516572101,0.00031226985648367001,0.0012106244741399432,1.945910149055313,0.31880697339606889,-2.6540432969618251,-0.19640437132522817,3
1478706420,5.709368262170548,42.345169125862746,-71.081959753363464,10.0,0.09515613770284247,0.00049045048387591982,0.0014980613123278467,7.758878831112798e-05,0.00015200466867022256,0.00039783706752697192,1.7917594692280547,0.33398732952961135,-2.6502124151121778,-0.2047688759363985,3
1478706450,6.899672052252055,42.345146830698802,-71.08195225714806,10.0,0.11499453420420092,0.00018748560752541912,0.00059838367338403047,4.0506487613067648e-05,0.00010371084617955388,0.00037225824814933939,1.945910149055313,0.33809139130049998,-2.641285333750492,-0.2027387145521003,3
1478706480,7.485848360558182,42.345128186552181,-71.08194950788382,11.0,0.12476413934263637,0.00025955695147629714,0.00087167265216457743,4.0506487613067648e-05,0.00022765155335642445,0.00051327074180433229,1.945910149055313,0.34461331932932993,-2.6323591899754675,-0.20193098902982717,3
1478706510,13.652755371360053,42.345067553261622,-71.081995288441959,11.0,0.2275459228560009,0.00028624470126853478,0.00087167265216457743,2.7303290881443518e-05,8.1032982856531479e-05,0.00029088849162658677,1.7917594692280547,0.33792814597077658,-2.6188428568083109,-0.19911278076107086,3
1478706540,14.657205434237078,42.344988923326468,-71.08205046371657,10.0,0.24428675723728463,0.00091813121599292882,0.0028141901451375247,2.7303290881443518e-05,0.00012389196811120749,0.00041440624544867769,1.945910149055313,0.31839023317009013,-2.6151749077508453,-0.19115461838599274,3
1478706570,14.53973405846253,42.344936635617501,-71.082113605990145,10.0,0.2423289009743755,0.00089373679058671893,0.0028141901451375247,4.5723258859220635e-05,0.00020450645138472278,0.00055134204924241225,1.945910149055313,0.31831532620599118,-2.6258617283970755,-0.19051876140323623,3
1478706600,1.7564437011445782,42.344927662091656,-71.082156160912547,10.0,0.02927406168574297,0.00017706929340036541,0.00057638906032570728,4.5723258859220635e-05,0.00010569143826858835,0.00014533869921630666,1.7917594692280547,0.32270058129701323,-2.6351038309665595,-0.19254799180770429,3
1478706630,1.7564437011445782,42.344938935751415,-71.082163159801695,10.0,0.02927406168574297,1.7080074367585284e-05,0.00014746664217903894,9.8607288154312165e-05,0.00010822385638425843,0.00013556469470697195,1.945910149055313,0.32272374850899743,-2.6390753827951725,-0.19259775081750369,3
1478706660,0.0,42.344942693638004,-71.082165492764744,10.0,0.0,2.797503822819464e-05,0.000161075340714628,8.3457503036535343e-05,9.3405048858813768e-05,0.0001412245263062692,1.945910149055313,0.32288176873868818,-2.642458550645681,-0.19253530397584026,3
1478706690,0.0,42.344942693638004,-71.082165492764744,10.0,0.0,5.3607517595409069e-05,0.00019764616936113465,6.5563099138687313e-05,8.4643829668230354e-05,0.0001830317975785059,1.7917594692280547,0.32294657772879615,-2.6463487913843373,-0.19259409044851042,3
1478706720,6.200070974895564,42.344920335609785,-71.082188027511421,10.0,0.10333451624825939,0.00013545922460885316,0.00040602019154420887,2.7096343392936807e-05,5.3307863134321608e-05,0.00026156515706511152,1.945910149055313,0.32125918524164365,-2.6548120846801515,-0.19100533520152754,3
1478706750,6.200070974895564,42.344893974524311,-71.082214556234959,10.0,0.10333451624825939,0.00017471382241243173,0.00043857147107704783,2.7096343392936807e-05,6.0599581053598486e-05,0.00040854002407734904,1.945910149055313,0.31992741272761765,-2.6607316939851313,-0.18938299305225617,3
1478706780,0.0,42.344889971467055,-71.08221855021182,10.0,0.0,0.00020724338223039699,0.000607057711809095,2.8944730710121421e-05,0.000109758422310953,0.00043169356746040817,1.7917594692280547,0.31988807571362604,-2.6617221482072035,-0.18897944881199702,3
1478706810,0.0,42.344889971467055,-71.08221855021182,10.0,0.0,0.00018590715943150171,0.000607057711809095,2.8944730710121421e-05,5.9850868420538095e-05,0.00024057841267674231,1.945910149055313,0.31993388931760103,-2.6615031328286416,-0.18896541259254854,3
1478706840,0.0,42.344889971467055,-71.08221855021182,10.0,0.0,0.00012510406502469262,0.00044072112306309686,4.3362620724187358e-05,0.0001038981689779954,0.00023163002297684797,1.945910149055313,0.31991653014233268,-2.6621298973730192,-0.18891650319569747,3
1478706870,4.09836550167001,42.344889227573155,-71.082227488114569,10.0,0.06830609169450017,0.00056653520760383751,0.0017171076125139699,0.00013145722183910196,0.00014859366207499761,0.00038711640964728713,1.7917594692280547,0.31991352313453791,-2.6658119764607062,-0.19596921029322148,3
1478706900,14.899681412582428,42.34486090302687,-71.082284476674232,10.0,0.24832802354304045,0.0005255771881197838,0.0017171076125139699,0.00013493495903212045,0.000182864417663177,0.00029186689910077316,1.945910149055313,0.31866589653972105,-2.6718823464663535,-0.19889765989067798,3
1478706930,10.83822413706673,42.344827343982047,-71.082341588168475,10.0,0.18063706895111217,0.0001312238828205464,0.00038110502665990667,2.1421688384495078e-05,8.0752193566727888e-05,0.00029186689910077316,1.945910149055313,0.31895211586483846,-2.6731606516039599,-0.19682302822838388,3
1478706960,10.647444630703045,42.344791771883479,-71.082377025458101,10.0,0.17745741051171743,0.010025027478017475,0.027194344328542855,2.1421688384495078e-05,0.00011520332774097817,0.00061622584954920581,1.710560083757924,0.32000081787297646,-2.6700868952816816,-0.19565477668326978,3
1478706990,16.794689034013217,42.344746529862618,-71.082428744594637,10.0,0.2799114839002203,0.0095836646938595449,0.027194344328542855,1.2579064310553176e-05,0.00029614162614771764,0.0062352594122262184,1.8056165767134955,0.30658999543518167,-2.6712885203332384,-0.18558570035473756,3
1478707020,13.431437541368421,42.344747790640554,-71.082493897127989,10.0,0.22385729235614035,0.0039687232350507241,0.01177734271435471,1.2579064310553176e-05,0.00029614162614771764,0.0019655370383160412,1.8675843750169276,0.29791461393570812,-2.6732029778231206,-0.18083429479191632,3
1478707050,6.775829376974516,42.344767300218678,-71.08254732896674,10.0,0.11293048961624194,0.0010715945940921452,0.0033045909105604335,0.00030523984238630991,0.00036989953996012883,0.00059203477996753258,1.7917594692280547,0.308537758732293,-2.6703263818464325,-0.18694405893299107,3
1478707080,3.163931786009236,42.344767586600369,-71.082566139354441,10.0,0.05273219643348727,0.00037745006328827755,0.0012360057476955484,2.4803363755517836e-06,0.00017885257367603809,0.00041591651037006273,1.945910149055313,0.32364786468620849,-2.6728163586000346,-0.19393282119211078,3
1478707110,9.77927445286301,42.3447618533786,-71.082610026999447,10.0,0.16298790754771683,0.00038996299481603249,0.0012360057476955484,2.4803363755517836e-06,9.6126191856175458e-05,0.00035101606986122824,1.945910149055313,0.32485969899657791,-2.6789045121723105,-0.1944681192000986,3
1478707140,0.24880385194202093,42.344758383969179,-71.082648759774003,10.0,0.004146730865700349,0.00013228973491602718,0.00041571277798473267,3.1678792411397936e-05,0.0001409477832713119,0.00033525245720802461,1.7917594692280547,0.32076713629329273,-2.6821129713181802,-0.19320871018305616,3
1478707170,0.0,42.34475833367776,-71.082648793301615,10.0,0.0,0.00018275843237669016,0.00056306673559158513,3.1678792411397936e-05,0.00017623309175559824,0.00044972795834945218,1.945910149055313,0.32086414599616486,-2.6837782095064244,-0.1931578315464306,3
1478707200,3.2473253476745096,42.34474113331396,-71.082648445452634,10.0,0.054122089127908495,0.0026999887996861233,0.0081403932480326631,0.00010578703141569918,0.00036674721157334094,0.00065997916246244106,1.8675843750169276,0.27441280150340602,-2.664059025591524,-0.1890478928854282,3
1478707230,4.037072543589959,42.344690801382399,-71.082644001646969,10.0,0.06728454239316599,0.0028778695350306417,0.0081403932480326631,0.00024482947810351821,0.00033733658098102862,0.00068443722517110808,1.7105600837579242,0.21188914402530523,-2.5946147457171294,-0.19389971731240696,3
1478707260,0.9988906248475193,42.344653330782762,-71.082640451910976,10.0,0.016648177080791988,0.00025809123555361243,0.00088285678486338935,2.8697536095538472e-05,0.00025560473069988107,0.00054186401535601656,1.945910149055313,0.21319434258555861,-2.540061013625766,-0.20438932820038741,3
1478707290,0.0,42.344648991750887,-71.082640998131666,10.0,0.0,0.00027730738094344483,0.00088285678486338935,2.8697536095538472e-05,0.00017658270780021828,0.00054105214713268644,1.945910149055313,0.21488322003617596,-2.5306820624714326,-0.20447768951878675,3
1478707320,0.0,42.344648991750887,-71.082640998131666,10.0,0.0,0.00076566909684372994,0.0022643078453234919,8.678543230419261e-05,0.00021972877822777436,0.0010318147789936181,1.7917594692280547,0.21586414802587253,-2.531729577424819,-0.20404769953806315,3
1478707350,8.518968134691603,42.344635127384549,-71.082655470884475,10.0,0.14198280224486004,0.00085188424661083073,0.0022643078453234919,2.0281972817310944e-05,6.2793252636983782e-05,0.0014194718240418569,1.945910149055313,0.19972867268147723,-2.5663025654907017,-0.19979570990654996,3
1478707380,13.38048605135572,42.344600891501045,-71.082696642792854,10.0,0.22300810085592865,0.0010610321640532991,0.003150113243750482,2.0281972817310944e-05,6.2793252636983782e-05,0.0014664846003823056,1.945910149055313,0.19038719321254058,-2.6206130728506318,-0.20005503453235968,3
1478707410,3.7934926842248045,42.34457705127295,-71.082738940670225,10.0,0.06322487807041341,0.0010979603428473588,0.003150113243750482,2.0907076443822336e-05,9.029645723828813e-05,0.0011767134541832106,1.7917594692280547,0.19997659638456944,-2.6935621372890695,-0.20508713968975445,3
1478707440,15.146585653146595,42.344531638121559,-71.082801767225448,10.0,0.25244309421910993,0.0011044232026309361,0.0033077811399666208,2.0907076443822336e-05,4.6965802715686275e-05,0.00040449774747250574,1.945910149055313,0.20444342300289881,-2.7644880065480657,-0.20401015616293058,3
1478707470,16.013787376168114,42.344474027205592,-71.082868688340369,10.0,0.26689645626946856,0.0010304787119615076,0.0033077811399666208,3.9365523607448022e-05,0.00032145265881031095,0.00088039427620910924,1.945910149055313,0.20650369670042298,-2.8161447049650632,-0.20338281197059185,3
1478707500,1.3669542185284935,42.344441253964192,-71.082889035410318,10.0,0.022782570308808224,0.00031277628786028559,0.0010807922636773583,0.00011790887785558977,0.0003368652577133706,0.00059920990785070571,1.7917594692280547,0.21056705944795984,-2.8482660204138397,-0.20101533738413155,3
1478707530,28.326047688209275,42.344398339318445,-71.082932618512842,10.0,0.47210079480348793,0.0073042891579934901,0.021053188603123774,2.6819711493813019e-05,0.00010501614686334504,0.00033875188446735936,1.8675843750169276,0.21509695817847382,-2.8397639753657962,-0.20084052371668798,3
1478707560,28.326047688209275,42.344315505160353,-71.08305708977494,10.0,0.47210079480348793,0.0073097280386916763,0.021053188603123774,2.6819711493813019e-05,0.00011358523476377543,0.00029674508977781252,1.8675843750169276,0.21410125866415566,-2.8296295712024504,-0.20132238778521838,3
1478707590,7.460758155378773,42.3442520925704,-71.083152826475981,10.0,0.12434596925631289,0.00013610353615454854,0.0004346399110880814,0.00011958793093208402,0.00013790878973903297,0.00035035111846730936,1.7917594692280547,0.20811320898593985,-2.8274702423874132,-0.19864623092447989,3
1478707620,37.578393640391724,42.344200562026678,-71.08323215420458,10.0,0.6263065606731953,0.0039564464584610935,0.011522114365552297,0.00011958793093208402,0.00022481171356323907,0.0026831829417718164,1.8675843750169276,0.22393147277602635,-2.8359564890462852,-0.20857277179787639,3
1478707650,69.07416766343974,42.34405177206952,-71.083453745181743,10.0,1.1512361277239955,0.0038334304160641958,0.011522114365552297,0.0001279276618101624,0.00050362947605418437,0.0047101024543762856,1.8675843750169279,0.22515701566426347,-2.856485011038032,-0.21032529941532746,3
1478707680,42.07467525068883,42.343886415979227,-71.083726488119993,10.0,0.7012445875114804,0.0020523212740304556,0.0047579685481776096,0.0001279276618101624,0.00016264652501742807,0.00366734639727804,1.7917594692280547,0.2011292597330783,-2.8975666218384735,-0.19740985235029807,3
1478707710,6.56344662412417,42.343819493467322,-71.08385235915992,10.0,0.10939077706873616,0.0015362127308115154,0.0045715762253446118,6.0801162154148374e-05,0.00010689199758653889,0.00057712470416059825,1.945910149055313,0.19798893999501982,-2.9270290804649974,-0.19617418171699003,3
1478707740,2.635877122926682,42.343805814899838,-71.083869930422935,10.0,0.043931285382111364,0.00032139490526052856,0.0009773495897906694,6.0801162154148374e-05,8.5411442521171073e-05,0.00031456191478434586,1.945910149055313,0.1982570827620847,-2.9350598617967516,-0.19966841934989507,3
1478707770,5.10668924355446,42.343792343784457,-71.083883644613508,10.0,0.08511148739257433,0.00015199920850619565,0.00051296528348148275,7.3197435956473338e-05,0.00014232634829039985,0.00035897943312282433,1.7917594692280547,0.19062251329488447,-2.9193518576193438,-0.19785449171060629,3
1478707800,24.18025417389912,42.343763892112626,-71.08391836804438,10.0,0.403004236231652,0.015290210811469215,0.043930202275047528,0.00012364652320763871,0.00017107149460498521,0.00034190432880761284,1.8675843750169276,0.22583001438413022,-2.82769467335152,-0.21399177563078728,3
1478707830,34.46822100432667,42.343632725805378,-71.084077378335479,10.0,0.5744703500721112,0.015093452551909184,0.043930202275047528,9.8431717719870142e-05,0.00014518857924891208,0.0043130061100077862,1.8056165767134955,0.22463848116653778,-2.7697801139355454,-0.20989867713935179,3
1478707860,14.685664720319163,42.343518127726725,-71.084215604300681,10.0,0.24476107867198607,0.0029139057142972069,0.00822755817459081,9.8431717719870142e-05,0.000233930647747937,0.0015816208254630722,1.7105600837579242,0.20756897370797991,-2.7640042524518988,-0.1969495028022028,3
1478707890,8.014235858123758,42.343502768587655,-71.084230687535438,10.0,0.13357059763539597,0.00083191300982223947,0.0020320542357543589,2.8383246909562805e-05,0.000153241118410407,0.0011386860316587306,1.945910149055313,0.22148278644008129,-2.7590825848440157,-0.20612543824070648,3
1478707920,39.767128520308525,42.343367497941806,-71.084380810215208,10.0,0.6627854753384754,0.0056743245472987199,0.016550695880020415,2.8383246909562805e-05,0.00010970518534873414,0.0011275481398533107,1.8675843750169279,0.20836689504142195,-2.7818431561640966,-0.20539194843444153,3
1478707950,31.361272876417363,42.343214115400201,-71.084550596839819,10.0,0.5226878812736228,0.0060359961500941108,0.016550695880020415,0.00012438156048225275,0.00019565523636379541,0.00068622973076117217,1.7105600837579242,0.20473819294600062,-2.812564052325834,-0.20609156684405081,3
1478707980,0.0,42.343187523113897,-71.08457713394526,10.0,0.0,0.00023314499950956787,0.00074872677856646034,6.9393121203442415e-05,0.00012504757916865771,0.00039129547160665656,1.945910149055313,0.21093764420491845,-2.813113704984834,-0.20580072053392179,3
1478708010,31.994172901942495,42.343115642007767,-71.084654334067437,10.0,0.533236215032375,0.001226059234266627,0.0036785690720096687,6.9393121203442415e-05,0.00012504757916865771,0.00078369595425555267,1.945910149055313,0.21739299778328108,-2.8088642130653612,-0.20159739067762419,3
1478708040,31.994172901942495,42.342980211407273,-71.08479129436526,10.0,0.533236215032375,0.0012305237788295721,0.0036785690720096687,5.2347334453814923e-05,0.00037185718921854363,0.0010379408506848082,1.7917594692280547,0.22385923482222359,-2.7929399998661339,-0.18917073622164596,3
1478708070,2.117227696475384,42.342906964050933,-71.084848384904745,10.0,0.03528712827458973,0.00018763608033564084,0.00054131933253898188,2.5930068793365821e-05,5.0293522077996538e-05,0.00027669913202853501,1.945910149055313,0.22163620874045595,-2.7846096703632699,-0.18233032206467617,3
1478708100,21.851798340605878,42.342869686933568,-71.084855515110377,10.0,0.36419663901009797,0.0023196776133002062,0.0067840525763709254,2.5930068793365821e-05,6.0170376065198467e-05,0.0003819422374318001,1.8675843750169276,0.22428105292701761,-2.7777499990124395,-0.19181564341404481,3
1478708130,176.11292458793295,42.342549494739956,-71.085273358571413,10.0,2.9352154097988827,0.0024711625914571223,0.0067840525763709254,0.00014477686336018342,0.0012252389531680859,0.0053932919671018193,1.7480673485460896,0.19458605362554648,-1.8321513632974318,-0.18494422889110237,3
1478708160,211.18247569051917,42.341927653916514,-71.086069635181786,10.0,3.5197079281753196,0.0019384480714375167,0.0059742454925654567,3.578043946650942e-05,0.001302355769734509,0.0040469676092682065,1.8675843750169276,0.16247526745870716,0.49052739367422715,-0.1925765841594928,3
1478708190,454.76288138607623,42.341061346505164,-71.087595694764616,10.0,7.579381356434604,0.008681814551393335,0.027176529717707391,3.578043946650942e-05,0.001302355769734509,0.0069726998398683421,1.8562701281920881,0.13429749107226086,2.0628503749088636,-0.19803163988002018,3
1478708220,461.67418517464665,42.340372641843139,-71.089746032907726,10.0,7.694569752910778,0.10370156326324965,0.25117604509534824,0.0017546745068985946,0.0068939057614545657,0.16078911322398928,1.7328679513998633,0.086208763247076936,2.2720508906478143,-0.21405083417937673,3
1478708250,130.95630542273696,42.341252026420413,-71.090611025757255,10.0,2.1826050903789493,0.099967825709545252,0.25117604509534824,0.0010807783996524523,0.0016390145799359674,0.12958086725590054,1.7770332013812695,0.1631960494263319,0.91171624097282133,-0.23029696602601699,3
1478708280,501.4311113673491,42.342604419255956,-71.089203639953496,10.0,8.357185189455818,0.021053112710535091,0.053835093452384485,0.0010807783996524523,0.0019812888084577741,0.037219227980708716,1.8640435797520258,0.1946907269032383,-0.27075731935339431,-0.19602653328697145,3
1478708310,355.4576777806445,42.342746120218521,-71.087307723305287,10.0,5.924294629677408,0.017845076593088795,0.049140720797194393,5.5221453421021099e-05,0.0004721636671646381,0.021795303606395006,1.6609474332869181,0.17260131225691602,-1.8438855314656717,-0.13912094490430885,3
1478708340,71.93350181852836,42.342436920890911,-71.086827589730831,10.0,1.1988916969754726,0.0086527930292820011,0.021175487265994084,5.5221453421021099e-05,0.0002196748262263612,0.01076031866211043,1.8842428460867393,0.19982655485536313,-2.8154552752127677,-0.15352434642759222,3
1478708370,351.864147861013,42.342320076462208,-71.087688152744533,10.0,5.864402464350217,0.0090565444349990261,0.021175487265994084,6.1120357938299942e-05,0.0010831941220513011,0.018505753424318139,1.9361470098309512,0.18806716357078382,-0.64521260119246959,-0.18660235696098229,3
1478708400,386.1596584817577,42.342276619088231,-71.089394192743214,10.0,6.4359943080292945,0.035580927181568037,0.099684029117067335,6.1120357938299942e-05,0.001578332964891605,0.036146763714596686,1.6609474332869181,0.13982694147579158,0.76860341974693347,-0.1776382569611156,3
1478708430,118.4430178909628,42.341828355605116,-71.090660241498711,10.0,1.9740502981827135,0.037723814438545084,0.099684029117067335,0.00017729213581897007,0.00045708000210454029,0.055498901473323869,1.7770332013812697,0.12795532220932518,-1.7790076468752047,-0.17829863646320962,3
1478708460,13.612251251994685,42.341436449943437,-71.090947269993933,10.0,0.22687085419991143,0.039554911284681901,0.11242624287124155,0.00017729213581897007,0.00045708000210454029,0.060121497032979372,1.8043716191528456,0.6482119886427482,-2.0158507286312051,-0.0053643295865836993,3
1478708490,8.374234963466,42.341426772337734,-71.090924256081792,10.0,0.13957058272443332,0.039055484068984708,0.11242624287124155,0.00023949644170211982,0.0035827760271709939,0.046628781077998033,1.7328679513998633,0.85761058409602542,-0.182731881433425,0.0071315296359430918,3
1478708520,12.949594078061113,42.34133421796593,-71.090894350848259,10.0,0.2158265679676852,0.13104395706662339,0.35875400336987667,0.00023949644170211982,0.0066123224117668562,0.16035697190569154,1.8937882323911379,1.031077856860233,-0.59868141259252583,-0.0035887360730874501,3
1478708550,26.128459244151657,42.341091819612636,-71.090969894147577,10.0,0.43547432073586095,0.10977736095873403,0.35875400336987667,0.012829007870900494,0.075344862747761976,0.17869295982581923,1.8891591637540215,1.5387220887559874,-1.6675407745712938,0.17113890428419154,3
1478708580,25.368140501307657,42.340760934904544,-71.090989481258305,10.0,0.4228023416884609,0.25487873553371193,0.76061134109034345,0.011377939873629894,0.070636817135754412,0.13708005232471246,1.791759469228055,1.5811750602698149,-1.3379081862687674,0.16542196832454364,3
1478708610,39.54042487216461,42.340459452515795,-71.090863002530398,10.0,0.6590070812027434,0.37000758026063291,1.0499647801263485,0.011377939873629894,0.085153466942995595,0.58088282066322139,1.9459101490553139,1.5485059616589829,-1.299250965895872,0.17974465681062018,3
1478708640,53.81652371216441,42.340198032830237,-71.090684772535326,10.0,0.8969420618694068,0.32263503256492126,1.0499647801263485,0.028537051714657598,0.12508536054620145,0.30271480009014307,1.8891591637540215,1.4923653449403671,-1.0452669035053794,0.18247275448156183,3
1478708670,53.47235170306702,42.340040556427418,-71.090471718526544,10.0,0.8912058617177837,0.077955151696915928,0.20427529994418681,0.0014498635066106992,0.068972690236654963,0.19726217691692371,1.7328679513998633,1.484782276804465,-0.50013900851175086,0.099131273408765333,3
1478708700,74.21795142333296,42.340062162878318,-71.090179405241372,10.0,1.2369658570555493,0.069694977980788955,0.18986531852513117,0.0014498635066106992,0.046781319643935559,0.16387272223853064,1.9459101490553139,1.5784952338844345,-0.32547201795038799,0.094872682995097615,3
1478708730,98.59229061267119,42.340184713986098,-71.089757717280747,10.0,1.64320484354452,0.12546787525294595,0.42995383293448075,0.027727586983990804,0.065536444170107538,0.16387272223853064,1.8891591637540215,1.614830257718467,-0.34758564250721691,0.12090641431759884,3
1478708760,73.96600327035955,42.340334193354792,-71.089338402795704,10.0,1.2327667211726592,0.14708528823495678,0.42995383293448075,0.0018707541654661287,0.024034295034784221,0.092513037665346201,1.791759469228055,1.5734242847642008,-0.60574900457043046,0.11085817218035247,3
1478708790,57.74883742399957,42.340447249163269,-71.089079358681204,10.0,0.9624806237333261,0.14650615143909698,0.44837405456235224,9.8625685175429182e-05,0.012336975941924077,0.091343139201877588,1.8891591637540217,1.5283457703178163,-0.80889303673007606,0.087392556065552948,3
1478708820,68.45908630516792,42.340546447590313,-71.088791792347195,16.5,1.1409847717527986,0.23149649345950563,0.6991685031925734,9.8625685175429182e-05,0.078348388794431997,0.35918911006975929,1.9459101490553139,1.5165164744726518,-0.8797583547740867,0.075964661495721189,3
1478708850,71.35199087874796,42.340699883915811,-71.088479594393732,24.021609447668826,1.1891998479791326,0.19949035905561208,0.6991685031925734,0.11087216325792192,0.15028990023730934,0.31571783534655795,1.791759469228055,1.5136971746963124,-0.99786355655593273,0.073839441230485206,3
1478708880,104.32947167133646,42.340856216188847,-71.088093374456378,28.27025970705434,1.7388245278556078,0.13167752655861534,0.45776307304558511,0.049425067174291529,0.13485876319299261,0.30809345115065823,1.8891591637540217,1.5141522512051064,-1.1558623871069784,0.078550404730444501,3
1478708910,112.20674920061268,42.340928782515554,-71.087587956871005,41.17122692657977,1.870112486676878,0.14502551487336801,0.45776307304558511,0.0016764589500459811,0.066099616612260159,0.24191197228432029,1.9459101490553139,1.5848051417006006,-1.3203499074041003,0.11970444144668324,3
1478708940,99.31995781016789,42.341139139646991,-71.087106475207122,37.922576667194257,1.6553326301694649,0.15535157744702269,0.44811278322443854,0.0016764589500459811,0.11172881642192473,0.34839710212838354,1.791759469228055,1.6015907429532437,-1.3596474584961429,0.18511742804985656,3
1478708970,85.82250873524342,42.341479312202289,-71.086688637334021,25.0,1.4303751455873903,0.10912843240390353,0.44811278322443854,0.094886301960076552,0.21913063221400766,0.33928436117428884,1.9459101490553139,1.5755287434915157,-1.2191808399966075,0.21506797157586385,3
1478709000,76.59037244409242,42.341771501854396,-71.086333061634662,19.0,1.2765062074015403,0.15895857483357681,0.53805461527530429,0.061672641748651988,0.13416012182507914,0.35943501632762176,1.9459101490553139,1.6154478562251222,-1.2457749469011821,0.2092513385763029,3
1478709030,15.039098652834756,42.341911469858466,-71.086119880500348,14.25,0.2506516442139126,0.18072866208415742,0.53805461527530429,0.061672641748651988,0.098353737731445318,0.34624727199239091,1.791759469228055,1.5667718408938045,0.18952300813713063,0.1471938155119451,3
1478709060,55.03378427353451,42.341781067701383,-71.08621276316336,20.25,0.9172297378922418,0.041698576700146511,0.14489962641170778,0.023458759609410948,0.042108283841995206,0.10423149677639244,1.9459101490553139,1.5065233514583414,1.3904859449798133,0.08282994323299557,3
1478709090,60.84885208443435,42.34171177660334,-71.086483201078238,25.787924667097567,1.0141475347405724,0.079550186962904793,0.25915456388430985,0.0036298672376149773,0.025248258409689299,0.070450320388452364,1.8891591637540215,1.5176170450246562,0.084228280956424914,0.03010969518827129,3
1478709120,52.88874774967328,42.34177123922143,-71.086767329434963,26.584401787865378,0.8814791291612213,0.093729823915311858,0.25915456388430985,0.00056389835852491165,0.0037017364373818605,0.054587125374893089,1.6581101035673729,1.3903105287003619,-1.2852359992388294,-0.0084982169855955265,3
1478709150,22.622714081548082,42.341756135031908,-71.086930573984148,25.796477120767815,0.37704523469246803,0.0017388179237390544,0.0042047435235387535,2.0558978538923507e-05,0.00012193548367857982,0.0022406211976037111,1.945910149055313,0.950430684943951,-1.6147851752199727,0.050976909740286964,3
1478709180,3.868074721858695,42.341744461136265,-71.086955426327052,25.0,0.06446791203097825,0.0002902732063923242,0.00093681668352211991,2.0558978538923507e-05,8.3431390980247697e-05,0.00030411724672288877,1.945910149055313,0.79463201619115242,-1.896419104150072,0.092999798899811165,3
1478709210,2.4228623122498,42.341775035525067,-71.086950645848276,25.0,0.040381038537496666,0.00028711550690950613,0.00093681668352211991,0.0001031054790750447,0.00012789847426446769,0.00033565615427515503,1.7917594692280547,0.88735738237382533,-1.8402176777071826,0.077921738135190474,3
1478709240,13.22925554616819,42.341789242152451,-71.086934025931271,25.522831593105664,0.2204875924361365,0.00011945307772971627,0.0003586096341025287,2.9699917715665784e-05,9.4403786353937556e-05,0.00026821433980248554,1.945910149055313,0.88366776990029983,-1.7629744769563935,0.05053190755477871,3
1478709270,2.662695308098812,42.341790442161596,-71.086924692682089,27.413791549502413,0.0443782551349802,0.00026820147101419453,0.00084893468012232172,2.9699917715665784e-05,7.9797034780811201e-05,0.0002541742946898639,1.945910149055313,0.8812970599896397,-1.7165009791102122,0.051804225025555983,3
1478709300,3.132133330953162,42.341784019528291,-71.086920053298684,26.890959956396749,0.052202222182552695,0.0010806553748764481,0.0029940441188452136,7.3891975928791977e-05,0.00011797245582691051,0.0015555421484910277,1.7917594692280547,0.87040017044045259,-1.6544187544161879,0.043345237856034745,3
1478709330,6.106800693169146,42.341780403435564,-71.086902097865106,25.0,0.1017800115528191,0.0010816516323526007,0.0029940441188452136,5.4362159931570665e-05,8.3318451758549288e-05,0.00098224664161603828,1.945910149055313,0.80876312895078428,-1.5628937701927783,0.050001592232483162,3
1478709360,9.793985397780325,42.341786252606994,-71.086903774245741,25.0,0.16323308996300542,4.1352410009970894e-05,0.00017341531195148014,5.4362159931570665e-05,8.3069893445507817e-05,0.00014772060555541004,1.945910149055313,0.7607356698592217,-1.4859809676878317,0.067180992062463279,3
1478709390,6.29540299064614,42.341819069154887,-71.086884582481446,39.181519272452576,0.10492338317743567,7.7829209853120805e-05,0.00032532381065436707,8.906282094820538e-05,0.00011373849157077593,0.00015085645215554824,1.7917594692280547,0.75572826584026587,-1.4172511330233064,0.088656923036698587,3
1478709420,12.578865570841261,42.341828028012394,-71.086926764409156,39.181519272452576,0.209647759514021,0.00021370696503707733,0.00078165483471140157,0.00010901478135446832,0.00015547237860719999,0.00030831444005385139,1.945910149055313,0.75650793147713846,-1.3682938641801314,0.078756343839249676,3
1478709450,9.000344383496728,42.341769819187334,-71.087014570432814,25.0,0.15000573972494546,0.00037272035325740699,0.0011595283356599468,3.475378355752931e-05,0.00019698786375296965,0.00053647995208236864,1.945910149055313,0.75675639076302248,-1.3310443291936485,0.062204088363064076,3
1478709480,0.0,42.341734394470564,-71.087032612479391,25.0,0.0,0.00066754667201323432,0.0018682894597683297,3.475378355752931e-05,0.00015994648977240216,0.0011390843521414129,1.7917594692280547,0.76522422594299833,-1.2673334216975634,0.056432546670435492,3
1478709510,0.0,42.341734394470564,-71.087032612479391,25.0,0.0,0.0006650147671591832,0.0018682894597683297,1.3430672805797239e-05,8.4106182476284595e-05,0.0010405556007709797,1.945910149055313,0.75105466794740205,-1.2030382372738859,0.062355197482533549,3
1478709540,4.425559905788326,42.341722454449489,-71.087040582272323,25.0,0.07375933176313877,0.0025506324728369121,0.0075895822271104287,1.3430672805797239e-05,8.4106182476284595e-05,0.0015654182276414717,1.8675843750169279,0.69395303934699726,-1.1305619599994381,0.030023625323666418,3
1478709570,3.664120490267388,42.341725555753662,-71.08702788089505,25.0,0.0610686748377898,0.0024743348802805142,0.0075895822271104287,0.00021501169185174574,0.00079188317659482075,0.0020710631533804058,1.7105600837579242,0.64954698348120388,-1.027342160017449,0.032869283541489373,3
1478709600,6.330148619590453,42.341741162857367,-71.087003482571902,25.0,0.10550247699317422,0.00061659317232560032,0.0019018196475412369,8.6465868593377284e-05,0.00011033758178401355,0.00085029585389122947,1.945910149055313,0.66806702960079634,-0.95611389442956274,0.083526090538429867,3
1478709630,0.0,42.341741728635824,-71.086999755418958,25.0,0.0,8.2642352214062453e-05,0.00033356524978967009,6.8958790925356119e-05,9.7574628590715826e-05,0.00015974202563065067,1.945910149055313,0.65357246633397748,-0.90434108879759789,0.081484117081711965,3
1478709660,0.0,42.341741728635824,-71.086999755418958,25.0,0.0,0.0065016130430724283,0.016923260567198638,8.1198276803807025e-06,8.8982690981361074e-05,0.0069229368412716784,1.6581101035673729,1.0961115676625284,-0.3510017085705544,0.11192199933148921,3
1478709690,5.9872401061712495,42.341763259649603,-71.087015801175596,25.0,0.09978733510285416,0.012315001755213969,0.035891880426510633,8.1198276803807025e-06,0.00040510104937313822,0.013048516567761783,1.7770332013812697,-0.33227257872499499,-0.32268311008706341,-0.036693775794591717,3
1478709720,6.872690324150509,42.341842706121831,-71.087031933545234,25.0,0.11454483873584181,0.012363378537301257,0.035891880426510633,0.00014039567765153105,0.00027783315339865837,0.0012665635077769737,1.8675843750169276,-1.8003386846326042,-0.69558380469632997,-0.15793860959676387,3
1478709750,3.4893515926456398,42.341898819471112,-71.087035139623197,25.0,0.05815585987742733,0.00011914953454376585,0.00040864644025941365,5.4567947452747274e-05,7.9792134576868391e-05,0.00016608213474138186,1.7917594692280547,-1.8685818031216748,-0.70328084471388541,-0.13816458171275844,3
1478709780,2.7009443025925743,42.34189188065227,-71.087047494548472,25.0,0.04501573837654291,0.00043500060270175315,0.0013474324086675846,4.3833158543631686e-05,6.5027025741014544e-05,0.00040858684779747259,1.945910149055313,-1.8912175787464898,-0.70924216074058788,-0.13240057250252393,3
1478709810,0.5429426379880778,42.341893806394523,-71.087060003141971,25.0,0.009049043966467964,0.00045270037991256592,0.0013474324086675846,4.3833158543631686e-05,0.00027989131623471555,0.00077675184303276751,1.945910149055313,-1.9290939340704256,-0.71660762751961271,-0.1358943710090352,3
1478709840,2.6770138612612286,42.341889064332797,-71.087060380327614,25.0,0.044616897687687146,0.00037645210577096739,0.0011310105405162481,0.00016382029033079184,0.00028886455926035559,0.0008803804228229411,1.7917594692280547,-1.8932979191507651,-0.71766655822441272,-0.11261568144251403,3
1478709870,6.199058143226767,42.341816307317792,-71.087065740554692,25.0,0.10331763572044612,0.00030311130718684698,0.0010330095152474926,9.0483742773865466e-05,0.00014377871665250457,0.0003164341378817957,1.945910149055313,-2.0247829121009029,-0.75399145985972071,-0.11508553896334708,3
1478709900,4.073477631281217,42.341767127199425,-71.087055288321437,25.0,0.06789129385468695,4.9137221358496136e-05,0.00021897566594407573,9.0483742773865466e-05,9.5817656090601601e-05,0.00018530836020450963,1.945910149055313,-2.1575898438910852,-0.77517193916318561,-0.11288303090459871,3
1478709930,8.537480403025477,42.341796071308067,-71.087029330964299,25.0,0.1422913400504246,0.00011202499179996142,0.00039180238212459213,9.10420658935313e-05,0.00013370087118342433,0.00030429377359545486,1.7917594692280547,-2.2951472100080408,-0.77065008197058038,-0.084572079400169975,3
1478709960,3.6095998562106346,42.341854704117736,-71.087022318105312,25.0,0.060159997603510575,0.00012920531438983057,0.00039180238212459213,8.1719638196894103e-05,0.00010916826368970726,0.00036787593527160488,1.945910149055313,-2.4740727956628623,-0.78125444757431839,-0.076286907228006226,3
1478709990,2.2470408453000372,42.34187890057671,-71.087021108317288,25.166666666666668,0.03745068075500062,9.8457349811986164e-05,0.00039124435021316393,8.1719638196894103e-05,0.00010889961787693072,0.00020784409432324206,1.945910149055313,-2.5274522928321406,-0.78377989650837565,-0.063451086171933166,3
1478710020,12.550923819714557,42.3418029584385,-71.08700376755661,25.648985031401359,0.20918206366190928,5.4560601787504837e-05,0.00024722087443739368,7.7523046423508453e-05,0.00012799423217807322,0.00019325673722811755,1.7917594692280547,-2.5994649751202279,-0.79154733845388658,-0.057104839397367928,3
1478710050,6.106897249507213,42.341745028311713,-71.087012326876732,25.482318364734692,0.10178162082512023,0.00043202335743210358,0.0013929073303691098,7.7523046423508453e-05,0.00013367309945134113,0.00035736127209029484,1.945910149055313,-2.6458706240555543,-0.8072005545910127,-0.06354999625685169,3
1478710080,7.56548032589861,42.34176313531804,-71.087018236118467,25.0,0.12609133876497683,0.00042060166787241134,0.0013929073303691098,0.00010096941607495929,0.00014730039914563574,0.00037380227050971631,1.945910149055313,-2.6725119491729066,-0.81986084836453199,-0.065612683419107379,3
1478710110,4.3894362341838775,42.341790392568669,-71.086998573570611,25.0,0.07315727056973129,7.7638767504154961e-05,0.00028010287127623661,9.2366765966918571e-05,0.00010518851490458433,0.00024622105455268846,1.7917594692280547,-2.7115511354323867,-0.8348143129837996,-0.051548339071771504,3
1478710140,4.444321611915756,42.341792970003894,-71.086993408921273,25.0,0.0740720268652626,0.00027668812208727516,0.0009047997000334125,9.2366765966918571e-05,0.00012914008972514989,0.0004267041632756857,1.945910149055313,-2.7497221818146298,-0.84325212643244485,-0.050869143356787737,3
1478710170,0.0,42.341785649808457,-71.086989361859025,25.0,0.0,0.00032180364359589225,0.0009047997000334125,4.9362447934523735e-05,0.0001446640482505438,0.00068757162652083965,1.945910149055313,-2.7850700813938105,-0.85571945931723092,-0.058028361070450014,3
1478710200,4.938299974148867,42.34178414944779,-71.086987586292537,25.0,0.08230499956914779,0.00028113283050901406,0.00082181626002058087,4.2613121150084255e-05,5.8050744804189326e-05,0.00028680630983031599,1.7917594692280547,-2.8200188088364864,-0.87312785740967624,-0.055172169450344789,3
1478710230,7.504561688829048,42.34175341580282,-71.086955142739328,25.0,0.1250760281471508,0.00010207330886585455,0.0003532592959636076,4.2613121150084255e-05,7.1857064137241782e-05,0.00018271716927918693,1.945910149055313,-2.8917841369388548,-0.91739757926256071,-0.068066949426307047,3
1478710260,0.15894452279158308,42.341724366920388,-71.08692472201875,25.0,0.002649075379859718,0.00044198983217626681,0.0013496535346618056,2.3135491900102994e-06,6.3681561994756723e-05,0.00018271716927918693,1.945910149055313,-2.9645988474351381,-0.95874442928048642,-0.056413100924430921,3
1478710290,6.488565630522781,42.341738419181063,-71.086914736378105,25.0,0.10814276050871302,0.00049661815748458548,0.0013496535346618056,2.3135491900102994e-06,7.4203348485542622e-05,0.00060943147196889887,1.7917594692280547,-2.9962813341246552,-0.98914705342466913,-0.02997497389245599,3
1478710320,8.421711845672553,42.341794332063159,-71.086881972915592,32.52331043231657,0.14036186409454254,0.00026927354152001621,0.00077017521049615404,2.4603371230303714e-05,6.1307851625955331e-05,0.00032424016758620668,1.945910149055313,-3.0026579689788382,-1.0179305933579714,-0.031641176825284466,3
1478710350,6.129698702720009,42.341829848980865,-71.086867902494134,38.05376889747307,0.10216164504533348,0.00018079774215812934,0.00052128007878528022,2.4603371230303714e-05,6.1307851625955331e-05,0.00034183692780349168,1.945910149055313,-3.0125265584485494,-1.0297066328715945,-0.025584903797457949,3
1478710380,13.030775215170996,42.341802424790671,-71.086906281831773,30.530458465156492,0.2171795869195166,0.00027119918670490015,0.00082484318519599289,1.5861964086790014e-05,0.00010366811274240855,0.00039175688905886786,1.7917594692280547,-3.0362999920325104,-1.0331053967325246,-0.020152304920253054,3
1478710410,7.123628134273377,42.341784847939721,-71.086962773065181,25.0,0.11872713557122296,0.00076648429178897536,0.0019911517275559782,1.5861964086790014e-05,7.5461903957575556e-05,0.0013819020900036694,1.945910149055313,-3.030449428815674,-1.0404740385901357,-0.034681932876332693,3
1478710440,1.609679692113838,42.34178728567656,-71.086989898300828,25.0,0.026827994868563968,0.00076570696929136473,0.0019911517275559782,3.2036640698275578e-05,9.1474910310795099e-05,0.0013819020900036694,1.945910149055313,-2.966282736859458,-1.0525916044336581,-0.082220151755315204,3
1478710470,2.341261285371546,42.34178591104444,-71.086989746029587,25.0,0.039021021422859105,0.00075598670630515222,0.0021418630104592319,3.2036640698275578e-05,6.6448352669077994e-05,0.00044184527435610674,1.7917594692280547,-2.9041722348824694,-1.0604156115536825,-0.11995693867787992,3
1478710500,4.256500777041127,42.341816153649567,-71.086978681917401,25.0,0.07094167961735212,0.00075948489638680381,0.0021418630104592319,5.62815925197583e-05,8.3561024760763855e-05,0.00094107624874498132,1.945910149055313,-1.2507873317806566,-1.0759555809012811,-0.044764094843828421,3
1478710530,1.339669269645342,42.341832820365532,-71.086960793539049,25.0,0.0223278211607557,0.0014120103573222952,0.0044320557659887662,5.7394013389743917e-05,0.00034714939541225876,0.0015740729627738109,1.945910149055313,-1.3070767191756383,-1.1073538358033723,-0.0083678223848557484,3
1478710560,2.6203125892318515,42.341797339070908,-71.086950022793474,25.0,0.043671876487197524,0.0015384102175974932,0.0044320557659887662,5.3987944709020657e-05,0.00018793350518296308,0.0014206736028183628,1.7917594692280547,-3.0166030603866183,-1.1441684863186501,-0.046147027986658727,3
1478710590,0.0,42.341775926800764,-71.086946781790914,25.0,0.0,0.00047510893609824115,0.0015074949524620611,5.3987944709020657e-05,7.5444450086609833e-05,0.00044544973329760699,1.945910149055313,-2.9906783081632868,-1.1472816402232389,-0.048609465217310181,3
1478710620,0.0,42.341775926800764,-71.086946781790914,25.0,0.0,0.00046304277156743493,0.0015074949524620611,6.633670831005618e-05,0.00015506412817580632,0.00033657901270413244,1.945910149055313,-2.9913812816309102,-1.1378884848283461,-0.034392082127673355,3
1478710650,3.293146544925573,42.341764361171379,-71.08695428638822,25.0,0.054885775748759545,0.00052306861281095293,0.0016094987052360493,8.5077682063141018e-05,0.00022769874347514926,0.00058838322186461158,1.7917594692280547,-2.9915775763224208,-1.1378142035574395,-0.036506316884516547,3
1478710680,6.873589823917098,42.34174169301275,-71.086970059733005,25.0,0.1145598303986183,0.00080900211447444638,0.0024422954866858831,0.00015358944712740643,0.00025820518986212815,0.0011532419797151017,1.945910149055313,-2.9880260479346519,-1.1569377820068802,-0.042690545516333146,3
1478710710,3.6048799612207385,42.341718327060676,-71.086991305063577,25.0,0.06008133268701231,0.00078473511459256856,0.0024422954866858831,0.00012127799256099784,0.00016524851935018731,0.00030810868418501244,1.945910149055313,-2.9853502227872228,-1.1803713218345937,-0.044719852636378614,3
1478710740,0.0,42.341706063637844,-71.087004281646671,25.0,0.0,0.00032999634268379539,0.0010328446158069109,7.2090211324385856e-05,0.00013518539231399044,0.00034212174643035348,1.7917594692280547,-2.9884340824275033,-1.2154418899226338,-0.043922731871194609,3
1478710770,0.0,42.341706063637844,-71.087004281646671,25.0,0.0,0.00095613718966688303,0.0029602993449635469,7.2090211324385856e-05,0.00026967848986507773,0.0013305340797268119,1.945910149055313,-2.9875859557379063,-1.2646811111422025,-0.046367499461576769,3
1478710800,0.0,42.341706063637844,-71.087004281646671,25.0,0.0,0.00098895186587433844,0.0029602993449635469,8.5645538161322008e-05,0.00017840031752200649,0.0010856447743516388,1.945910149055313,-2.9978138649535344,-1.3027129552818757,-0.046986478315818446,3
1478710830,0.0,42.341706063637844,-71.087004281646671,25.0,0.0,0.00034367997204658775,0.0011017038300026975,8.5645538161322008e-05,0.00014047462323606109,0.00037812443500841425,1.7917594692280547,-3.0162202974656238,-1.3255983362391983,-0.045513297021925185,3
1478710860,0.0,42.341706063637844,-71.087004281646671,25.0,0.0,0.00073771789645841275,0.0022020122856140586,0.00011642409733973844,0.00033836900831796842,0.0013825486821348965,1.945910149055313,-3.0044670111043303,-1.3296696263784276,-0.051375837876126589,3
1478710890,2.266176174884115,42.341708590083151,-71.086999365660461,25.0,0.03776960291473525,0.00075698912888246548,0.0022020122856140586,0.00019131969905028111,0.00026326496489301491,0.0010327030307570302,1.945910149055313,-2.6040272805272378,-1.2970897936984283,-0.03325119509239699,3
1478710920,2.266176174884115,42.341719130326396,-71.086989768381329,25.0,0.03776960291473525,0.0010291901162175717,0.0030702030133089048,0.00019131969905028111,0.00022945018965321495,0.0013878904070196273,1.7917594692280547,-1.6561149676145821,-1.2076896334404528,0.035474304211366971,3
1478710950,0.0,42.34172714412432,-71.086985087088408,25.166666666666668,0.0,0.0010022258711262831,0.0030702030133089048,7.0499387679475535e-05,0.00013726056236417828,0.001216308895634381,1.945910149055313,-1.174051949916068,-1.1692161303167659,0.092327680072997728,3
1478710980,2.389274409494942,42.341727664500802,-71.08696462825975,25.75,0.03982124015824903,0.0042912430589606143,0.012635984745425561,3.4112788625726694e-05,0.00010101132167595445,0.0013914930442556557,1.8675843750169276,-1.1349965879886892,-1.2306781830806932,0.096447085194929769,3
1478711010,10.219104753671676,42.341755016746326,-71.086950029778393,25.833333333333332,0.1703184125611946,0.036002186462622876,0.10199308651088623,3.4112788625726694e-05,0.0019139712761736343,0.017235523806267618,1.6609474332869181,-1.2289151442754993,0.61433135855409782,0.018012485020536404,3
1478711040,33.02776620706764,42.341700609114355,-71.086849027845176,25.25,0.5504627701177941,0.28256967851574522,0.85984723107563354,0.0018556117218691136,0.016376567794170821,0.13740963864734734,1.9459101490553139,-1.2973880162546794,0.69965944356116716,-0.071979220998809948,3
1478711070,6.766952824188971,42.341597093308678,-71.086783408719214,25.0,0.11278254706981619,0.28384374376661858,0.85984723107563354,7.5407403483338203e-05,0.0070505779586234676,0.14135334437789715,1.8891591637540213,-1.2942703421594239,0.78190756102057202,-0.046997775248100671,3
1478711100,50.72307824005275,42.34151847734335,-71.086892109430494,25.435248183732156,0.8453846373342125,0.042538174839393712,0.11579988813427211,6.7392884225753755e-05,8.5736508142568462e-05,0.033676283383616848,1.6581101035673729,-1.3348411012463484,2.4739858273175979,0.041424117208211479,3
1478711130,67.48640753849035,42.341344656927838,-71.087142816345306,25.49440113823827,1.1247734589748393,0.10788802294082005,0.32744396315003471,6.7392884225753755e-05,0.02381047912462015,0.15066320801492133,1.8891591637540219,-1.3148428324475616,1.8335209800916858,0.12818731172387879,3
1478711160,68.55349414532894,42.341105423441483,-71.087466614852758,27.798147148339233,1.1425582357554824,0.10086371322289625,0.32744396315003471,0.069408686436769979,0.11487897204611801,0.30573411201026934,1.9459101490553139,-1.2210502024635355,1.4580604582973844,0.14520806344173368,3
1478711190,74.99796256497697,42.340874511089503,-71.087775392989727,28.08108102058204,1.2499660427496162,0.19925104644696573,0.6133143746300076,0.025269283368549136,0.086016686442490997,0.31407399827144405,1.791759469228055,-1.1848507422814121,1.3647256905189253,0.12618974157813931,3
1478711220,89.05739226392582,42.340676792471058,-71.088132846235396,25.342086826748925,1.4842898710654304,0.1976402554358655,0.6133143746300076,0.025269283368549136,0.064021149565509264,0.25322699862202508,1.9459101490553139,-1.2027360755370853,1.2633972971967093,0.13671955363952223,3
