TIMESTAMP,DISTANCE,AVG_LAT,AVG_LNG,GPS_ACCURACY,AVG_SPEED_BY_GPS,ACCLERATOR_STD,MAX_ACCLERATOR,MIN_ACCLERATOR,PERCENTILE_25_ACCLERATOR,PERCENTILE_75_ACCLERATOR,ACCLERATOR_ENTROPY,AVG_ROLL,AVG_YAW,AVG_PITCH,WEEK_DAY
1480108140,4.702783603539253,42.338747337023769,-71.088202581609963,50.899999999999999,0.07837972672565423,2.7936455893273495e-05,0.00011046629752916086,2.0643813274691331e-05,3.0873493530488599e-05,3.9344919588203608e-05,1.945910149055313,-2.6459697457243041,2.4800275087573298,0.011271133565537146,5
1480108170,2.0644744285522374,42.338748775989622,-71.088203250938349,50.666666666666664,0.03440790714253729,8.9772644516202775e-06,4.945582259323913e-05,2.0643813274691331e-05,2.7859306002749563e-05,3.534112554433102e-05,1.7917594692280547,-3.087248501123065,2.8896702194772601,0.012553933010435466,5
1480108200,2.25080825286825,42.338761086589464,-71.088203360333324,55.25,0.0375134708811375,3.0007868520209608e-05,0.00011224842282626536,1.8680365264647854e-05,2.5605538624758022e-05,4.3133158663933292e-05,1.945910149055313,-3.0875913883301331,2.887450090672727,0.012714458159821985,5
1480108230,0.5891795676512743,42.338799712811671,-71.088209835423584,65.0,0.009819659460854573,3.0350499487150238e-05,0.00011224842282626536,1.8680365264647854e-05,2.3675679442346257e-05,4.6442746266467825e-05,1.945910149055313,-3.0877154456900127,2.8863702225520531,0.012699638782000113,5
1480108260,1.136788824243528,42.338805385147907,-71.088216016239784,65.0,0.0189464804040588,1.3445673188848528e-05,6.5239220719445423e-05,2.3014699942997395e-05,3.4729562272879907e-05,4.9855817463194598e-05,1.7917594692280547,-3.0877408661730654,2.8855064432377322,0.012530946772893231,5
1480108290,0.9964454937689347,42.338800439539561,-71.088217915997745,65.0,0.01660742489614891,1.1829852223610048e-05,6.5239220719445423e-05,2.6313971603483978e-05,3.2392612881553462e-05,3.9943280922505751e-05,1.945910149055313,-3.0877499472004031,2.8849879705489236,0.012461094171202771,5
1480108320,2.708727448694114,42.338764988845782,-71.088209340870847,55.454545454545453,0.045145457478235236,6.9168521656374421e-06,4.8272955388077754e-05,2.6159129962088608e-05,2.9232042060773295e-05,3.5857852320698908e-05,1.945910149055313,-3.0877625450305284,2.8845536233414157,0.012537999757081928,5
1480108350,2.8159444310728383,42.338749800232073,-71.088205014989242,50.652173913043477,0.0469324071845473,7.0159575790912574e-06,4.8272955388077754e-05,2.6159129962088608e-05,3.3910154574375441e-05,4.1598735116170014e-05,1.7917594692280547,-3.0877900134803884,2.8840964203651502,0.012664948441009051,5
1480108380,0.0,42.338748173827611,-71.088204737818927,50.0,0.0,7.6581303256964053e-06,5.3542908089075083e-05,2.6720973411958123e-05,3.4956104926395496e-05,4.0313518630919655e-05,1.945910149055313,-3.0878420683269487,2.8832829071005572,0.012695712995563985,5
1480108410,4.846521553081923,42.338756621408265,-71.088209029607341,52.5,0.08077535921803204,5.3869030807285524e-05,0.00018934844298521466,2.6720973411958123e-05,3.3609173205480255e-05,4.5638173418463189e-05,1.945910149055313,-3.0878741156488672,2.8828066164238928,0.012669513653754173,5
1480108440,2.893897725595624,42.338799518470104,-71.088229842786134,65.0,0.048231628759927064,5.7884780664790465e-05,0.00018934844298521466,2.636874883728217e-05,3.3358989215939951e-05,3.8631077759601563e-05,1.7917594692280547,-3.0878915756296998,2.8829833225363548,0.012563348078183914,5
1480108470,4.7812166921920705,42.338757069931802,-71.088208879825629,52.571428571428569,0.07968694486986784,9.398290772825882e-06,5.6529953686710787e-05,2.636874883728217e-05,3.8514355860441786e-05,4.9625826245010046e-05,1.945910149055313,-3.0879249333144974,2.8833160334375814,0.012691399811198184,5
1480108500,0.0,42.338748173827597,-71.08820465399991,50.0,0.0,7.2675356308286915e-06,5.6529953686710787e-05,3.4590171568642098e-05,4.1115141080581627e-05,4.9963117089255849e-05,1.945910149055313,-3.0879717361469878,2.8835294790891646,0.012777361131657927,5
1480108530,1.9298933813478376,42.338752739992309,-71.088205971324044,51.5,0.03216488968913063,5.3628121383036201e-06,4.882231182702142e-05,3.4590171568642098e-05,3.6189747828138582e-05,4.5237958983451067e-05,1.7917594692280547,-3.0880127412020517,2.8837394096641682,0.012663339138817334,5
1480108560,0.02813137541471567,42.338752802856561,-71.088206159916808,51.5,0.00046885625691192785,7.6587999032981247e-06,4.882231182702142e-05,2.2182904169732973e-05,3.7575373783163416e-05,4.1789788477553365e-05,1.945910149055313,-3.0879544811180502,2.8834822826214257,0.012553155072794128,5
1480108590,0.0,42.338748257646621,-71.088204905456919,50.0,0.0,1.0729712417410152e-05,5.3338230229721277e-05,2.2182904169732973e-05,3.4047971818072502e-05,4.7575944573445683e-05,1.945910149055313,-3.0879614943695799,2.8826396670306056,0.012593614151843272,5
1480108620,0.0,42.338748257646621,-71.088204905456919,50.0,0.0,1.0463634671570012e-05,5.3338230229721277e-05,2.708421247174963e-05,3.2088781943746463e-05,5.0963267508554452e-05,1.7917594692280547,-3.0879652871431236,2.8820359954487764,0.012636092629115497,5
1480108650,3.7882346158216995,42.338752405842762,-71.088206975365054,51.714285714285715,0.06313724359702833,1.1245399561297421e-05,6.4354723147910342e-05,2.708421247174963e-05,3.3012570171919202e-05,4.3923146967604312e-05,1.945910149055313,-3.0879497523711228,2.8824625551067555,0.012560803126764927,5
1480108680,2.5273583826980426,42.338777086966012,-71.088212593481245,63.5,0.04212263971163404,1.3378688583525046e-05,6.4354723147910342e-05,2.3380987038933737e-05,3.3012570171919202e-05,5.0721600982840863e-05,1.945910149055313,-3.087970512918027,2.8824915393301582,0.012534501485940028,5
1480108710,2.2832540969970334,42.338791642733078,-71.088217903862684,65.0,0.038054234949950555,1.439599234814065e-05,6.4921586953589977e-05,2.3380987038933737e-05,3.288360851215408e-05,5.3838039255649989e-05,1.7917594692280547,-3.0879673188219816,2.8821985219604116,0.012557863402278102,5
1480108740,2.268036694116225,42.338782557220256,-71.088220295938243,59.375,0.037800611568603745,1.2219413752376408e-05,6.4921586953589977e-05,3.0520911797595644e-05,3.6939292502082539e-05,5.752974581692288e-05,1.945910149055313,-3.0880227872394732,2.8824116757535343,0.012816629083225672,5
1480108770,2.2242326384259514,42.338753749964063,-71.088208352295595,51.5,0.03707054397376586,7.92469062901389e-06,5.9756068857513721e-05,3.3906886348335693e-05,4.5190810586817414e-05,5.3293616204130947e-05,1.945910149055313,-3.0880920332995672,2.8827103426737848,0.0129303293463901,5
1480108800,0.0,42.338748425284713,-71.0882059112853,50.0,0.0,2.6410442908582144e-05,0.00011648550259541459,3.8261894422915254e-05,4.4051109995940228e-05,5.3257644262251657e-05,1.7917594692280547,-3.0881056264001283,2.8828858220967617,0.012840572918102783,5
1480108830,0.12179858909077246,42.33874911122944,-71.088206816228777,47.659574468085104,0.0020299764848462076,2.9564584761136096e-05,0.00011648550259541459,1.575026232268477e-05,3.9879245173837072e-05,6.8111833946222502e-05,1.945910149055313,-3.0880684252616559,2.8827491761269157,0.012664373193921356,5
1480108860,0.12179858909077246,42.338748897223425,-71.088207511748394,34.893617021276597,0.0020299764848462076,1.6974751558650079e-05,7.2102954773791856e-05,1.575026232268477e-05,4.1946004308766093e-05,6.0085652585761584e-05,1.945910149055313,-3.0881183446083669,2.88249253823605,0.01250237458716327,5
1480108890,0.0,42.338748090008615,-71.088207000932726,30.0,0.0,1.0218893836370914e-05,6.1479997000207312e-05,3.2239230848287806e-05,3.8432953026108186e-05,5.4093535556228249e-05,1.7917594692280547,-3.0881779368760873,2.8822545820859511,0.012543183490544717,5
1480108920,2.236429762519598,42.338754817334895,-71.088209828777863,36.03448275862069,0.03727382937532663,1.7665014289678623e-05,8.4018837357353887e-05,3.2239230848287806e-05,3.4731475548379609e-05,5.9969132117786581e-05,1.945910149055313,-3.0881037564418539,2.8823670854062056,0.012503650670197,5
1480108950,3.1064021415474716,42.338789457323749,-71.088220133230308,65.0,0.051773369025791195,2.4487348950988589e-05,0.00010634746795446873,3.2350817959539409e-05,4.5627390288024923e-05,7.6444273367085264e-05,1.945910149055313,-3.0880941465620144,2.8828302881243091,0.0123444149699307,5
1480108980,1.474649064876733,42.338797478941849,-71.088221653781062,65.0,0.024577484414612216,2.511170898884463e-05,0.00010634746795446873,3.309679868018151e-05,3.7233848868793373e-05,6.7092596474872465e-05,1.7917594692280547,-3.0881347940774533,2.8831032745157521,0.012409599390241782,5
1480109010,3.1422458072090738,42.338760972391789,-71.088211493381721,37.65625,0.05237076345348456,1.2345795296469635e-05,6.1761257769039926e-05,2.5838519544789957e-05,3.5130866841601602e-05,5.470251251185089e-05,1.945910149055313,-3.0882022512398959,2.88274820155286,0.012576656666001213,5
1480109040,3.499128965676997,42.33875066548044,-71.088207813084352,31.810344827586206,0.058318816094616616,1.0009828160781185e-05,5.7976924081559999e-05,2.5838519544789957e-05,3.7315323914538628e-05,5.0512877459186318e-05,1.945910149055313,-3.08818476967862,2.8826531554084602,0.012502216860262001,5
1480109070,0.0,42.338747126089707,-71.088206581837596,35.666666666666664,0.0,6.8657969927617999e-06,5.7623356369258668e-05,3.7465712826055562e-05,4.2863852797560948e-05,5.2520866233583343e-05,1.7917594692280547,-3.0881144118350949,2.8827794782373863,0.012391245549997999,5
1480109100,0.0,42.338747126089707,-71.088206581837596,45.666666666666664,0.0,8.8304148481160256e-06,5.7623356369258668e-05,3.0871093784852412e-05,4.3363539637296855e-05,5.4201568889995555e-05,1.945910149055313,-3.0881631096306785,2.8829196595784956,0.012495164118192787,5
1480109130,0.4413544087502298,42.338747335637279,-71.08820714462253,50.0,0.00735590681250383,1.1006131303256102e-05,5.6961062666131906e-05,2.5976628083917646e-05,3.483349949827477e-05,5.1861493897684154e-05,1.945910149055313,-3.0881750557984069,2.88288172966364,0.012538579688029473,5
1480109160,0.4413544087502298,42.33874812144073,-71.088209255066005,50.0,0.00735590681250383,1.2342943676389428e-05,6.5585954513942241e-05,2.5976628083917646e-05,4.4132244559783276e-05,5.5554174645081102e-05,1.7917594692280547,-3.0881380986534013,2.8827678073519962,0.012532826820755683,5
1480109190,0.0,42.338748592922812,-71.088210521332115,50.0,0.0,1.0310230790742902e-05,6.5585954513942241e-05,3.1827792899647183e-05,3.8965064097990374e-05,4.987734157054119e-05,1.945910149055313,-3.0881526721776047,2.8823484043456618,0.012469873123854627,5
1480109220,0.40798898261538624,42.338754660654288,-71.088212231049042,52.5,0.006799816376923104,1.0755639484806447e-05,5.721603097481683e-05,2.249357007128101e-05,3.3593317563749238e-05,4.7510273206665506e-05,1.945910149055313,-3.0882024039795271,2.881788897663474,0.012494951513505671,5
1480109250,2.934794171891742,42.338789826240571,-71.088225535625739,65.0,0.048913236198195695,1.1516368507931055e-05,5.721603097481683e-05,2.249357007128101e-05,3.9077003200720829e-05,5.2590164439210969e-05,1.7917594692280547,-3.0882710398843733,2.8813981777600488,0.012799480872849852,5
1480109280,0.500865248849727,42.338763487571896,-71.088217803525396,54.799999999999997,0.00834775414749545,1.3402943051787702e-05,7.4200757879420504e-05,2.8856566460884539e-05,4.3242234903139133e-05,5.5817887033064172e-05,1.945910149055313,-3.0882868234200802,2.881812468959466,0.012876124899786928,5
1480109310,2.6751888514323903,42.338751009936523,-71.088212631395422,50.612244897959187,0.044586480857206505,1.3969859703594873e-05,7.4200757879420504e-05,2.8856566460884539e-05,4.0395824376018169e-05,5.7780963246224976e-05,1.945910149055313,-3.0882988513827527,2.8820637048656401,0.012798360709975486,5
1480109340,2.484044107963221,42.338750263026839,-71.088211974093923,50.625,0.04140073513272035,1.2080101198287554e-05,7.1237527214754095e-05,3.6791831212411347e-05,3.9198695054738523e-05,5.5716735613687639e-05,1.7917594692280547,-3.088338230982755,2.8819489010744896,0.012837725347074253,5
1480109370,4.549372470167478,42.338768962184872,-71.088220898863753,54.565217391304351,0.07582287450279131,1.2381843690998907e-05,7.1237527214754095e-05,3.7598320893109693e-05,4.0862780130243503e-05,5.8648235830952922e-05,1.945910149055313,-3.0882928380716783,2.8821430072226839,0.012598853491361042,5
1480109400,1.7977642272324519,42.338821632293282,-71.088245181017982,65.0,0.029962737120540865,2.7345903125118777e-05,0.00012342650375471261,4.0287441163630125e-05,4.4218389998085336e-05,5.8648235830952922e-05,1.945910149055313,-3.0882387095092363,2.8821729301117429,0.012449780437582729,5
1480109430,1.6901651909062374,42.33880637681866,-71.088235091556925,65.0,0.02816941984843729,2.7986965989259705e-05,0.00012342650375471261,4.5990395070133317e-05,4.6749499522581084e-05,6.0964451633772977e-05,1.7917594692280547,-3.0882842916633666,2.8819876287240498,0.012528342710653199,5
1480109460,2.231107357600774,42.338767041712671,-71.088217128408203,55.714285714285715,0.03718512262667957,7.6922026229914684e-06,6.6200255559574882e-05,4.5990395070133317e-05,5.0090385892575086e-05,6.3309607329820454e-05,1.945910149055313,-3.0884087590034257,2.8817609249017857,0.012342032803638601,5
1480109490,3.029890044992479,42.338751999019394,-71.088211894132897,50.978260869565219,0.05049816741654132,1.2221422222060603e-05,7.0783207449220714e-05,3.03154076010214e-05,5.231508395651204e-05,6.3733173152145516e-05,1.945910149055313,-3.0884266476206172,2.8817244617950601,0.012216408452575099,5
1480109520,0.0,42.338749347294097,-71.088211443341393,50.0,0.0,1.2279783254849057e-05,7.0783207449220714e-05,3.03154076010214e-05,4.7247365859524984e-05,5.7088037710265499e-05,1.7917594692280547,-3.0884597407496064,2.881922070948308,0.012288291224792233,5
1480109550,0.02754419719268929,42.338749350042576,-71.088211438663137,50.28846153846154,0.0004590699532114882,1.1243821903739163e-05,7.2657722540995194e-05,3.6885147386245796e-05,4.8984202970856733e-05,6.3211398320610357e-05,1.945910149055313,-3.0885525166733805,2.8821233924501386,0.0125239969792763,5
1480109580,0.633948797470933,42.338753225779882,-71.088213646336612,52.586206896551722,0.010565813291182218,1.2555746088377331e-05,7.2657722540995194e-05,3.6885147386245796e-05,5.1164066628176568e-05,6.6962707493853406e-05,1.945910149055313,-3.0886351274064432,2.8821948116848786,0.012581947548681157,5
1480109610,1.087341937023776,42.338755815375187,-71.088217662039114,40.270270270270274,0.018122365617062933,9.8220849603948241e-06,7.0460634410032658e-05,4.1732100655105493e-05,5.2879077694777972e-05,6.6293428007056809e-05,1.7917594692280547,-3.0887378869433029,2.8822314479186986,0.012344360685204149,5
1480109640,0.0,42.338753580155199,-71.088216975397501,33.0,0.0,7.7678522200832351e-06,7.0460634410032658e-05,4.2928621166798282e-05,5.1799170605317366e-05,5.5853874716987531e-05,1.945910149055313,-3.0886868636458269,2.882268314201657,0.012307453995446457,5
1480109670,0.0,42.338753580155199,-71.088216975397501,30.0,0.0,1.3444198752941993e-05,8.0042270643844836e-05,3.4701013305109447e-05,4.3701525780025807e-05,5.5544861780829527e-05,1.945910149055313,-3.0886737149012005,2.8819990645856373,0.012392055899820814,5
1480109700,0.0,42.338753580155199,-71.088216975397501,30.0,0.0,1.7799137383537147e-05,8.0042270643844836e-05,2.2519536819380007e-05,3.675960184521067e-05,5.1018902803797308e-05,1.7917594692280547,-3.0887180668916465,2.8817427172377506,0.012367720965424168,5
1480109730,0.9125586817534364,42.338754106093013,-71.088216940743067,31.458333333333332,0.015209311362557272,1.6229552018683988e-05,7.375579446691256e-05,2.2519536819380007e-05,3.8619994095687858e-05,5.9874459150756664e-05,1.945910149055313,-3.0887450664541101,2.8818550221009369,0.012406954182018386,5
1480109760,0.18821818427388323,42.338755327116353,-71.088217991519585,33.902439024390247,0.0031369697378980537,1.2433759448736821e-05,7.375579446691256e-05,3.4304620725861379e-05,5.0234499893453198e-05,6.432840246024506e-05,1.945910149055313,-3.0887514485042571,2.8819298196733629,0.012710873304970815,5
1480109790,1.0153220549394673,42.338754051976686,-71.088218741734039,31.69811320754717,0.016922034248991122,9.0373906100878421e-06,6.5278486372895877e-05,3.947943586520987e-05,4.4782623314954602e-05,5.8458821141018755e-05,1.7917594692280547,-3.0887469275203183,2.8819038395017729,0.012949975622071933,5
1480109820,0.0,42.338752867693415,-71.088218651778121,30.333333333333332,0.0,7.7462119757279015e-06,6.4077446959526861e-05,3.947943586520987e-05,4.9944145336361389e-05,5.9192297032067804e-05,1.945910149055313,-3.0887980263953616,2.8815801319804684,0.012836316608524001,5
1480109850,0.0,42.338752867693415,-71.088218651778121,30.333333333333332,0.0,6.2390771328920779e-06,6.4077446959526861e-05,4.3931967915737187e-05,5.2225209705607502e-05,5.9607836749000004e-05,1.945910149055313,-3.0888176850619073,2.8814153936591644,0.012781907034464286,5
1480109880,0.0,42.338752867693415,-71.088218651778121,30.0,0.0,4.7501807054676194e-06,5.8982969233290813e-05,4.3931967915737187e-05,4.9685289608773408e-05,5.4769467553581521e-05,1.7917594692280547,-3.0887883652033419,2.8814616579681984,0.0128359599380935,5
1480109910,0.0,42.338752867693415,-71.088218651778121,30.0,0.0,8.6220961876420864e-06,7.0245640520704959e-05,4.3015012523931044e-05,5.0726589643743976e-05,6.2499991166376363e-05,1.945910149055313,-3.0887961633708962,2.8817923402583543,0.012801273652126072,5
1480109940,0.0,42.338752867693415,-71.088218651778121,30.0,0.0,1.1666454895826446e-05,7.0245640520704959e-05,3.7370557897828734e-05,4.4693186568818975e-05,6.3863546955635807e-05,1.945910149055313,-3.0888347245316372,2.8817836930616059,0.0127265090255822,5
1480109970,0.0,42.338752867693415,-71.088218651778121,30.0,0.0,1.1484971994565145e-05,6.8794418175547093e-05,3.7370557897828734e-05,4.8515815572465613e-05,6.6462165418595517e-05,1.7917594692280547,-3.0888451578261376,2.8815634946204232,0.0127244218693229,5
1480110000,0.0,42.338752867693415,-71.088218651778121,32.333333333333336,0.0,1.1081723594073368e-05,6.8794418175547093e-05,4.0139109683762245e-05,4.2730317313159031e-05,6.1187164968412691e-05,1.945910149055313,-3.0888052190195903,2.8812949936321948,0.012722939808930103,5
1480110030,0.0,42.338752867693415,-71.088218651778121,42.333333333333336,0.0,1.5861163211201047e-05,8.888150106016007e-05,4.0139109683762245e-05,4.2730317313159031e-05,5.504062423748002e-05,1.945910149055313,-3.0887690098564371,2.8807379577442473,0.012777397650496316,5
1480110060,0.0,42.338752867693415,-71.088218651778121,43.333333333333336,0.0,1.6499415646933984e-05,8.888150106016007e-05,4.1505396326118086e-05,4.3404344182573995e-05,5.7696662329343346e-05,1.7917594692280547,-3.0887805267004818,2.8806782581642381,0.01280781574667665,5
1480110090,0.0,42.338752867693415,-71.088218651778121,37.333333333333336,0.0,1.4255320875853836e-05,7.9159280440506896e-05,4.1505396326118086e-05,4.3404344182573995e-05,6.689113935214268e-05,1.7917594692280547,-3.0888212801202948,2.8808363838530853,0.012756504635608366,5
1480110120,0.0,42.338752867693415,-71.088218651778121,44.0,0.0,1.1133200094914006e-05,7.9159280440506896e-05,4.2602978049230068e-05,5.5877323592292997e-05,6.9270200856935799e-05,1.945910149055313,-3.0888286783278573,2.8804615396963484,0.012778757676466999,5
1480110150,0.0,42.338752867693415,-71.088218651778121,49.333333333333336,0.0,9.6293818294679786e-06,6.9097638281805223e-05,3.7893276425365688e-05,4.4778222434857748e-05,5.5877323592292997e-05,1.945910149055313,-3.0888349862348159,2.8804924692531486,0.012846846854039187,5
1480110180,0.0,42.338752867693415,-71.088218651778121,39.333333333333336,0.0,1.0276302883012785e-05,7.1938958257247249e-05,3.7893276425365688e-05,4.7368758503163339e-05,5.2597234651420159e-05,1.7917594692280547,-3.0888390954926543,2.8808335277894219,0.01285871853205945,5
1480110210,0.0,42.338752867693415,-71.088218651778121,30.0,0.0,1.0584089529506144e-05,7.1938958257247249e-05,4.3182786307872174e-05,4.8803144377023059e-05,6.3380143784917572e-05,1.945910149055313,-3.0887992588450572,2.8809465099917415,0.012838540348189558,5
1480110240,0.0,42.338752867693415,-71.088218651778121,30.0,0.0,9.3175277631369891e-06,7.1268371101532976e-05,4.184838688792233e-05,4.4456941278108825e-05,5.4670885434797181e-05,1.945910149055313,-3.0888148743190968,2.8808459482555118,0.012827869263672428,5
1480110270,0.0,42.338752867693415,-71.088218651778121,30.0,0.0,4.4871922822537412e-06,5.6363741057189058e-05,4.184838688792233e-05,5.014689425161055e-05,5.3120219597769588e-05,1.7917594692280547,-3.0888423435833978,2.8810101342137187,0.012829680288704617,5
1480110300,0.0,42.338752867693415,-71.088218651778121,31.0,0.0,9.827411787298573e-06,6.5836279432986974e-05,3.6550006539886438e-05,3.9564300748540373e-05,5.3401269757978744e-05,1.945910149055313,-3.0888154641112457,2.8812299659522584,0.012866069495234901,5
1480110330,0.0,42.338752867693415,-71.088218651778121,37.0,0.0,1.0165633755703395e-05,6.5836279432986974e-05,3.6550006539886438e-05,3.9178851668066105e-05,5.3341428208947253e-05,1.945910149055313,-3.0888030133146098,2.8813037889912487,0.012820270681218429,5
1480110360,0.0,42.338752867693415,-71.088218651778121,42.0,0.0,7.6496198089442955e-06,6.2683374942387314e-05,4.0404079992427004e-05,4.7107554420534061e-05,5.8162693080041516e-05,1.7917594692280547,-3.0887875160462084,2.8815302908357334,0.012765150773144699,5
1480110390,0.0,42.338752867693415,-71.088218651778121,39.333333333333336,0.0,7.9597348071400899e-06,6.345687719365663e-05,4.0283373020974969e-05,4.9176670840373633e-05,6.0703576188051052e-05,1.945910149055313,-3.088771410548957,2.8818746422493837,0.012796035396365483,5
1480110420,0.0,42.338752867693415,-71.088218651778121,39.0,0.0,1.0089553598687102e-05,7.4511432366977797e-05,4.0283373020974969e-05,5.0511489614829154e-05,5.9538600631359954e-05,1.945910149055313,-3.0888340038110016,2.8821599468557357,0.012834951100068616,5
1480110450,0.0,42.338752867693415,-71.088218651778121,45.666666666666664,0.0,1.1649729975185936e-05,7.4511432366977797e-05,3.5696206534145511e-05,4.7722119342246692e-05,5.4565300503534759e-05,1.7917594692280547,-3.0889149715924997,2.8819197387874951,0.012841476469589467,5
1480110480,4.651983135725562,42.338752076031184,-71.088217835042457,50.600000000000001,0.0775330522620927,1.0174937404960824e-05,6.7278341578153405e-05,3.5696206534145511e-05,5.0613550831544844e-05,6.3370545018268307e-05,1.945910149055313,-3.0888881210233698,2.8816062512111844,0.01283130316377323,5
1480110510,0.7309430138013606,42.338753275250781,-71.088221687734574,49.795918367346935,0.012182383563356011,1.1237198503084285e-05,8.1029213503957067e-05,4.2669732978853605e-05,5.9953624954934029e-05,6.9927912107559155e-05,1.945910149055313,-3.0889003251144702,2.8818756978199795,0.012835206343770273,5
1480110540,0.0,42.338754921259707,-71.088225189662595,40.16949152542373,0.0,1.7246257386123876e-05,8.1029213503957067e-05,3.5123263573115633e-05,4.0275179587111136e-05,6.8980528799916636e-05,1.7917594692280547,-3.0889210753864682,2.8820670670537716,0.012835361746575451,5
1480110570,0.0,42.338754921259707,-71.088225189662595,31.0,0.0,1.2871412206389886e-05,7.039438172468641e-05,3.5123263573115633e-05,4.1339067820933919e-05,6.2369085027127224e-05,1.945910149055313,-3.0888706359319982,2.8817309914437068,0.012816555783962316,5
1480110600,0.0,42.338754921259707,-71.088225189662595,36.666666666666664,0.0,1.0717976906538112e-05,7.039438172468641e-05,4.2545198448192429e-05,4.3766617271294978e-05,6.315403276930921e-05,1.945910149055313,-3.0888186788006387,2.8818878401666446,0.012818636194091099,5
1480110630,0.0,42.338754921259707,-71.088225189662595,36.666666666666664,0.0,9.7876773515991327e-06,7.0803664898792768e-05,4.2545198448192429e-05,4.5012421122398728e-05,5.7849842877616154e-05,1.7917594692280547,-3.0887967360540132,2.8818626135154553,0.012892797584973166,5
1480110660,0.0,42.338754921259707,-71.088225189662595,27.333333333333332,0.0,1.0503477629612177e-05,7.0803664898792768e-05,3.6910833489382124e-05,4.4657931659443152e-05,5.4875800843558046e-05,1.945910149055313,-3.0887846783178117,2.881032517856787,0.012933780527347059,5
1480110690,0.0,42.338754921259707,-71.088225189662595,27.333333333333332,0.0,6.7546825883528051e-06,5.9814899527654309e-05,3.6910833489382124e-05,4.6178306152709972e-05,5.209468771547534e-05,1.945910149055313,-3.0887715222446519,2.8810881950362166,0.012932963242105942,5
1480110720,0.0,42.338754921259707,-71.088225189662595,30.333333333333332,0.0,5.9200880880079666e-06,6.2970655978625452e-05,4.69694547828648e-05,4.8809873164220005e-05,5.8225579336331125e-05,1.7917594692280547,-3.0887572519466118,2.88149956896862,0.01294395659671835,5
1480110750,0.0,42.338754921259707,-71.088225189662595,30.333333333333332,0.0,8.0531411594425374e-06,6.7697188129350015e-05,4.2083746298493676e-05,5.0828032590185394e-05,6.1119276896817536e-05,1.945910149055313,-3.08878799172959,2.8816363158683997,0.012960482367786559,5
1480110780,0.0,42.338754921259707,-71.088225189662595,30.0,0.0,1.2322758699937062e-05,6.9263683583660709e-05,3.5026050116014935e-05,4.1970096752371698e-05,6.2542102968912272e-05,1.945910149055313,-3.0888310166234336,2.8816846480888421,0.012973446840310543,5
1480110810,0.0,42.338754921259707,-71.088225189662595,30.0,0.0,1.153663802480706e-05,6.9263683583660709e-05,3.5026050116014935e-05,4.3096611651387493e-05,5.85013588489022e-05,1.7917594692280547,-3.0888306970307462,2.8813869894632922,0.012986859591636568,5
1480110840,0.0,42.338754921259707,-71.088225189662595,39.666666666666664,0.0,1.0844438686062216e-05,6.0269132670480296e-05,3.0925555726812739e-05,3.9041804926531313e-05,5.8457370735555563e-05,1.945910149055313,-3.0887624782472574,2.8811790748524317,0.012991712413336572,5
1480110870,0.0,42.338754921259707,-71.088225189662595,49.666666666666664,0.0,1.2281721703838501e-05,6.7620578663914007e-05,3.0925555726812739e-05,3.9041804926531313e-05,5.8342242330587473e-05,1.945910149055313,-3.0887641992098289,2.8807918643011208,0.012991903061209441,5
1480110900,0.0,42.338754921259707,-71.088225189662595,48.333333333333336,0.0,7.6283622352453058e-06,6.8863161022947412e-05,4.8165709404946418e-05,5.4124634255842514e-05,6.671425943789025e-05,1.7917594692280547,-3.0888159787317302,2.8804130711248703,0.012999437781310833,5
1480110930,0.0,42.338754921259707,-71.088225189662595,38.333333333333336,0.0,1.3933191641271862e-05,8.0879974621628746e-05,3.2002704796348077e-05,5.6772604414869999e-05,6.6429231391383197e-05,1.945910149055313,-3.088805465122054,2.880537328910457,0.012943989878799286,5
1480110960,0.0,42.338754921259707,-71.088225189662595,39.333333333333336,0.0,1.3819304311067057e-05,8.0879974621628746e-05,3.2002704796348077e-05,5.143926260150328e-05,6.2610103940663407e-05,1.945910149055313,-3.0888036245497399,2.8808992636552131,0.012827985049531185,5
1480110990,0.0,42.338754921259707,-71.088225189662595,49.333333333333336,0.0,6.737170337895988e-06,6.4522004005855587e-05,4.261980768112001e-05,5.0079626062222571e-05,5.5696834707912148e-05,1.7917594692280547,-3.0887942569112155,2.8812198709847827,0.012745871055768151,5
1480111020,0.0,42.338754921259707,-71.088225189662595,50.0,0.0,1.5796540950695885e-05,6.7800291841161299e-05,2.6713424001489077e-05,3.5037798224178823e-05,6.2093767492988464e-05,1.945910149055313,-3.0888116486106085,2.8813079279025442,0.012704317236695984,5
1480111050,0.0,42.338754921259707,-71.088225189662595,47.666666666666664,0.0,1.5860096619062574e-05,6.7800291841161299e-05,2.6713424001489077e-05,3.7610255856528375e-05,6.2305477659937314e-05,1.945910149055313,-3.0888312864666858,2.8814067606464659,0.01273812298270377,5
1480111080,0.0,42.338754921259707,-71.088225189662595,37.666666666666664,0.0,1.0308893676737071e-05,6.4413366183530731e-05,3.2320567971190867e-05,4.6057228859609449e-05,5.7145642613353137e-05,1.7917594692280547,-3.0888008517426151,2.8812754243420984,0.012757574568715768,5
1480111110,0.0,42.338754921259707,-71.088225189662595,30.0,0.0,1.2882289905512736e-05,6.4413366183530731e-05,2.2964201210262267e-05,3.2520218946148586e-05,4.8257534829787102e-05,1.945910149055313,-3.0887630701058768,2.8812157993091501,0.012646170703866285,5
1480111140,0.0,42.338754921259707,-71.088225189662595,30.0,0.0,1.0477515432264883e-05,5.5961433641103408e-05,2.2964201210262267e-05,3.4401071571197019e-05,4.8433097345719554e-05,1.945910149055313,-3.0887892170433373,2.8813727769848052,0.012684998604963688,5
1480111170,1.6225937612915038,42.338756098208066,-71.088225500601581,33.684210526315788,0.027043229354858398,1.310363198454201e-05,7.3007014497619618e-05,3.1887161742843648e-05,4.0645006434638007e-05,5.4515822175630097e-05,1.7917594692280547,-3.0888271988481883,2.8814214650386254,0.012766496579689699,5
1480111200,1.7071573984838335,42.338766226345612,-71.088222523076723,54.230769230769234,0.028452623308063894,1.6479426699001063e-05,8.4847396113653078e-05,3.1887161742843648e-05,4.8659008280040427e-05,6.9476375663581064e-05,1.945910149055313,-3.0887864296045642,2.8811632478544444,0.0127955456767206,5
1480111230,3.6173102457136013,42.338759706859456,-71.08823371038784,39.074074074074076,0.06028850409522669,1.6151445073490183e-05,8.4847396113653078e-05,3.5218193056537018e-05,4.1593706447439955e-05,5.9193154135008644e-05,1.945910149055313,-3.0887729111988569,2.8810378409114499,0.012837830973075672,5
1480111260,3.245684614152339,42.33875413425389,-71.088238825183453,24.423076923076923,0.05409474356920565,1.3539843033652653e-05,7.4356272962260031e-05,3.5218193056537018e-05,3.6992102086762967e-05,5.2461215704149107e-05,1.7917594692280547,-3.0888046501931021,2.8808460958345417,0.012828963663366633,5
1480111290,0.0,42.338752658145815,-71.088239606536106,22.333333333333332,0.0,1.0241073917522745e-05,7.4356272962260031e-05,3.9823256005024242e-05,5.0741520891254521e-05,6.0281149898985573e-05,1.945910149055313,-3.0889134553031417,2.8804684586312739,0.012742041145284972,5
1480111320,0.0,42.338752658145815,-71.088239606536106,38.333333333333336,0.0,5.6346544814696281e-06,6.4429081047588375e-05,4.7503242781359302e-05,4.865563566643228e-05,5.6173390167282589e-05,1.945910149055313,-3.0889988490713516,2.8805837908012357,0.012736166666383872,5
1480111350,0.0,42.338752658145815,-71.088239606536106,50.0,0.0,8.1569720917132819e-06,5.6213561584182408e-05,3.0118932446545576e-05,4.2816775143826992e-05,4.9502568440224959e-05,1.7917594692280547,-3.089054901098272,2.8806745085105803,0.012754296891858216,5
1480111380,0.0,42.338752658145815,-71.088239606536106,50.0,0.0,1.0355254820055945e-05,5.8669732622444573e-05,3.0118932446545576e-05,3.753329459328837e-05,5.4215172654907964e-05,1.945910149055313,-3.089118510509322,2.8800026122099771,0.012794955409101414,5
1480111410,0.0,42.338752658145815,-71.088239606536106,50.0,0.0,1.4786047580363168e-05,7.9293686643722622e-05,3.3811969921927183e-05,4.592571866429087e-05,6.5623902838798207e-05,1.945910149055313,-3.0891458364224316,2.8797475090889555,0.012741961309919314,5
1480111440,0.0,42.338752658145815,-71.088239606536106,50.0,0.0,1.2626068527058283e-05,7.9293686643722622e-05,4.6945184304234375e-05,4.8431736953751636e-05,7.0459678891272637e-05,1.7917594692280547,-3.0891683552276663,2.8798626165914052,0.012649486436120816,5
1480111470,0.35696837066997567,42.338752483480867,-71.088240075399511,49.519230769230766,0.005949472844499594,1.3801180918590465e-05,6.5922267633973926e-05,2.5764478841120857e-05,3.7753357573690712e-05,5.7370720308477769e-05,1.945910149055313,-3.0891480456543867,2.8795988145602318,0.012602148185829873,5
1480111500,0.35696837066997567,42.338751782302452,-71.088241912970588,37.21153846153846,0.005949472844499594,1.5020598189413668e-05,6.7853047233723188e-05,2.5764478841120857e-05,3.5611808417181174e-05,5.9726909596173342e-05,1.945910149055313,-3.0891177602929973,2.8794666966831923,0.012449250616138316,5
1480111530,0.0,42.338751442769905,-71.088242791659297,25.666666666666668,0.0,9.0861660381897559e-06,6.7853047233723188e-05,3.8344461180158397e-05,5.0705570923000645e-05,5.8675178535367205e-05,1.7917594692280547,-3.0891809703925617,2.8800596528323634,0.012519685845628485,5
1480111560,0.0,42.338751442769905,-71.088242791659297,26.333333333333332,0.0,7.1425386331750949e-06,7.2376587458136525e-05,4.9952253820009626e-05,5.2126250614181665e-05,5.9526406592129552e-05,1.945910149055313,-3.0892437259650332,2.8803733233560647,0.012712525657247129,5
1480111590,0.0,42.338751442769905,-71.088242791659297,22.333333333333332,0.0,1.5277235402307188e-05,9.4774965240240571e-05,4.63118975515722e-05,5.2735923861742807e-05,7.0301271553290396e-05,1.945910149055313,-3.0892661762254972,2.8805082946938003,0.012741985687741399,5
1480111620,0.0,42.338751442769905,-71.088242791659297,20.0,0.0,1.9092992740220788e-05,9.4774965240240571e-05,4.0366088922047283e-05,4.4165028032117827e-05,6.3486701672144997e-05,1.7917594692280547,-3.0892533364529116,2.8808655737910733,0.012785341249767967,5
1480111650,0.0,42.338751442769905,-71.088242791659297,27.666666666666668,0.0,1.1687809100536233e-05,7.6598718297695182e-05,4.0366088922047283e-05,4.4166316927453475e-05,5.6560679019775757e-05,1.945910149055313,-3.0892261215349031,2.8810821239445885,0.012835750148226913,5
1480111680,0.0,42.338751442769905,-71.088242791659297,30.0,0.0,1.1291060328411047e-05,7.6598718297695182e-05,4.1831635728075014e-05,4.5191673437235327e-05,5.995050333868591e-05,1.945910149055313,-3.0892388691895358,2.8810803830040217,0.012857886669828155,5
1480111710,0.0,42.338751442769905,-71.088242791659297,29.333333333333332,0.0,7.0304712953487764e-06,5.8601512776268587e-05,3.9648254175504968e-05,4.2748756265688776e-05,5.461430708004549e-05,1.7917594692280547,-3.0892394639736671,2.8805593838540653,0.012772666612000065,5
1480111740,0.0,42.338751442769905,-71.088242791659297,19.333333333333332,0.0,8.7577772552595381e-06,6.7630693466034313e-05,3.9648254175504968e-05,4.6420633314195228e-05,5.7487435027200685e-05,1.945910149055313,-3.0891909611301869,2.8797300430132218,0.012798801223518199,5
1480111770,0.0,42.338751442769905,-71.088242791659297,10.0,0.0,8.6195484382823965e-06,6.7630693466034313e-05,4.0901734918563607e-05,4.6420633314195228e-05,5.8543259211883266e-05,1.945910149055313,-3.0891660311736726,2.8795226143892587,0.012889472452706399,5
1480111800,0.0,42.338751442769905,-71.088242791659297,20.0,0.0,1.119956870928618e-05,6.3136629912926982e-05,2.9389064353580634e-05,4.3879487412863249e-05,5.6366746353888146e-05,1.7917594692280547,-3.0891959648460166,2.8800984373277116,0.012887349174367265,5
1480111830,0.0,42.338751442769905,-71.088242791659297,40.0,0.0,1.2673709792397159e-05,6.3136629912926982e-05,2.9389064353580634e-05,3.8607782460139018e-05,5.9049393601316318e-05,1.945910149055313,-3.089266895636686,2.880014585229083,0.012872159506510985,5
1480111860,0.0,42.338751442769905,-71.088242791659297,50.0,0.0,8.7973547348487992e-06,6.3132311042657686e-05,3.2756480925809785e-05,4.5296137076192764e-05,5.3703742380212978e-05,1.945910149055313,-3.0892938652311615,2.8797081362091004,0.012845517142962202,5
1480111890,0.0,42.338751442769905,-71.088242791659297,50.0,0.0,1.1776438775526843e-05,7.7167159075632443e-05,4.4029019519487211e-05,4.6472625848674553e-05,6.1027566085282176e-05,1.7917594692280547,-3.0892570193967317,2.879677041541354,0.012816948563080315,5
1480111920,1.9298503217316596,42.338751926522356,-71.088246123425762,50.600000000000001,0.032164172028860995,1.178961019294138e-05,7.7167159075632443e-05,4.4029019519487211e-05,4.4596830196301364e-05,5.9178349952522881e-05,1.945910149055313,-3.0892317294766238,2.8794419756089886,0.012783253597037799,5
1480111950,1.9298503217316596,42.338751800793801,-71.088256533749458,50.600000000000001,0.032164172028860995,4.784054029224128e-06,5.5938975822440043e-05,4.2981091854298948e-05,4.4596830196301364e-05,5.2208246527507988e-05,1.945910149055313,-3.0892080753198026,2.8792448692502748,0.012816420855993171,5
1480111980,0.0,42.338751233222304,-71.08826014219882,50.0,0.0,6.6567216791995649e-06,6.364801392977942e-05,4.2981091854298948e-05,4.9159818753517948e-05,5.6862242562123218e-05,1.7917594692280547,-3.0892257223899464,2.8793187610178017,0.01290006612103895,5
1480112010,0.14846498026357385,42.338751980874683,-71.088259672765048,50.600000000000001,0.0024744163377262308,4.253450366858903e-06,6.364801392977942e-05,4.8896576650180779e-05,5.3069418418065478e-05,5.694186988134655e-05,1.945910149055313,-3.089217614987767,2.8795145725065971,0.01289319992065993,5
1480112040,0.14846498026357385,42.33875281068309,-71.088260427136333,50.600000000000001,0.0024744163377262308,4.2646121732214362e-06,5.6713741620675499e-05,4.5094308881441887e-05,4.7113133469741628e-05,5.3943981599861258e-05,1.945910149055313,-3.0892033718551781,2.8796319566084754,0.012887302438300385,5
1480112070,0.0,42.338752616236306,-71.088261399484296,50.0,0.0,7.5573587950360586e-06,6.6397118098399788e-05,4.5094308881441887e-05,4.5385126515243343e-05,5.2735307677603951e-05,1.7917594692280547,-3.0892475579981666,2.8800029257301651,0.012841529174446252,5
1480112100,0.0,42.338752616236306,-71.088261399484296,50.0,0.0,1.6151292292777603e-05,8.0624381537891117e-05,2.9062335557822706e-05,4.5037472772713213e-05,6.7145528791481233e-05,1.945910149055313,-3.0892604468399187,2.879782345836571,0.01280013167682586,5
1480112130,0.0,42.338752616236306,-71.088261399484296,50.0,0.0,1.7106713207447983e-05,8.0624381537891117e-05,2.9062335557822706e-05,4.4062197007035074e-05,7.0051465916474303e-05,1.945910149055313,-3.089259548058878,2.879379164476604,0.012809107918062928,5
1480112160,0.0,42.338752616236306,-71.088261399484296,50.0,0.0,1.3296187767804283e-05,8.0360099656696493e-05,4.4141930972203587e-05,4.8077668075386469e-05,6.868965510402534e-05,1.7917594692280547,-3.0892214329361334,2.879162553821295,0.012848776025773017,5
1480112190,0.08617399279391735,42.338753444855882,-71.088261205282208,50.57692307692308,0.0014362332132319558,1.3945722672056369e-05,8.0360099656696493e-05,4.2874027363045928e-05,4.5280955208085427e-05,6.7951244941038549e-05,1.945910149055313,-3.0892416865248289,2.8790700575810568,0.012888105284152986,5
1480112220,0.08617399279391735,42.338753759177244,-71.088261640496412,50.57692307692308,0.0014362332132319558,1.1685773108102733e-05,7.5157742803937919e-05,4.2874027363045928e-05,4.7791755295675155e-05,6.7373481531798451e-05,1.945910149055313,-3.0892708773405073,2.8791922968224775,0.012866807106664128,5
1480112250,0.0,42.338753161060005,-71.088262153855595,50.0,0.0,7.1838132739633745e-06,6.851944061470569e-05,5.0974885197480789e-05,5.1768476814083052e-05,6.3371620582381897e-05,1.7917594692280547,-3.089272537581961,2.8795730816687155,0.012868666451843784,5
1480112280,0.0,42.338753161060005,-71.088262153855595,50.0,0.0,1.2262379804625129e-05,8.0630991646395755e-05,3.8558693646346618e-05,4.9014891802772107e-05,5.783695983498392e-05,1.945910149055313,-3.0892589035830889,2.8795319936106836,0.0128641839927436,5
1480112310,0.0,42.338753161060005,-71.088262153855595,50.0,0.0,1.2968332754960691e-05,8.0630991646395755e-05,3.8558693646346618e-05,5.3962451547588697e-05,6.7560242062469079e-05,1.945910149055313,-3.0892174054115449,2.8795674051688569,0.012830317792351886,5
1480112340,0.0,42.338753161060005,-71.088262153855595,50.0,0.0,9.3830055949850125e-06,6.967739418161586e-05,4.0620327471384991e-05,6.2111363335108028e-05,6.5087305187934598e-05,1.7917594692280547,-3.0891896424570948,2.8798390029612819,0.012849747431398833,5
1480112370,0.0,42.338753161060005,-71.088262153855595,50.0,0.0,8.7261066010580496e-06,6.4019950921771499e-05,4.0620327471384991e-05,4.513943179831488e-05,5.6855590724836062e-05,1.945910149055313,-3.0891591663241758,2.8796421435921897,0.012898876582888715,5
1480112400,0.0,42.338753161060005,-71.088262153855595,50.0,0.0,6.3821547399741742e-06,5.4988092985618611e-05,3.4688904355565868e-05,4.513943179831488e-05,5.1408188962835457e-05,1.945910149055313,-3.0891413626713873,2.8794440772863226,0.012899164378973042,5
1480112430,0.0,42.338753161060005,-71.088262153855595,50.0,0.0,1.3340640842057401e-05,6.9854172293533945e-05,3.082703378837895e-05,3.9276488209882997e-05,5.5841986904960778e-05,1.7917594692280547,-3.0891457393696817,2.8793212467650435,0.012895926985514316,5
1480112460,0.0,42.338753161060005,-71.088262153855595,50.0,0.0,1.4759660462077041e-05,7.1007175933620651e-05,3.082703378837895e-05,3.9468362318518865e-05,6.2990395252471057e-05,1.945910149055313,-3.0892144155281471,2.8792187046614428,0.012873657551513443,5
1480112490,0.0,42.338753161060005,-71.088262153855595,50.0,0.0,1.4217883556287856e-05,7.1007175933620651e-05,2.8293281791296337e-05,3.9468362318518865e-05,5.7720024834525627e-05,1.945910149055313,-3.0892334716302483,2.8788939427755378,0.012839707826913757,5
1480112520,0.0,42.338753161060005,-71.088262153855595,50.0,0.0,1.5457169254418872e-05,7.8601525805514988e-05,2.8293281791296337e-05,5.0029490998003911e-05,6.229979754786867e-05,1.7917594692280547,-3.0891821822627334,2.8784096344224182,0.012874218218478783,5
1480112550,0.0,42.338753161060005,-71.088262153855595,45.666666666666664,0.0,1.046597081953775e-05,7.8601525805514988e-05,4.3109745892669261e-05,5.0443167186710512e-05,5.7335420760091095e-05,1.945910149055313,-3.0891674084661713,2.878300990313917,0.012860842305171856,5
1480112580,0.0,42.338753161060005,-71.088262153855595,43.0,0.0,8.0411642090289544e-06,6.9113589283920014e-05,4.3109745892669261e-05,4.8545858898321718e-05,5.7335420760091095e-05,1.945910149055313,-3.0891849862536271,2.8784015578133739,0.012831767861991914,5
1480112610,0.0,42.338753161060005,-71.088262153855595,37.333333333333336,0.0,9.8638449471995796e-06,6.9113589283920014e-05,3.6012707680507944e-05,4.6754061019988717e-05,5.12822565670346e-05,1.7917594692280547,-3.0891833069970129,2.8785013453763102,0.012840423957250248,5
1480112640,0.0,42.338753161060005,-71.088262153855595,32.333333333333336,0.0,1.3030376325390594e-05,7.5922786253419247e-05,3.6012707680507944e-05,4.9175592091908315e-05,6.558436772898855e-05,1.945910149055313,-3.0891541121510926,2.8792989477358604,0.012831278125766513,5
1480112670,0.0,42.338753161060005,-71.088262153855595,35.666666666666664,0.0,9.2593592961453724e-06,7.5922786253419247e-05,4.9519496154292264e-05,5.6044719130653308e-05,7.1019439305669091e-05,1.945910149055313,-3.0891493041489571,2.8800538296654454,0.012823601353472614,5
1480112700,0.0,42.338753161060005,-71.088262153855595,35.0,0.0,8.3591664504199848e-06,6.9281679226792367e-05,4.3109673807097916e-05,5.0989550635933587e-05,6.0322908692213736e-05,1.7917594692280547,-3.0891701427281433,2.8799707471379783,0.012846614568478685,5
1480112730,0.0,42.338753161060005,-71.088262153855595,41.666666666666664,0.0,8.744631960326737e-06,6.3457663797306197e-05,3.7694335396770065e-05,4.7278483147045216e-05,5.8823956879584719e-05,1.945910149055313,-3.0891576373848872,2.8793619740970953,0.012842297455206615,5
1480112760,0.0,42.338753161060005,-71.088262153855595,50.0,0.0,8.3745354888052869e-06,6.3457663797306197e-05,3.7694335396770065e-05,4.2951072694544939e-05,5.5047154002646346e-05,1.945910149055313,-3.0891376035629796,2.8791354093181156,0.012850491713769643,5
1480112790,0.0,42.338753161060005,-71.088262153855595,50.0,0.0,6.6243285353449941e-06,5.9658727303707498e-05,4.1340722284328248e-05,4.33034002176889e-05,5.2168123506187271e-05,1.7917594692280547,-3.0892134762889665,2.8792091080153561,0.012877459652265133,5
1480112820,0.0,42.338753161060012,-71.088262153855609,50.0,0.0,1.2226176617932256e-05,7.360356420124469e-05,3.1933765916213313e-05,4.4304767246511212e-05,5.6118692142653759e-05,1.945910149055313,-3.0892119043403041,2.8791520050020787,0.012806360483018345,5
1480112850,3.107299349447475,42.338755535348454,-71.088275038359754,47.399999999999999,0.05178832249079125,1.1874672694985714e-05,7.360356420124469e-05,3.1933765916213313e-05,5.0749397124713124e-05,6.029496178703443e-05,1.945910149055313,-3.0892184931696685,2.8793815967969758,0.012804526225079974,5
1480112880,3.582458655321808,42.338757234243204,-71.088288610593722,36.964285714285715,0.059707644255363464,4.9230763822686776e-06,6.2873960186786234e-05,4.7920824924924473e-05,5.2211554292864299e-05,5.8558407882155159e-05,1.7917594692280547,-3.0892319698711632,2.87987145482521,0.012835169052991334,5
1480112910,0.0,42.338756807187906,-71.088290065593199,30.0,0.0,8.164559553431154e-06,6.6787949454531485e-05,3.8798639938589482e-05,5.0210783280674014e-05,5.7938390181188858e-05,1.945910149055313,-3.0892056413744498,2.8799204207791886,0.01280462129500713,5
1480112940,0.0,42.338756807187906,-71.088290065593199,34.0,0.0,1.5589644371448356e-05,8.7793835354190719e-05,3.8798639938589482e-05,4.6147944851734474e-05,6.3638819430362665e-05,1.945910149055313,-3.0892280655750968,2.8800334485803814,0.012832034353094686,5
1480112970,0.0,42.338756807187906,-71.088290065593199,29.666666666666668,0.0,1.4845911318491362e-05,8.7793835354190719e-05,3.9795148067045395e-05,5.0657810682460953e-05,6.0263687403417589e-05,1.7917594692280547,-3.0892539472004485,2.8802794222784835,0.012882234542262802,5
1480113000,0.0,42.338756807187906,-71.088290065593199,15.666666666666666,0.0,9.9601405890350861e-06,7.5341442936541336e-05,5.0139611542752502e-05,5.2617744386855217e-05,7.1774526293952857e-05,1.945910149055313,-3.0892613804294604,2.8798770695856239,0.012869386374728601,5
1480113030,0.0,42.338756807187906,-71.088290065593199,13.666666666666666,0.0,1.1302352471100102e-05,7.5341442936541336e-05,4.1740096914710805e-05,5.4715778135867868e-05,7.1774526293952857e-05,1.945910149055313,-3.0892565454517773,2.8794981918029614,0.0128972993069411,5
1480113060,0.0,42.338756807187906,-71.088290065593199,18.0,0.0,1.0450391104486355e-05,6.7019839090155597e-05,3.9184381536363148e-05,4.3027090484824758e-05,6.1153612740335686e-05,1.7917594692280547,-3.0892353054271902,2.8795212412990252,0.012904004218939632,5
1480113090,0.0,42.338756807187906,-71.088290065593199,24.333333333333332,0.0,1.3273293067965983e-05,8.062840153450534e-05,3.9184381536363148e-05,4.684991542463876e-05,6.3309361897245773e-05,1.945910149055313,-3.0892060206569227,2.8794697854658358,0.0128619887005617,5
1480113120,0.0,42.338756807187906,-71.088290065593199,39.666666666666664,0.0,1.1441188175596049e-05,8.062840153450534e-05,4.5790908320818741e-05,4.8129576663124505e-05,6.047971157665423e-05,1.945910149055313,-3.0892023775576716,2.8793708636693673,0.012845493504913014,5
1480113150,0.0,42.338756807187906,-71.088290065593199,49.666666666666664,0.0,1.0193082609911872e-05,6.6325871609605359e-05,3.8665863131215342e-05,4.6826072127948961e-05,6.3298444224180975e-05,1.7917594692280547,-3.089241890796957,2.8794166146059084,0.012873030449175782,5
1480113180,0.0,42.338756807187906,-71.088290065593199,50.0,0.0,9.9779975032159552e-06,6.6325871609605359e-05,3.8665863131215342e-05,4.5783034200820539e-05,6.271311654815472e-05,1.945910149055313,-3.0892806548218297,2.8793538377862098,0.012839473095092343,5
1480113210,0.0,42.338756807187906,-71.088290065593199,41.333333333333336,0.0,1.1715917717838433e-05,6.1481820280392306e-05,2.1852910114952335e-05,4.5783034200820539e-05,5.4177551805196107e-05,1.945910149055313,-3.089266781767678,2.8791281769156258,0.012776849221811539,5
1480113240,0.0,42.338756807187906,-71.088290065593199,31.333333333333332,0.0,1.3786410802853706e-05,6.3936961932806107e-05,2.1852910114952335e-05,4.5913276515190417e-05,5.79402662817073e-05,1.7917594692280547,-3.0892234594277164,2.8791023469736281,0.012790358308267949,5
1480113270,0.04564042017854674,42.338756811551647,-71.088290057981254,30.660377358490567,0.0007606736696424457,1.2069810284866752e-05,6.3936961932806107e-05,2.7973464084852065e-05,4.1430267751456899e-05,5.9086039145377284e-05,1.945910149055313,-3.0891593182956059,2.8795530198735029,0.012800059845830599,5
1480113300,0.6828377855039527,42.338757852611927,-71.088288625257746,32.386363636363633,0.011380629758399211,1.1361872991451157e-05,6.0738785863698335e-05,2.7973464084852065e-05,4.2530722428934492e-05,5.8723174312305421e-05,1.945910149055313,-3.0891623845745726,2.8799602865123504,0.012828567448822841,5
1480113330,10.456617387520021,42.338760441032321,-71.088292331538469,20.0,0.174276956458667,6.3614843696419988e-06,6.2617045924119773e-05,4.5804425631591086e-05,5.2222740345083913e-05,6.1815728315379052e-05,1.7917594692280547,-3.0891764026434969,2.8798610072508546,0.012901679724340531,5
1480113360,0.0,42.338761459144116,-71.088296016744394,17.666666666666668,0.0,8.4778481544913828e-06,6.2617045924119773e-05,4.0389972465197631e-05,4.4090049014294718e-05,5.9612881738598799e-05,1.945910149055313,-3.0892008037919725,2.8799350019685801,0.012940072122595101,5
1480113390,0.0,42.338761459144116,-71.088296016744394,27.333333333333332,0.0,8.4375958876768644e-06,6.5063394772094988e-05,4.0389972465197631e-05,4.3656567450598497e-05,5.5544490661161626e-05,1.945910149055313,-3.0892192831532554,2.8801503203235868,0.012879697642888857,5
1480113420,0.0,42.338761459144116,-71.088296016744394,30.0,0.0,7.5382174393705968e-06,6.5063394772094988e-05,4.326842466904218e-05,4.4318756155782566e-05,5.3556778403709613e-05,1.7917594692280547,-3.0892449084583364,2.8798469815716601,0.012826610395423266,5
1480113450,0.0,42.338761459144116,-71.088296016744394,37.0,0.0,7.7224445227892597e-06,6.0230088376995952e-05,3.8856624502194995e-05,4.2287122478355003e-05,5.5129766969234901e-05,1.945910149055313,-3.0892673535543138,2.8796242080339458,0.012890833704076272,5
1480113480,0.0,42.338761459144116,-71.088296016744394,47.0,0.0,7.7422098841840577e-06,6.0230088376995952e-05,3.8856624502194995e-05,4.2292254989953327e-05,5.4003525814994821e-05,1.945910149055313,-3.089203746581227,2.8795149199992394,0.012849955935100814,5
1480113510,0.0,42.338761459144116,-71.088296016744394,50.0,0.0,5.658981658066009e-06,6.0531991015330007e-05,4.3278689692238834e-05,4.5061683857649051e-05,4.9423199473222653e-05,1.7917594692280547,-3.0891658240952768,2.8794258262470671,0.012814569259561951,5
1480113540,0.0,42.338761459144116,-71.088296016744394,35.0,0.0,6.3349874524333015e-06,6.4963238038322676e-05,4.7024375961495716e-05,4.8792139650709443e-05,5.9339077265710982e-05,1.945910149055313,-3.0892029682167816,2.8796046487245412,0.012824125452518386,5
1480113570,0.0,42.338761459144116,-71.088296016744394,25.0,0.0,6.7882243760111156e-06,6.4963238038322676e-05,4.3385649289676365e-05,5.1102598669600621e-05,5.9834349939769121e-05,1.945910149055313,-3.0892236466149221,2.879584764761614,0.012806383273783573,5
1480113600,0.0,42.338761459144116,-71.088296016744394,32.0,0.0,6.2457127789995799e-06,6.1522536363446277e-05,4.3385649289676365e-05,4.996563070658446e-05,5.8936212774277045e-05,1.7917594692280547,-3.0892121652027296,2.8796218009869885,0.012900420734423532,5
1480113630,0.0,42.338761459144116,-71.088296016744394,27.0,0.0,4.9364349469538432e-06,5.9969673375752017e-05,4.589879412820263e-05,4.7118408438476703e-05,5.4718014010881431e-05,1.945910149055313,-3.0891899539936456,2.8796717768654676,0.012949968974189726,5
1480113660,0.0,42.338761459144116,-71.088296016744394,15.0,0.0,6.1101062676484284e-06,6.1444532848264145e-05,4.0760948115213478e-05,4.6298316725121996e-05,5.200185218739642e-05,1.945910149055313,-3.089207634221856,2.8795458728189871,0.012876755621396885,5
1480113690,0.0,42.338761459144116,-71.088296016744394,17.0,0.0,7.2051146870824395e-06,6.1444532848264145e-05,4.0760948115213478e-05,4.8877564815048396e-05,5.8159801343962043e-05,1.7917594692280547,-3.0891999829332981,2.8795311764860951,0.012850981636766951,5
1480113720,0.0,42.338761459144116,-71.088296016744394,23.0,0.0,6.6826104616097112e-06,6.3028520806773298e-05,4.6369139312248304e-05,4.9132806725894999e-05,6.1280680255029819e-05,1.945910149055313,-3.0892056668304471,2.8797052598206201,0.012931280131143858,5
1480113750,0.0,42.338761459144116,-71.088296016744394,26.0,0.0,9.2596842505431657e-06,7.0245024639170549e-05,4.1568519068627537e-05,5.091169574331159e-05,6.2422324316255458e-05,1.945910149055313,-3.0892039507276716,2.8799394075302169,0.012952908057041742,5
1480113780,0.0,42.338761459144116,-71.088296016744394,28.333333333333332,0.0,8.8091835705151982e-06,7.0245024639170549e-05,4.1568519068627537e-05,5.2487847939469102e-05,6.0651932280045859e-05,1.7917594692280547,-3.0891955795488397,2.8802067782359999,0.012920862227194083,5
1480113810,0.0,42.338761459144116,-71.088296016744394,28.333333333333332,0.0,1.2283632786250835e-05,8.0669829134696512e-05,3.6470826478334584e-05,5.2212114671742067e-05,5.9910431326850105e-05,1.945910149055313,-3.0892354185626543,2.8800162828759741,0.012902403512925915,5
1480113840,0.0,42.338761459144116,-71.088296016744394,30.0,0.0,1.2380783517481733e-05,8.0669829134696512e-05,3.6470826478334584e-05,5.0180618819764756e-05,5.5890885909990476e-05,1.945910149055313,-3.0892420834964094,2.8795587049644342,0.012909408967154786,5
1480113870,0.0,42.338761459144116,-71.088296016744394,30.0,0.0,6.4888687595207793e-06,5.7608995790189925e-05,3.7978942516949105e-05,4.8216439227925312e-05,5.5154220644448161e-05,1.7917594692280547,-3.0892199351592651,2.8792993041107966,0.012942782008882818,5
1480113900,6.625983554709197,42.338761917693361,-71.088294872782768,31.346153846153847,0.11043305924515329,1.0434875717440449e-05,7.3837062232468031e-05,3.7978942516949105e-05,5.2523522657658342e-05,6.2379117423026808e-05,1.945910149055313,-3.0891874472460428,2.8791579117758954,0.012918449903612171,5
1480113930,1.2773422753653936,42.338761770563657,-71.088300406393458,31.59090909090909,0.02128903792275656,8.3260835391395744e-06,7.3837062232468031e-05,4.9731043128196607e-05,5.5975265217835532e-05,6.8494148448517962e-05,1.945910149055313,-3.0892214129451547,2.8791231296092117,0.012890433585402858,5
1480113960,0.0,42.338760998139499,-71.08830749995181,19.615384615384617,0.0,9.7159952816412496e-06,7.5456600580629828e-05,4.9731043128196607e-05,5.7633794565824799e-05,7.3026979068098311e-05,1.7917594692280547,-3.0892566079082879,2.87919827046789,0.0129013019060374,5
1480113990,0.0,42.338760998139506,-71.088307499951796,19.666666666666668,0.0,1.3109005111874373e-05,9.0025163415663684e-05,4.6219103762873604e-05,5.9088329571924033e-05,7.4350991388943545e-05,1.945910149055313,-3.0892466787849484,2.8796363692028164,0.012905364270873172,5
1480114020,0.0,42.338760998139506,-71.088307499951796,25.0,0.0,1.3048452150781852e-05,9.0025163415663684e-05,4.6219103762873604e-05,5.5948347018247878e-05,6.626947072892593e-05,1.945910149055313,-3.0892678243620426,2.8798431051072972,0.012896938222785415,5
1480114050,0.0,42.338760998139506,-71.088307499951796,26.0,0.0,5.9355910004751278e-06,6.3283450686544939e-05,4.5401465769503547e-05,5.2313785679249747e-05,5.9810187424618379e-05,1.7917594692280547,-3.0892176011993082,2.8796671149421051,0.012898542843782017,5
1480114080,0.0,42.338760998139506,-71.088307499951796,29.666666666666668,0.0,1.1742644987188145e-05,7.0953324251769691e-05,3.1963974985231343e-05,4.7497085886014117e-05,6.0824477419110321e-05,1.945910149055313,-3.0892100275818843,2.879055302568887,0.012895077424070742,5
1480114110,0.0,42.338760998139506,-71.088307499951796,24.666666666666668,0.0,1.436674243541705e-05,7.0953324251769691e-05,3.0812054454304085e-05,3.432483710617628e-05,5.6262283214684958e-05,1.945910149055313,-3.0892452213690373,2.8786005306719384,0.012879947311103413,5
1480114140,0.0,42.338760998139506,-71.088307499951796,15.666666666666666,0.0,7.2025234797913619e-06,5.2068598323748873e-05,3.0812054454304085e-05,3.7420830682215299e-05,4.7523444060463292e-05,1.7917594692280547,-3.0892637921442017,2.8783936417721065,0.012872149281312686,5
1480114170,0.0,42.338760998139506,-71.088307499951796,11.0,0.0,5.7403085646250223e-06,5.7578848310893065e-05,3.9626225047497554e-05,4.5971127407886878e-05,5.2655368935726814e-05,1.945910149055313,-3.0892580505008089,2.8779846876063155,0.012878002481274214,5
1480114200,0.0,42.338760998139506,-71.088307499951796,10.0,0.0,5.5604093819229341e-06,6.2215570585723526e-05,4.2849823873125723e-05,5.1161114138775214e-05,5.541049392929891e-05,1.945910149055313,-3.0892538526870332,2.8780891051686774,0.012867512862434372,5
1480114230,10.808620084098166,42.338763880453648,-71.088299846791728,17.432432432432432,0.18014366806830276,2.6350966387165078e-05,0.00012261977136785959,5.1090119073032982e-05,5.2723937285278521e-05,8.3977029461438984e-05,1.7917594692280547,-3.0933844150587269,2.8817900141323185,0.011815495746838788,5
1480114260,0.17533039858502852,42.33876644119912,-71.088292330276872,36.551724137931032,0.0029221733097504754,0.070724935757719987,0.166099897321458,5.4471246703747065e-05,0.00010692531022726853,0.080758379461685084,1.7770332013812693,-1.7703382027298973,1.3784800897021472,-0.69992269152893039,5
1480114290,12.095918203552763,42.338765087342594,-71.088305939396363,42.596153846153847,0.20159863672587938,0.10056459778842411,0.27912905797452714,0.0010499983500432916,0.007678774000240321,0.15849491183572373,1.8891591637540215,-0.15140375773279333,-0.18395555987965512,-1.3025412901518341,5
1480114320,14.935906503468521,42.338765875377213,-71.088306939851705,51.494358246404843,0.2489317750578087,0.10188834408665746,0.27912905797452714,6.5205581072596923e-05,0.0014465391723007786,0.020939574842416285,1.6581101035673729,1.1436228407300397,-0.24915709383719067,-1.4303611953538333,5
1480114350,12.106871722921523,42.338753986442619,-71.088252058415236,64.198040638877416,0.20178119538202538,0.0015282840003524509,0.0045817220963352279,6.5205581072596923e-05,0.00027202958453755797,0.0021433212758782136,1.945910149055313,1.4654203088696096,0.18003903200807989,-1.4770227793850843,5
1480114380,17.544613084161213,42.338756179030852,-71.088172392518658,77.901100929685796,0.2924102180693536,0.0033300757636676357,0.010009681992976041,0.00010656649297653158,0.00027202958453755797,0.0037020773301414804,1.8675843750169276,1.5651975326939882,0.56841156328333409,-1.4832560546332989,5
1480114410,12.868384145216105,42.338763351454553,-71.088200081219981,65.0,0.2144730690869351,0.0034603045669975843,0.010009681992976041,0.00010656649297653158,0.0003475153671767744,0.0026452095204185042,1.7105600837579242,1.3007607648227566,1.3946013447524468,-1.4690289685084152,5
1480114440,4.313167501793823,42.338750561077212,-71.088181270790173,65.0,0.07188612502989705,0.025544331128179647,0.076354795995759533,0.00012632574342036601,0.0015347578349268914,0.024331832870507053,1.7770332013812695,1.3188231043165779,0.65319613021808165,-1.411250355837417,5
1480114470,12.003390300083666,42.338712209105971,-71.088164274525241,65.0,0.20005650500139444,0.022434206076708769,0.076354795995759533,0.0020584314314077831,0.015242831073371045,0.033088827620047619,1.8043716191528454,0.73749601850147639,0.42570231439792738,-1.3670933273463128,5
1480114500,3.1809819597117297,42.338634234464656,-71.08813289172241,65.0,0.0530163659951955,0.062764413855434881,0.18810653754564355,0.0064109234277632239,0.01345800542269467,0.063429452712839091,1.7480673485460894,0.28568800532886734,1.0031206948888933,-1.3328019483252767,5
1480114530,20.319007748390295,42.338644871754155,-71.08810871254606,65.0,0.3386501291398382,0.089347465037248275,0.27196063403429482,0.0064109234277632239,0.068013325583191037,0.20845285522202406,1.9459101490553139,1.3290258947693947,-0.19266451414366578,-1.35541716847178,5
1480114560,27.006807976271535,42.338914774474091,-71.088308749724078,33.103448275862071,0.45011346627119225,0.26731694483396373,0.94087595816273584,0.062778536680727429,0.18156665122035864,0.3262320204866454,1.9459101490553139,1.6616714017335714,-1.0389758420513888,-1.3454063973277,5
1480114590,28.503631060538428,42.338987308683002,-71.088223726696228,26.363636363636363,0.47506051767564045,0.48753327270130359,1.7785424362561484,0.28288218141169574,0.47509295761097098,0.92388390054668945,1.791759469228055,2.0011236930760918,-1.1201013669481601,-1.1767633420385704,5
