TIMESTAMP,DISTANCE,AVG_LAT,AVG_LNG,GPS_ACCURACY,AVG_SPEED_BY_GPS,ACCLERATOR_STD,MAX_ACCLERATOR,MIN_ACCLERATOR,PERCENTILE_25_ACCLERATOR,PERCENTILE_75_ACCLERATOR,ACCLERATOR_ENTROPY,AVG_ROLL,AVG_YAW,AVG_PITCH,WEEK_DAY
1480086600,3.080520139329499,42.331611369193865,-71.109753873963925,33.333333333333336,0.05134200232215832,0.0030129978708707491,0.0064534345473133588,1.8760488147978389e-05,6.2346730449263727e-05,0.0032796837600319539,1.0549201679861442,-0.024709082211585551,0.76831741760496397,0.16966049003787495,5
1480086630,3.080520139329499,42.33159325011917,-71.109733887393432,31.481481481481481,0.05134200232215832,0.002387972989706646,0.0064534345473133588,1.6375617757839022e-05,1.7030317247975318e-05,9.8166989827908096e-05,1.7105600837579242,-0.010904174707972848,0.73112332675434555,0.1022309778767132,5
1480086660,0.0,42.331578754859407,-71.109717898137006,29.666666666666668,0.0,2.400904945280582e-05,7.4869041059985155e-05,3.8647330764990123e-06,1.5491803891500925e-05,4.3375386173644153e-05,1.945910149055313,0.0032043029848341188,0.69437266583382828,0.034949434566951987,5
1480086690,0.0,42.331578754859407,-71.109717898137006,19.666666666666668,0.0,2.058382001085002e-05,5.7089118038201035e-05,1.0777307578108368e-06,5.9026907790054125e-06,3.8736614360633049e-05,1.945910149055313,0.0036536516935431885,0.6950604967127586,0.035155403484089603,5
1480086720,0.0,42.331578754859407,-71.109717898137006,10.0,0.0,1.5243393259002336e-05,4.7811574412178826e-05,1.0777307578108368e-06,1.2353961507102446e-05,2.932630311288801e-05,1.7917594692280547,0.004094087340600322,0.69560704888363567,0.03529457658186775,5
1480086750,5.168194252599148,42.331579759290804,-71.109719412467513,10.0,0.08613657087665247,1.9724784138413113e-05,8.2055415408696319e-05,2.3735602896443905e-05,2.4923947953587011e-05,2.8305319206761969e-05,1.945910149055313,0.0044605232448778958,0.69533385535012615,0.035343031677734185,5
1480086780,5.168194252599148,42.331594825761755,-71.109742127425108,11.0,0.08613657087665247,2.6757695572474759e-05,8.2055415408696319e-05,1.0615033191224965e-05,2.1563324803427647e-05,5.053388234553481e-05,1.945910149055313,0.0047686371409614145,0.6960679852369438,0.035500354866103527,5
1480086810,0.0,42.331608887801309,-71.109763328052196,11.0,0.0,2.3602617003800274e-05,7.5841760886701445e-05,8.0534308022262395e-06,1.0671046443225635e-05,1.9242657929592273e-05,1.7917594692280547,0.0051928749793848997,0.69738489849564012,0.036164233770833748,5
1480086840,0.0,42.331608887801309,-71.109763328052196,16.666666666666668,0.0,0.01680353315195383,0.0480344218642626,8.0534308022262395e-06,1.1335479470743527e-05,2.0262577622032006e-05,1.8675843750169279,-0.031063617822297687,1.1602911185688929,0.018820464696888622,5
1480086870,6.596485992182215,42.331604633985449,-71.109742616369459,19.333333333333332,0.10994143320303691,0.016803060847064073,0.0480344218642626,8.9680225883292948e-06,1.0497299279306027e-05,2.4698132655506615e-05,1.8675843750169276,-0.066501743086674447,1.6232201207010537,-0.00084509841675880603,5
1480086900,13.52860562966558,42.331597950814647,-71.109698477267358,12.666666666666666,0.22547676049442636,6.8688758374906581e-06,2.7668601654084145e-05,7.6246186819000412e-06,9.0166983953351309e-06,1.1883859487792459e-05,1.7917594692280547,-0.076934319095360582,1.7774896369060083,-0.0094789033390896855,5
1480086930,13.763976474918929,42.331593548219992,-71.109645126453671,11.0,0.22939960791531547,6.881249673192088e-06,2.8964821105993619e-05,7.0534467604320828e-06,8.8595501828916663e-06,1.3460962263973866e-05,1.945910149055313,-0.076229081332573417,1.7773745976237301,-0.0098836223264812412,5
1480086960,13.571699501632052,42.331588574957415,-71.109584688740867,13.0,0.22619499169386753,2.2670742195592143e-05,7.4955936614057338e-05,4.3047807566792975e-06,9.3580063194447225e-06,2.2113947852398962e-05,1.945910149055313,-0.075709422637279186,1.7775193280039059,-0.010111069546891265,5
1480086990,6.744040534230124,42.331583841277578,-71.109537004093738,12.0,0.11240067557050207,2.4680590615690189e-05,7.4955936614057338e-05,4.3047807566792975e-06,6.6967634560572183e-06,1.4321902399636634e-05,1.7917594692280547,-0.075242598776271138,1.7778789024839687,-0.010249553105435551,5
1480087020,0.0,42.331582107620612,-71.109519833765106,10.0,0.0,6.7127654703269528e-06,2.3533259862385424e-05,5.1100801738200706e-06,9.7758352216694434e-06,2.1070537641433418e-05,1.945910149055313,-0.075066806093911725,1.7775582935155083,-0.010086468998329592,5
1480087050,0.0,42.331582107620612,-71.109519833765106,10.0,0.0,6.9673423201797306e-06,2.3533259862385424e-05,4.4313640178321843e-06,8.7245010675220991e-06,2.1070537641433418e-05,1.945910149055313,-0.074953424425991996,1.7772915972800529,-0.0099767145445438209,5
1480087080,0.0,42.331582107620612,-71.109519833765106,10.0,0.0,6.8648750816414824e-06,2.6280387571314227e-05,4.4313640178321843e-06,8.5146308337239948e-06,1.2528322235204468e-05,1.7917594692280547,-0.074755967080683591,1.777450976641145,-0.010120945766791617,5
1480087110,0.0,42.331582107620612,-71.109519833765106,10.0,0.0,6.3024976071236851e-06,2.6280387571314227e-05,6.8018069465123671e-06,8.3436243283930777e-06,1.3852821973261683e-05,1.945910149055313,-0.074618232138450216,1.7770847272521699,-0.01027812181699553,5
1480087140,0.0,42.331582107620612,-71.109519833765106,10.0,0.0,7.6515624549586695e-06,2.8706070265355233e-05,3.9014282461811657e-06,7.6271314115789266e-06,1.2843354520516536e-05,1.945910149055313,-0.074488305262627591,1.7765876398353628,-0.010325418292666502,5
1480087170,0.0,42.331582107620612,-71.109519833765106,10.0,0.0,8.2391968079294135e-06,2.8706070265355233e-05,3.9014282461811657e-06,5.9143913710523329e-06,1.182997647138067e-05,1.7917594692280547,-0.07434205461639308,1.776307802546125,-0.010452849629492283,5
1480087200,0.0,42.331582107620612,-71.109519833765106,10.0,0.0,2.3482847815009257e-06,1.2464162911827828e-05,4.9409459161092271e-06,6.1992716116871433e-06,9.0768874574654497e-06,1.945910149055313,-0.074246109143593086,1.7767944189114613,-0.010576434794116385,5
1480087230,0.0,42.331582107620612,-71.109519833765106,10.0,0.0,2.522797439343947e-06,1.2544503720268649e-05,4.4461338206824222e-06,6.1992716116871433e-06,9.4653540989276851e-06,1.945910149055313,-0.074132528956669649,1.7773042733042728,-0.010623106717610927,5
1480087260,0.0,42.331582107620612,-71.109519833765106,10.0,0.0,8.9437193539236393e-06,2.7961883934681109e-05,2.1677933964178989e-06,2.8682743043356496e-06,1.1811293044903018e-05,1.7917594692280547,-0.073985348530751699,1.7772549756046583,-0.010701580635129765,5
1480087290,0.0,42.331582107620612,-71.109519833765106,10.0,0.0,8.1460914795115418e-06,2.7961883934681109e-05,2.1677933964178989e-06,4.6216799252055284e-06,1.1206061413288174e-05,1.945910149055313,-0.073833645437922063,1.7766397655598156,-0.010725791544559413,5
1480087320,0.0,42.331582107620612,-71.109519833765106,10.0,0.0,3.2318249307463717e-06,1.3676697684576543e-05,3.5833954651745492e-06,7.6272593719036324e-06,1.1206061413288174e-05,1.945910149055313,-0.073662351875509305,1.7759731671130843,-0.010696026074697143,5
1480087350,0.0,42.331582107620612,-71.109519833765106,10.0,0.0,4.8008643845058468e-06,1.7838391659914517e-05,3.5833954651745492e-06,6.6079604021615108e-06,1.2345893269836475e-05,1.7917594692280547,-0.073567822366198632,1.7758453951584501,-0.010724271771459834,5
1480087380,0.0,42.331582107620612,-71.109519833765106,10.0,0.0,4.9834332668299362e-06,1.7838391659914517e-05,5.5203568727567045e-06,6.6387568405332598e-06,1.5127585521589109e-05,1.945910149055313,-0.07351986446520746,1.7761711027980156,-0.010733489070227873,5
1480087410,6.7501847540812685,42.331583120433912,-71.109549164838299,10.0,0.1125030792346878,5.3378978121647126e-06,1.7493814835516925e-05,1.475284683655334e-06,3.8709332013326427e-06,9.8038264342432332e-06,1.945910149055313,-0.073419795964309129,1.7762943233316189,-0.010792768574322986,5
1480087440,6.7501847540812685,42.331584168171808,-71.10957950732778,10.0,0.1125030792346878,5.6567115505675487e-06,1.7527647357882869e-05,1.475284683655334e-06,3.0782282942206448e-06,1.1277201616802645e-05,1.7917594692280547,-0.073374717390688529,1.7763898037512498,-0.010913027060872951,5
1480087470,0.0,42.331584203096405,-71.109580518744096,10.0,0.0,4.5548376600331933e-06,2.1088948239511165e-05,7.5797193262652268e-06,9.666745364426913e-06,1.5440442681338717e-05,1.945910149055313,-0.073332538421717275,1.7762134855574787,-0.010912275029555871,5
1480087500,0.0,42.331584203096405,-71.109580518744096,10.0,0.0,5.4758070470548191e-06,2.1088948239511165e-05,1.9333681947493273e-06,7.7668665683078134e-06,1.2464143581664066e-05,1.945910149055313,-0.073287507609939337,1.7763285776192499,-0.010891200425816913,5
1480087530,0.0,42.331584203096405,-71.109580518744096,10.0,0.0,5.1725382821113177e-06,1.7926033166750661e-05,1.9333681947493273e-06,8.5209088486337178e-06,1.4520224816964515e-05,1.7917594692280547,-0.073253180432110099,1.776282803422635,-0.010846318149095285,5
1480087560,0.0,42.331584203096405,-71.109580518744096,10.0,0.0,5.0640121430794967e-05,0.00015580781978276153,3.6631044648596468e-06,9.8631273944605849e-06,1.6714635397628223e-05,1.945910149055313,-0.073271136022222128,1.7760685093317814,-0.010758514088949627,5
1480087590,0.0,42.331584203096405,-71.109580518744096,10.0,0.0,5.1470945581131292e-05,0.00015580781978276153,3.6631044648596468e-06,6.1612183562982061e-06,1.601451193294238e-05,1.945910149055313,-0.073275095777392857,1.7764167077531101,-0.010605222216201499,5
1480087620,0.0,42.331584203096405,-71.109580518744096,10.0,0.0,1.4285235966981606e-05,4.4877761465438796e-05,3.1560504379211482e-06,6.0556598258859877e-06,1.7008019913022668e-05,1.7917594692280547,-0.073189925042036544,1.7764577929176781,-0.010597424159851015,5
1480087650,0.0,42.331584203096405,-71.109580518744096,10.0,0.0,1.353316635885687e-05,4.4877761465438796e-05,3.1560504379211482e-06,9.0150860142995403e-06,2.4042827053638795e-05,1.945910149055313,-0.073058225156746051,1.7760869559298527,-0.010644820450328172,5
1480087680,0.0,42.331584203096405,-71.109580518744096,10.0,0.0,4.1591281052270136e-05,0.00013139430776882614,7.3061787359196432e-06,8.9023691327349247e-06,2.4042827053638795e-05,1.945910149055313,-0.073024590206765577,1.775977027242273,-0.010555740568314072,5
1480087710,6.610280770353927,42.331589003831475,-71.109609201616735,10.0,0.11017134617256545,4.49684147247006e-05,0.00013139430776882614,7.6728016071715869e-06,1.0213984070561274e-05,1.3160202864666547e-05,1.7917594692280547,-0.072953526271186106,1.7757379128857746,-0.010581238102474617,5
1480087740,6.610280770353927,42.331593970109118,-71.109638873553934,10.0,0.11017134617256545,1.5375454149752707e-05,5.5883730918015444e-05,8.1480784829452782e-06,1.1485179887440138e-05,1.5528288520602318e-05,1.945910149055313,-0.072807029987151189,1.7757633714683929,-0.010632073395853484,5
1480087770,0.0,42.331594135651706,-71.109639862618508,10.0,0.0,1.4894471720116058e-05,5.5883730918015444e-05,8.1480784829452782e-06,1.3378248451743133e-05,1.6882371133861957e-05,1.945910149055313,-0.072800205368669185,1.7759873895654426,-0.010631500482932028,5
1480087800,0.0,42.331594135651706,-71.109639862618508,10.0,0.0,5.1670832715063716e-06,2.5461208697161917e-05,1.016359654831416e-05,1.1082026816336401e-05,1.6320281634959053e-05,1.7917594692280547,-0.072799423151627782,1.7765522472896713,-0.010671559064366216,5
1480087830,0.0,42.331594135651706,-71.109639862618508,10.0,0.0,5.9430022803699428e-06,2.5461208697161917e-05,7.1593297218153699e-06,9.9968845792270438e-06,1.4252965315752488e-05,1.945910149055313,-0.072657735614807817,1.7769209213925587,-0.010691994568028359,5
1480087860,0.0,42.331594135651706,-71.109639862618508,10.0,0.0,3.1443590278805708e-06,1.8061233831339157e-05,7.1593297218153699e-06,9.8011825624500476e-06,1.0648322335850513e-05,1.945910149055313,-0.07246983482276724,1.7770089986269484,-0.010690778436773588,5
1480087890,0.0,42.331594135651706,-71.109639862618508,10.0,0.0,3.0196615318222974e-06,1.3407621910161677e-05,3.4925224674468945e-06,8.8848545881515599e-06,1.0759155576384007e-05,1.7917594692280547,-0.072111354072517495,1.7772832532189469,-0.010781037476226133,5
1480087920,0.0,42.331594135651706,-71.109639862618508,10.0,0.0,3.3476261353134051e-06,1.3407621910161677e-05,3.4925224674468945e-06,5.7362844729645232e-06,1.0634516100690303e-05,1.945910149055313,-0.071898348967227563,1.7776622665364503,-0.010878870791327043,5
1480087950,0.0,42.331594135651706,-71.109639862618508,10.0,0.0,3.7656553548590179e-06,1.5649187336502233e-05,4.1362648742682104e-06,8.9816542035659475e-06,1.3860570797145321e-05,1.945910149055313,-0.071952630224716652,1.7778601957629099,-0.010852367912100314,5
1480087980,0.0,42.331594135651706,-71.109639862618508,10.0,0.0,4.4511791496550549e-06,1.5649187336502233e-05,3.155255134550254e-06,7.4716687789514391e-06,1.4132673176282898e-05,1.7917594692280547,-0.071979339965219616,1.7781335259462316,-0.010811471792919818,5
1480088010,7.010980417430051,42.331593513295367,-71.109668226978854,10.0,0.1168496736238342,0.00022315539209230337,0.00064528221454824685,3.155255134550254e-06,6.7154179039917032e-06,1.0710669311215427e-05,1.945910149055313,-0.076361218334915965,1.7759231481444526,-0.0065671274115956264,5
1480088040,7.010980417430051,42.331592821788306,-71.109699742934808,10.0,0.1168496736238342,0.00022116322575182768,0.00064528221454824685,3.6731365609550988e-06,6.1982898828626319e-06,3.2787334289545484e-05,1.945910149055313,-0.078180675852847201,1.7728720546930616,-0.0038932180964472152,5
1480088070,0.0,42.331592752637604,-71.1097028945304,10.0,0.0,1.7947462597103885e-05,5.2657072542133508e-05,4.7679658876658604e-07,4.0893599154248587e-06,8.9303699157502047e-06,1.7917594692280547,-0.076040216443213626,1.7711104152714281,-0.0046792967881736048,5
1480088100,0.0,42.331592752637604,-71.1097028945304,10.0,0.0,1.257627175505761e-05,4.0830432649624698e-05,4.7679658876658604e-07,4.5667346125132338e-06,9.140977644471174e-06,1.945910149055313,-0.076888785819728953,1.7721988333575516,-0.0039490233214226943,5
1480088130,0.0,42.331592752637604,-71.1097028945304,10.0,0.0,1.336697589556568e-05,4.0830432649624698e-05,2.1725973090289406e-06,5.4762002992440951e-06,2.2791755349537955e-05,1.945910149055313,-0.078304624827603267,1.7712012257546914,-0.003093988387307311,5
1480088160,0.0,42.331592752637604,-71.1097028945304,10.0,0.0,6.9340460107092437e-05,0.00019927221477941952,2.1725973090289406e-06,9.3658980298802908e-06,2.6090250329562894e-05,1.7917594692280547,-0.079059332745678751,1.7688396321206383,-0.0027662870279641268,5
1480088190,0.0,42.331592752637604,-71.1097028945304,10.0,0.0,0.00031127608519888395,0.00091107321396341956,6.2208953822194641e-06,7.7692051691696155e-06,0.0001088660009218835,1.945910149055313,-0.077258358561900109,1.7706958600988856,-0.0031512155986711263,5
1480088220,0.0,42.331592752637604,-71.1097028945304,10.0,0.0,0.00031623149320413627,0.00091107321396341956,6.2134201824063262e-06,6.5840418663964225e-06,8.8707585760768652e-06,1.945910149055313,-0.075600268989540823,1.77173236128218,-0.0039831430532283277,5
1480088250,6.759217931164765,42.331593300255307,-71.109731253302797,10.0,0.11265363218607942,6.4953823641473199e-07,7.1046004679883848e-06,5.1903238674108605e-06,6.3012043149679817e-06,6.9370130314109281e-06,1.7917594692280547,-0.075031328224313507,1.7712261100632081,-0.004685235684426913,5
1480088280,6.759217931164765,42.33159388698855,-71.109761637701794,10.0,0.11265363218607942,2.7709341128215928e-06,1.2701576514132875e-05,3.3245569336591558e-06,5.1511088848408523e-06,7.4309793977590925e-06,1.945910149055313,-0.074932122065800327,1.7713901242602343,-0.0046982292046659916,5
1480088310,0.0,42.331593926104105,-71.109763663328394,10.0,0.0,3.2433120379126711e-06,1.2701576514132875e-05,3.3245569336591558e-06,4.5191980523090273e-06,9.3565984176135949e-06,1.945910149055313,-0.074827611204662622,1.771697062234477,-0.004699176504453428,5
1480088340,0.0,42.331593926104105,-71.109763663328394,10.0,0.0,2.5794184032703367e-06,1.0757725113632574e-05,3.9265022023472104e-06,5.4920481762528863e-06,9.9785958794323718e-06,1.7917594692280547,-0.074803387098359472,1.7715737278401431,-0.0047045600725995835,5
1480088370,0.0,42.331593926104105,-71.109763663328394,10.0,0.0,4.5647432547346453e-06,1.6626259191237551e-05,4.0431358259389666e-06,4.8780959002740379e-06,1.2271376701829881e-05,1.945910149055313,-0.074842727395364864,1.771367142944446,-0.0047172384965815436,5
1480088400,0.0,42.331593926104105,-71.109763663328394,10.0,0.0,4.578333473975862e-06,1.6626259191237551e-05,4.0431358259389666e-06,4.9234477001057038e-06,1.2091650298258922e-05,1.945910149055313,-0.074856987362087082,1.7717195734029529,-0.0046978446569053414,5
1480088430,0.0,42.331593926104105,-71.109763663328394,10.0,0.0,2.1225967287485114e-06,9.9298482663953303e-06,3.4999050265861438e-06,4.6604014175104871e-06,7.0054319137336296e-06,1.7917594692280547,-0.074824971402788529,1.7723911895315918,-0.0046998196645705896,5
1480088460,0.0,42.331593926104105,-71.109763663328394,10.0,0.0,1.8776530662505583e-06,8.6286793681944802e-06,2.3225928642508636e-06,4.0078196978764518e-06,5.9043646477123072e-06,1.945910149055313,-0.074777606097137725,1.7719529151212201,-0.00470483907360633,5
1480088490,0.0,42.331593926104105,-71.109763663328394,10.0,0.0,1.901079831344254e-06,8.6286793681944802e-06,2.3225928642508636e-06,5.4072587948826042e-06,7.2048059597625212e-06,1.945910149055313,-0.074757616907626764,1.7714779106174212,-0.0046908716353619775,5
1480088520,0.0,42.331593926104105,-71.109763663328394,10.0,0.0,2.8655164301325882e-06,1.4107873751045216e-05,5.2700569817876062e-06,6.4653039659125057e-06,8.1914239750281353e-06,1.7917594692280547,-0.074746901139629215,1.7717549271534283,-0.0046882193659076319,5
1480088550,0.0,42.331593926104105,-71.109763663328394,10.0,0.0,3.5108563097088284e-06,1.4107873751045216e-05,4.0611485374737415e-06,5.5389878952787616e-06,1.0261714910795767e-05,1.945910149055313,-0.074697993403848126,1.7716946719225299,-0.0046619463324682623,5
1480088580,0.0,42.331593926104105,-71.109763663328394,10.0,0.0,2.7854955577571697e-06,1.2261551038226784e-05,4.0611485374737415e-06,4.6702461847873802e-06,8.7629776953640572e-06,1.945910149055313,-0.074676196226836813,1.7711396736187728,-0.0046670161872308935,5
1480088610,0.0,42.331593926104105,-71.109763663328394,10.0,0.0,1.5513899306543886e-06,9.2108951599777387e-06,4.5427095290491752e-06,6.0508485171378879e-06,8.0576981346340712e-06,1.7917594692280547,-0.074745029594040863,1.7711160352533868,-0.0047404509505009082,5
1480088640,0.0,42.331593926104105,-71.109763663328394,10.0,0.0,1.2309358011804497e-06,7.5262581715737177e-06,3.9275627663359376e-06,5.6124794270987302e-06,7.2654372327795764e-06,1.945910149055313,-0.074692467274516242,1.77158378979748,-0.0047548487686229924,5
1480088670,0.0,42.331593926104105,-71.109763663328394,10.0,0.0,2.7137525202891363e-06,1.2134754456755292e-05,3.9275627663359376e-06,6.3862308825205246e-06,9.9369229151844608e-06,1.945910149055313,-0.074624075959457192,1.771797669105226,-0.0047581041876064477,5
1480088700,0.0,42.331593926104105,-71.109763663328394,10.0,0.0,2.328071131485093e-06,1.2134754456755292e-05,5.667386577939036e-06,6.9518779984614859e-06,1.0595137025849969e-05,1.7917594692280547,-0.074584778413803884,1.7714845484715467,-0.0047599828033732085,5
1480088730,0.0,42.331593926104105,-71.109763663328394,10.0,0.0,1.1908643534984279e-06,8.6535732308191792e-06,4.7484264149168357e-06,6.0118699086982598e-06,7.386595677805115e-06,1.945910149055313,-0.074564854198063621,1.7709157606879014,-0.0047092508578150576,5
1480088760,0.0,42.331593926104105,-71.109763663328394,10.0,0.0,1.9082624781163714e-06,1.0890846557549407e-05,4.7484264149168357e-06,6.7236810263605566e-06,9.1278556612608644e-06,1.945910149055313,-0.07456316760484516,1.7707763023287246,-0.0046962492801703717,5
1480088790,0.0,42.331593926104105,-71.109763663328394,10.0,0.0,1.1075031399950071e-06,1.0890846557549407e-05,7.7430964312147355e-06,8.5737151177325059e-06,1.0237004322997313e-05,1.7917594692280547,-0.074557686135979892,1.7705794889277915,-0.0047280014662387801,5
1480088820,0.0,42.331593926104105,-71.109763663328394,10.0,0.0,1.9130987584974831e-06,1.0548304804912841e-05,4.0887395761167803e-06,7.717877834597238e-06,9.1555683996475477e-06,1.945910149055313,-0.074535765702089862,1.7703228177561585,-0.0047200170480260146,5
1480088850,0.0,42.331593926104105,-71.109763663328394,10.0,0.0,2.5291225217325652e-06,1.0684086101919651e-05,3.7377576847594818e-06,4.7409009485033631e-06,8.8908158903807721e-06,1.945910149055313,-0.074514488072632279,1.7703914424102314,-0.0047444216750146201,5
1480088880,0.0,42.331593926104105,-71.109763663328394,10.0,0.0,2.9947087895973906e-06,1.2616499550177277e-05,3.7377576847594818e-06,5.9283406839800586e-06,1.0103691851169305e-05,1.7917594692280547,-0.07454683990774931,1.7705457965904232,-0.0047739555378926851,5
1480088910,0.0,42.331593926104105,-71.109763663328394,10.0,0.0,2.7616839317988757e-06,1.2616499550177277e-05,3.0936345690062166e-06,6.344255585406512e-06,8.9925393465136155e-06,1.945910149055313,-0.074552410685495826,1.7703876637695515,-0.0047330108097415899,5
1480088940,0.0,42.331593926104105,-71.109763663328394,10.0,0.0,3.2841396376562724e-06,1.3694798410897537e-05,3.0936345690062166e-06,5.1131316239624499e-06,8.1243854484192765e-06,1.945910149055313,-0.074537171732355675,1.7703853767815356,-0.0047622478883600156,5
1480088970,0.0,42.331593926104105,-71.109763663328394,10.0,0.0,3.2369382569998069e-06,1.3694798410897537e-05,4.4519374107159415e-06,4.8848902678441411e-06,8.9759702837805011e-06,1.7917594692280547,-0.074527609960365407,1.7706796486049567,-0.004822604417091334,5
1480089000,0.0,42.331593926104105,-71.109763663328394,10.0,0.0,2.3823563444440222e-06,9.248780739956855e-06,2.6918349484663606e-06,6.0030982311053787e-06,9.0063211661786617e-06,1.945910149055313,-0.074462786461184982,1.7712807884503643,-0.0047813365164374724,5
1480089030,0.0,42.331593926104105,-71.109763663328394,10.0,0.0,2.1247474236947753e-06,9.229837245512441e-06,2.6918349484663606e-06,5.5797494491911265e-06,8.3637683263265498e-06,1.945910149055313,-0.074391660978443505,1.7713527945901686,-0.0047923487767740913,5
1480089060,13.8724410791172,42.331590646684482,-71.109782542168304,10.596371311706262,0.23120735131862,0.02696624135024988,0.07237273640834789,5.4385002685027414e-06,6.2769318638616884e-06,3.4598171400112558e-05,1.710560083757924,0.001290780719987265,1.6263370767668937,-0.10665041154003307,5
1480089090,12.676292175755671,42.331596120765759,-71.109839715129837,22.159821191810465,0.2112715362625945,0.02913933700077153,0.07237273640834789,1.2591151249307214e-05,2.9517780721731366e-05,0.027568966115373114,1.8056165767134955,0.009926058948669856,0.52092744438329619,-0.092825215717319179,5
1480089120,0.9645816416002162,42.331605037015279,-71.109877791321978,35.288900704059849,0.016076360693336938,0.019257596132222454,0.055072081867863575,1.0438040965011513e-05,1.6396677789135659e-05,7.1554477558757418e-05,1.8675843750169276,-1.3583248733201643,-0.18995638769250028,-0.0017842266516332067,5
1480089150,2.34785393420345,42.331602668950993,-71.109875726960198,40.424960221351988,0.03913089890339083,2.4827153361658457e-05,7.7258592234858158e-05,1.0438040965011513e-05,1.7168865501444737e-05,5.4496332938436296e-05,1.7917594692280547,0.0001535745881816967,-0.20339546783395168,-0.01182900337610956,5
1480089180,1.1246183521687014,42.33159388970244,-71.109858999656012,48.073479480461963,0.01874363920281169,0.00058918613178525557,0.001699135975852441,1.2130624337976604e-05,2.6201689185347201e-05,0.00037628219441404766,1.945910149055313,1.4237455347576116,-0.33484558653632712,-0.39154984227117179,5
1480089210,30.377733006537362,42.33160591405796,-71.109895576109153,30.503686569429004,0.506295550108956,0.013691565177419698,0.040715367870201455,1.2130624337976604e-05,0.00037054159001356486,0.0045522472472879216,1.8675843750169276,-0.73413533679672704,0.17453968160027514,-0.94399633426355911,5
1480089240,14.867854154272752,42.331588657379456,-71.109974128726051,28.585667303160903,0.2477975692378792,0.12372246375584205,0.34021084510834676,0.00030195760627983628,0.0023360428542731869,0.031676019621429984,1.6581101035673729,-1.4509690443986842,1.2618613360761384,-1.3339722947370001,5
1480089270,2.9660567785547474,42.331557907669186,-71.110054761237578,26.024181895566183,0.04943427964257912,0.11910300978816941,0.34021084510834676,5.3654908704669215e-05,0.00095058743607866322,0.14315747221228634,1.8043716191528456,-1.1458049901345977,0.88546217448141795,-1.2985035475363003,5
1480089300,13.486500008694001,42.331560765898168,-71.109995693965914,23.851334617251283,0.2247750001449,0.06387652306677212,0.14701587768657026,5.3654908704669215e-05,0.00083244850612773581,0.072625617030949802,1.7770332013812697,-1.0295784578825198,1.0976827580399537,-1.0790071804056636,5
1480089330,6.137702368192544,42.3315982986636,-71.10992719146526,27.954354402538897,0.10229503946987574,0.012344717006100505,0.03130355828226266,0.00014744196688497904,0.0015849129227835026,0.017603652163650861,1.6581101035673729,-1.2171413492431669,1.8134484702922997,-1.0659649275150958,5
1480089360,26.146612585460126,42.331649064358636,-71.110028099800587,18.87412112002497,0.43577687642433544,0.083386535772830547,0.20659312864174728,0.0021605527066856853,0.018710783514237522,0.11586460451711317,1.8891591637540217,-1.2863626592984085,0.28192951151134094,-1.3014413886128513,5
1480089390,4.384110846973744,42.331669334594459,-71.11013005866775,10.064893061693075,0.07306851411622907,0.08517087433416487,0.20659312864174728,0.006566614448387245,0.011154850233910135,0.11487999509527141,1.8043716191528449,-1.0444531067657283,-0.76231824582551033,-1.3153937544741641,5
1480089420,3.1226514298031893,42.331663782980584,-71.110134725990847,10.064893061693075,0.05204419049671982,0.011314450229552141,0.034079863682240807,6.8782831915081927e-05,0.0066667859249985202,0.017019856490943199,1.6609474332869181,-1.4342154599155463,0.48025308588316168,-1.3079487513176484,5
1480089450,7.866947815822206,42.331639566963844,-71.110106983288304,12.994910276800001,0.1311157969303701,0.013370757450194315,0.034079863682240807,3.1838726054970573e-06,3.5471192384195414e-05,0.016640594379065843,1.8562701281920884,-1.3731070424558889,1.1810539668222815,-1.3270450061694044,5
1480089480,4.640304291215063,42.331607592098713,-71.110076610065164,15.592794206631861,0.07733840485358438,0.026032486814164119,0.074396875556529574,3.1838726054970573e-06,3.5471192384195414e-05,0.013581491147823213,1.8056165767134955,-1.5862709120147016,-0.72777981586722995,-1.3455251791334113,5
1480089510,3.5929309602352286,42.331568778299093,-71.110068176473604,13.023798549994826,0.05988218267058714,0.027722523867836735,0.074396875556529574,8.2499299165608536e-06,0.00011098354879308039,0.023700029440323477,1.6581101035673731,-1.7572956805314366,-1.9811499006812667,-1.3493569616348768,5
1480089540,9.938613141171153,42.33152614305012,-71.110063259090424,10.425914620162965,0.16564355235285255,0.16253921314082098,0.47978288775824873,8.2499299165608536e-06,0.00040064921348908523,0.036743532901521013,1.8640435797520256,-1.3653379182726986,-0.93190651364127175,-1.3545146552467071,5
1480089570,13.418339521557147,42.331511147126854,-71.109997964064704,10.0,0.22363899202595244,0.16071380837534704,0.47978288775824873,5.7584998666269136e-05,0.0032246399551732309,0.061363952346448265,1.8891591637540215,-0.75091326492029631,0.66798508386375988,-1.3581246897768973,5
1480089600,0.8370477157628646,42.331515299661397,-71.109946511752057,10.0,0.013950795262714411,0.030281898362334185,0.083206329476369675,3.5865458317856116e-05,4.6217064281141053e-05,0.0055805133758052667,1.7347645210257756,0.57650927342576253,2.239516923836852,-0.51085066327874717,5
1480089630,0.0,42.331522302741504,-71.109955525091905,10.0,0.0,0.0018198449958260869,0.0052319049816553177,6.1190362835004828e-06,2.31173366806929e-05,5.0332882312729394e-05,1.8675843750169276,0.43228885806881007,2.0873581657780287,0.34182106456108147,5
1480089660,0.0,42.331522302741504,-71.109955525091905,10.0,0.0,0.00023609260040501211,0.00060348835533029774,6.1190362835004828e-06,1.8933261348044581e-05,0.00027155528034300232,1.945910149055313,-1.3399214072357157,2.0835021351977088,0.30133290846415239,5
1480089690,39.38821275938478,42.331508691229253,-71.109886379978704,10.0,0.6564702126564129,0.00065171618894309803,0.0020942449657335273,2.6758505598190593e-05,0.00051452650049255762,0.0011482354507729648,1.7917594692280547,-3.0940522276598514,2.0348158735503183,0.26244647821517669,5
1480089720,76.88195710585319,42.331949878213308,-71.109695941365942,10.0,1.2813659517642197,0.02759560749058838,0.080852733579470801,0.00018948107805499869,0.0011080601393740242,0.0040235116645194122,1.8675843750169276,-2.2075388718964386,1.1077791289545222,0.20736288707709558,5
1480089750,61.023379145519854,42.332789017532377,-71.109541317983016,10.0,1.0170563190919977,0.027830885083304162,0.080852733579470801,0.00013554846433663952,0.00018842790922407766,0.0040235116645194122,1.8675843750169276,-2.2030679136922386,0.45173265976614196,0.17964088795633756,5
1480089780,9.89443004730857,42.333143677834734,-71.109543317063796,10.0,0.16490716745514283,0.00015160397425940806,0.00050902713116104026,0.00011859069786961517,0.00014850503335076879,0.00039639676543606385,1.7917594692280547,-3.069254972354948,0.4598932396944953,0.21067272879342736,5
1480089810,218.15387955322558,42.333169990472989,-71.109313331435075,10.0,3.6358979925537596,0.0083313116052300198,0.019976786842315932,1.9658504545451002e-05,0.00028376550473194917,0.01221228430743225,1.8562701281920881,-0.45596971428657013,-0.002581173833571006,0.25729203290325914,5
1480089840,470.8896177757412,42.333418441529041,-71.107508531871972,10.0,7.848160296262353,0.0080181981756101278,0.019976786842315932,1.9658504545451002e-05,0.00013507132042239723,0.01378294010181309,1.9254081650860659,0.41535166167420562,-0.44427640018567743,0.28392786421107868,5
1480089870,230.74440718078336,42.333784415929038,-71.105655393839157,10.0,3.8457401196797227,0.0031424300675454249,0.0088818567625356427,7.4506825781965683e-05,0.00021337332655462873,0.0015688047966976001,1.7105600837579242,1.0433246279815267,-0.54195565324501704,0.27933855491395132,5
1480089900,1.9694979138264357,42.333915668579117,-71.105365112955809,10.0,0.032824965230440595,0.0010534510655145497,0.0034629400841243666,0.00019821911479039547,0.00044242486710507662,0.0015919032238106488,1.945910149055313,1.3418298040433985,-0.54244637797855555,0.28309207682180559,5
1480089930,421.2909434034402,42.334232472388386,-71.104527855823846,10.0,7.02151572339067,0.0059439933033613142,0.016969945397773498,0.00019821911479039547,0.00079463070281686498,0.0069375442288958462,1.8056165767134955,0.44298246970676436,-0.6055356904720357,0.2790518015582607,5
1480089960,557.3878261687039,42.335115382254436,-71.102112339410098,10.0,9.28979710281173,0.00881088507266653,0.022703535881116801,0.0002671002347599697,0.00053537413070789928,0.015330496141746957,1.7347645210257756,-1.0401397400191532,-0.66126427845308611,0.21920794429707222,5
1480089990,125.57977825059058,42.335684881585038,-71.10043661116724,10.0,2.0929963041765096,0.0076838099465791039,0.022703535881116801,0.0002671002347599697,0.00031185863743206127,0.0016732522635329987,1.8675843750169276,-3.0704803708935171,-0.64663963620579246,0.15906764110005031,5
1480090020,266.98448426381714,42.335887027943834,-71.099944694033908,10.0,4.449741404396952,0.0064247320604930731,0.018661717986282265,0.00027245535028081315,0.00052376607513908164,0.005889935852558632,1.8056165767134955,-1.2926156709051912,-0.64293042647816478,0.19592362648006842,5
1480090050,529.3375515431053,42.336702033916815,-71.097939969106676,10.0,8.82229252571842,0.0061557888640515219,0.018661717986282265,0.00078580251442753144,0.0022862331480226847,0.010247569944298521,1.7347645210257756,-1.0335648934274448,-0.7077467504909446,0.23579807619518567,5
1480090080,669.8982153454448,42.337847360216408,-71.095019220906408,10.0,11.164970255757414,0.0052747787832811178,0.015783018311128071,0.00018144019071032145,0.0014164859328986029,0.0075953863577411136,1.8056165767134953,0.43852047494376273,-0.73553415910214681,0.25758434969088245,5
1480090110,583.4953515755914,42.338893682578728,-71.092255057526643,10.0,9.724922526259856,0.0090694458407065883,0.026311020796828677,0.00018144019071032145,0.0014031915335815546,0.010248442551962439,1.8056165767134955,2.2084494720099959,-0.97391140766934048,0.2695525668230207,5
1480090140,245.80118140468514,42.338621256011727,-71.090328552477501,10.0,4.096686356744752,0.011554387012756497,0.029205956231901427,0.00075921371579343484,0.0031502523447126418,0.021601920275164933,1.7347645210257754,2.0254671356092748,-0.97886427647705909,0.22839163695415499,5
1480090170,81.80587793852341,42.337584215198085,-71.089754287054475,10.0,1.36343129897539,0.0089831825223332263,0.029205956231901427,0.0010816958157710012,0.0029612134833397787,0.0068708320514310924,1.8562701281920886,3.0506386155843481,0.12465851505524718,0.25731630880642314,5
1480090200,175.47946878495262,42.338089299583054,-71.089928051034846,10.0,2.924657813082544,0.051728488766926983,0.15279499464078253,0.0010816958157710012,0.0023596632898151134,0.01229854598748055,1.7770332013812695,3.0861667672890785,0.68569292527113679,0.2784212246677133,5
1480090230,188.4646082379665,42.340037731322241,-71.090530724000857,10.0,3.1410768039661083,0.052274062681737933,0.15279499464078253,0.0018672636559424695,0.011388606929823001,0.058233790417940336,1.791759469228055,3.0708745569715035,0.42353128894692366,0.27680911266379521,5
1480090260,173.1522616903351,42.34238203375503,-71.090408528325042,10.0,2.885871028172252,0.022241578220192085,0.068892013900988772,0.00090967284359493538,0.0035151504834307415,0.021596609662056898,1.8937882323911377,1.3015161083015614,0.039858961548749149,0.24983505898065897,5
1480090290,58.43411311660429,42.343722032189696,-71.089953539493564,10.0,0.9739018852767382,0.0057894872322003278,0.016934099355318769,3.5102473530410748e-05,0.00018272644395745408,0.0035151504834307415,1.8056165767134953,-1.3185565380459014,-0.14902516624737489,0.20603066695026184,5
1480090320,99.89669537168565,42.34400344969923,-71.090025474383566,10.0,1.6649449228614275,0.0076300934076237508,0.020975961605038004,9.5199402698331107e-06,4.0094124530979874e-05,0.0026026429404729361,1.710560083757924,-1.0393053037883135,-0.15965502698991235,0.23224124442532049,5
1480090350,119.87409967296279,42.345027447950422,-71.090389299272658,10.0,1.9979016612160465,0.0088790191918268757,0.024577109312137725,9.5199402698331107e-06,0.0024023332139044861,0.015450002625430101,1.9254081650860668,1.2962683137830042,-0.25948787017380315,0.25239859877354315,5
1480090380,106.81126144228026,42.346154005771837,-71.090744841444405,10.0,1.780187690704671,0.0094020578899326746,0.024577109312137725,0.00026367039982297527,0.0011408230068135452,0.016145995045013135,1.9254081650860662,2.1845737322041172,-0.28470463674732371,0.26591885371531826,5
1480090410,196.63891246083298,42.346933670847079,-71.091478584866124,10.0,3.27731520768055,0.035244957550683367,0.099983377419658043,0.00026367039982297527,0.0014945262072668824,0.019607818520350019,1.6609474332869181,3.0627756735348686,-0.30265292769148883,0.2876732544182683,5
1480090440,234.7074935144253,42.348986347245393,-71.091900743610324,10.0,3.911791558573755,0.033704467403716173,0.099983377419658043,0.00084890334391363317,0.002133644395789175,0.0080469013766093968,1.8056165767134953,3.061274808206246,-1.1292002549175175,0.23667472599302086,5
1480090470,934.9382583490049,42.351298287084667,-71.089428923158991,10.0,15.582304305816747,0.001292792190562932,0.0047663680044309313,0.00084890334391363317,0.0010892193036766567,0.0026481691128607322,1.945910149055313,3.0748628986927691,-1.9643040994336363,0.238307585619667,5
1480090500,1521.4987307791364,42.353159872854469,-71.083527035146105,10.333333333333334,25.358312179652273,0.0081647300355035916,0.024059054500765276,0.0010046365366389572,0.0019745962536435449,0.0038342992222010837,1.710560083757924,3.0775076494038083,-2.4653583289766248,0.24983156392669961,5
1480090530,1275.8566789640365,42.355440418467012,-71.076718172270702,26.5,21.26427798273394,0.0079085910993681886,0.024059054500765276,0.00099363992439792707,0.0014711311226699871,0.0078454800401174182,1.8056165767134955,2.1985336353633431,-2.1535241425203457,0.23463120985857275,5
1480090560,578.8255839038634,42.358732686841954,-71.072824139825897,26.166666666666668,9.64709306506439,0.0034570511853712006,0.01131284495225255,0.00070373227870309304,0.0010978624427031261,0.0037698030402867097,1.8675843750169276,2.161026320477756,-1.6397970909698028,0.2012741137960487,5
1480090590,431.34017935705145,42.362331139661713,-71.071089443351212,10.0,7.189002989284191,0.0049731156665877053,0.015450438222271734,0.00070373227870309304,0.0017347611717908806,0.0039016507491189218,1.710560083757924,2.003951783308763,-1.3214202336664247,0.21677072297879729,5
1480090620,313.6054854099975,42.364888637133298,-71.069409202850494,10.0,5.2267580901666255,0.0049346264177020345,0.015450438222271734,3.3010050288679671e-05,0.0012127767554283011,0.0028447745483181799,1.8675843750169276,2.1650199847912481,-1.3853409930056428,0.32341565959144786,5
1480090650,89.28681614926091,42.366075398672706,-71.068520480833058,10.0,1.488113602487682,0.00097443798866496108,0.0030991399435377665,1.0859044879797712e-05,0.00029737398957632223,0.0012558866032825518,1.945910149055313,2.16567255463631,-1.3973849421783371,0.29790829666591556,5
1480090680,46.860481538948655,42.366324916055738,-71.068279502513874,10.0,0.7810080256491443,0.00044696683542398051,0.0012338114784908065,1.0859044879797712e-05,0.00012904058934087428,0.00081696795233675854,1.7917594692280547,2.0631458123420532,-1.342211746239115,0.23005941557771184,5
1480090710,5.046059725375612,42.366361292817018,-71.068237606967855,10.0,0.08410099542292686,0.00027454650582869829,0.00090204462682768986,0.00011427231883321472,0.00013856937307920447,0.00036265250068877883,1.945910149055313,3.0925734898250998,-1.2845420543758057,0.2463288029771083,5
1480090740,305.16640176977444,42.366792469790546,-71.068682913734619,10.0,5.086106696162907,0.016703585664211162,0.045784047635772415,0.00013343518308236079,0.00016964252863568775,0.013380123455331407,1.8056165767134955,3.0826126925121584,-0.63823129760476072,0.28099008479957399,5
1480090770,500.44821353856884,42.368127040604477,-71.070756901121769,10.0,8.340803558976146,0.059800596176626392,0.17679264335106651,0.0017351997870500347,0.010672684901851231,0.067520918829364215,1.791759469228055,3.0602265173707983,0.20603245521363719,0.28337870641533885,5
1480090800,268.68289946440603,42.370408514321191,-71.071646388686347,10.0,4.4780483244067675,0.060699501699896359,0.17679264335106651,0.00027960690709605653,0.001872029252670296,0.068485835157641922,1.8043716191528452,3.0452940556817389,-0.64639304902717876,0.24172406326585308,5
1480090830,423.8060135650749,42.372805408940081,-71.069949565987187,10.0,7.063433559417915,0.021233592660805652,0.062205127754722374,6.8319791616465203e-05,0.00021839486505626057,0.0047023427777669186,1.8056165767134955,3.0721117799596516,-1.5022798535380242,0.22509509674130168,5
1480090860,138.65899841564786,42.374108959727351,-71.068532303507524,10.0,2.310983306927464,0.0047601289063235177,0.013089812339992039,6.8319791616465203e-05,0.0011215005518209916,0.0088713501864105034,1.7917594692280547,3.0797573489945083,-1.5793528366493119,0.22498709049711119,5
1480090890,270.1668873585924,42.375797755357233,-71.068695088449005,10.0,4.502781455976541,0.004059649673759721,0.013089812339992039,0.0014216958117266971,0.0027228605181328731,0.0091206681025087603,1.9361470098309512,3.0591533026680504,-0.72034734174415804,0.25325470967465841,5
1480090920,649.1441506079432,42.379460995590669,-71.070721602133546,10.333333333333334,10.819069176799053,0.0026122451712775338,0.0087216596682825505,0.0014216958117266971,0.0032986369335996964,0.007049495038682586,1.8842428460867393,3.0707795491240928,-0.16319636975478288,0.23661647766396388,5
1480090950,360.41636083627475,42.384195162954171,-71.0723029557346,10.333333333333334,6.006939347271246,0.0024205924071395613,0.0071089576644280013,0.00042424330474537643,0.0015121821426735513,0.0053414038954181821,1.7917594692280547,3.0500973838485717,-0.4018679318801488,0.21743229825822183,5
1480090980,664.9099482463035,42.389059363671009,-71.07106494584221,10.0,11.081832470771726,0.0019902854704012363,0.0059734936597863695,0.00042424330474537643,0.0018319998100867108,0.0043505557857403962,1.8842428460867393,2.1561338274148381,-0.81119150186760147,0.21758379567888056,5
1480091010,502.4257998225448,42.392647433599826,-71.068692353154603,10.0,8.373763330375747,0.0024833933424455385,0.0073608123624295842,0.00073062264200847524,0.0016511271819233827,0.0059432063156545836,1.9361470098309514,2.1747400219590927,-0.8574674146861917,0.23481483198872297,5
1480091040,315.37472217691976,42.394561200209331,-71.067099243934337,10.0,5.256245369615329,0.0024513356714405223,0.0073608123624295842,0.00041326434816851593,0.00073277822108040519,0.002644375623240291,1.7105600837579242,3.0525122688542812,-0.81168586287326316,0.28076489566521978,5
1480091070,287.9217182548982,42.396261810830232,-71.065588151636589,10.0,4.798695304248303,0.0013081289035409814,0.0036334972581028783,0.00041326434816851593,0.00090232010601223227,0.0033325843995084745,1.945910149055313,2.1812202755635104,-0.48286765198614745,0.26405290862271402,5
1480091100,72.65788101464113,42.397420887641978,-71.064756223998103,15.666666666666666,1.2109646835773522,0.0025286819778423527,0.0089418365130043333,0.00064139485185315994,0.0017846439643612103,0.0035802901730949367,1.8675843750169279,2.1754858140307172,0.2284604351147404,0.27276066648707242,5
1480091130,4.202316380595806,42.397560876962103,-71.06473337271413,27.758620689655171,0.07003860634326343,0.0087753284992793442,0.026404098856691708,0.00041879237446774541,0.0024315615646105385,0.0081607423896426431,1.7347645210257754,1.7256272512768491,1.1088821173139356,-0.28130963804597769,5
1480091160,2.969617843412441,42.39753014428058,-71.064715598743959,21.896551724137932,0.04949363072354069,0.020519103192656544,0.059612779984119291,3.7330967020355471e-05,0.0031181261970126598,0.032077435347750566,1.8937882323911377,-0.52321922256686737,1.378007772789839,-1.1441772188381389,5
1480091190,14.999998517270429,42.39755063810609,-71.064782755515608,12.333333333333334,0.2499999752878405,0.034521912532508241,0.10022424917732525,3.7330967020355471e-05,0.0043160812207273689,0.048681775911464359,1.8937882323911377,-1.152338335652388,1.369665787294313,-1.358140906871834,5
1480091220,9.79075942823783,42.397591339929413,-71.064768291144702,24.333333333333332,0.16317932380396385,0.05126178255083029,0.12787668497502852,0.00028974762914425517,0.0037915954317459619,0.09353296520102633,1.7328679513998633,-0.91892817398797799,1.6043506555826517,-1.350417875786025,5
1480091250,4.016629093657273,42.397589301729958,-71.064751643288034,42.0,0.06694381822762122,0.047568206096242217,0.12787668497502852,0.0002321648254099068,0.00026781718792283918,0.037133779784546635,1.8056165767134953,-0.94406606193505616,1.8818290901361174,-1.3331348971576458,5
1480091280,3.611871374056006,42.397574611047652,-71.064764517891319,52.5,0.06019785623426677,0.0560274842708436,0.16117170912785669,9.5283963291071979e-05,0.000239025786055665,0.0028314666108947566,1.8675843750169279,-1.0854583168171239,0.95842290232677219,-1.3198381812858571,5
1480091310,7.665342256685788,42.397618968079222,-71.064735930013555,62.5,0.12775570427809646,0.059311435936169714,0.16117170912785669,1.2311960166898847e-05,0.00046390167945288118,0.0046286682108279374,1.7105600837579242,-1.1650870060779124,-0.0050935432703108074,-1.2831101795618467,5
1480091340,1.0966596797334915e-08,42.397653255651107,-71.064705317906146,135.0,1.8277661328891526e-10,0.0056547723367535328,0.015874918638660071,1.2311960166898847e-05,0.00010547046951649719,0.006813309078003725,1.8056165767134955,-1.2021976086016932,0.3728876830376292,-1.307176113060903,5
1480091370,0.0,42.3976532556511,-71.064705317906089,200.0,0.0,0.037623548961261598,0.11087716949937962,1.3408408512814509e-05,0.00011424711198419846,0.012775162362916591,1.7770332013812693,-1.2406634103889653,0.39394843526140327,-1.3235736158161271,5
1480091400,3.1565793327507174,42.397646262737545,-71.064667564589286,172.43321221090093,0.05260965554584529,0.040225139085153842,0.11087716949937962,3.0961693448217052e-05,0.00055191787948591776,0.010495062688813755,1.6581101035673731,-1.2161966335843737,0.25808559577471885,-1.3519684592582901,5
1480091430,3.1596993582253283,42.397660193617618,-71.064652042113352,76.404959240624777,0.05266165597042214,0.0043598157373141407,0.012955160571284622,1.780954192033148e-05,5.9080016285431103e-05,0.0026558395963370562,1.8675843750169276,-0.88627301419047322,0.57753194683373843,-1.4139070631025543,5
1480091460,0.0,42.397673917042511,-71.064677741444712,50.0,0.0,0.0033728371588847934,0.010028124400079844,1.780954192033148e-05,5.9080016285431103e-05,0.0018654494142037598,1.8675843750169276,-1.0977148630195956,0.46739599716825497,-1.3720273717045284,5
1480091490,24.947456052979064,42.397654788733334,-71.064654455675182,54.687395245355589,0.41579093421631774,0.0075121474975316472,0.021250437315131786,1.6466517712799454e-05,0.00048832313860905482,0.0088380559900693503,1.7347645210257752,-1.6785739502975476,-0.078520078773431368,-1.27729780488264,5
1480091520,29.145167438711272,42.397562095342053,-71.06447984372015,74.374604260232218,0.4857527906451879,0.011190815854505543,0.030971873213930478,1.6466517712799454e-05,0.00028510702520917106,0.01545151259725179,1.8640435797520258,-1.7657742427660137,-0.16850838704046772,-1.2726187605216517,5
1480091550,2.4896525556066025,42.397572252342357,-71.06444510981197,65.0,0.04149420926011004,0.010654912456486769,0.030971873213930478,1.1825377892375408e-05,8.0329922928115357e-05,0.010980155595875653,1.8562701281920884,-1.5616776200913023,-0.042722825126211006,-1.2937447602977257,5
1480091580,28.323037127173134,42.397602085305905,-71.064517799157528,60.384615384615387,0.4720506187862189,0.0045780888683267891,0.012307723312379512,1.6557214105261409e-06,6.3584747417873747e-06,6.4801549168052591e-05,1.7105600837579242,-1.2362773925963282,0.22011680147190349,-1.3259101333266317,5
1480091610,31.081141039191014,42.3976630927176,-71.064653078028115,51.578947368421055,0.5180190173198502,0.0005012460991366235,0.0014585664356092938,1.6557214105261409e-06,5.5957317527738616e-06,6.0363972254528017e-05,1.945910149055313,-1.5441900312201278,-0.042946256196036703,-1.3030359888166243,5
1480091640,0.0,42.397672701666501,-71.064678998730201,50.0,0.0,0.00049674062037138335,0.0014585664356092938,3.1875565834916437e-06,1.2779156649958632e-05,0.0001181334036291437,1.945910149055313,-1.5209426642674437,0.090042363314711313,-1.3036789308391943,5
1480091670,0.0,42.397672701666501,-71.064678998730201,50.0,0.0,6.9795045954334757e-05,0.0001950925216905042,1.7459561924883746e-06,2.7549400741608172e-06,1.8514679501238787e-05,1.7917594692280547,-1.5262668559380177,0.14977291073753171,-1.2871346517391318,5
1480091700,0.0,42.397672701666501,-71.064678998730201,50.0,0.0,0.023771078537932481,0.068189780559021113,1.7459561924883746e-06,3.6186523095153783e-06,0.00081857651183433555,1.8675843750169276,-1.4564193687408395,-0.070220297720398853,-1.2829783775165642,5
1480091730,0.0,42.397672701666501,-71.064678998730201,115.0,0.0,0.023267177238705375,0.068189780559021113,4.6265700479802147e-06,0.00049249744832385888,0.0064438811930476198,1.8056165767134955,-1.167524066566958,0.17010401050988366,-1.3631359106675114,5
1480091760,21.204964573668548,42.397667910011855,-71.064675819194932,167.0,0.35341607622780913,0.063419240354052539,0.17274112470329483,7.2050699017602178e-06,0.0009057921081447502,0.0087720611339438415,1.6581101035673729,-1.4662589392454617,-0.0032822791889794236,-1.3630552020366216,5
1480091790,14.407125577642747,42.39758098758049,-71.064643349099043,82.0,0.2401187596273791,0.52809503891384579,1.5561329350599069,7.2050699017602178e-06,0.0044827444989744758,0.15065637086370176,1.8891591637540219,-1.5105384969774043,-0.87614742395282241,-1.2960473496832201,5
1480091820,23.842663713270525,42.397537429623675,-71.064551855037976,10.0,0.39737772855450876,0.52721454239564758,1.5561329350599069,0.0043977430708198742,0.022107806399806015,0.53886858101174206,1.9459101490553139,-1.5982887547016311,-0.8685265486777235,-1.2744747689714429,5
1480091850,49.185898011273494,42.397715939015519,-71.064369401960704,10.0,0.8197649668545582,0.29366799218376022,0.7345215325106158,0.0043977430708198742,0.098733325607288272,0.64325893996997341,1.791759469228055,-1.9231081604605809,-0.11916972517892899,-1.2256220368083903,5
1480091880,34.942336903533075,42.39794908304922,-71.064178541834522,10.0,0.5823722817255512,0.50786834098013001,1.4941446312903894,0.0069550267206656075,0.35028480336585638,1.0228514037503778,1.8891591637540215,-1.6164418544901942,-0.3090858038930917,-1.1588066483875394,5
1480091910,19.95708742268458,42.398061859460917,-71.064068150772769,10.0,0.3326181237114097,0.57083250033046962,1.4941446312903894,0.011995535962607414,0.09208333698485463,0.88805500323467268,1.9459101490553139,-1.5086029990107579,-0.61155619413566031,-1.2112986208444565,5
1480091940,24.810964692249087,42.39814141140544,-71.06395390124159,10.0,0.4135160782041514,0.28686331157558537,0.82206228732252917,0.011995535962607414,0.033501563035621629,0.09523247232102347,1.791759469228055,-1.5429175471070613,-0.48669796819286942,-1.3310854134447216,5
1480091970,24.32593548608239,42.398164463036146,-71.063820696036387,10.0,0.4054322581013732,0.32157888942445317,0.82206228732252917,0.017256525453203764,0.044059182222818793,0.63050991938761636,1.8891591637540215,-1.3478357778809313,-1.1444913225562148,-1.2742296804907229,5
1480092000,16.998343656662637,42.397982652571422,-71.063784652455766,10.0,0.28330572761104394,0.25270063347418792,0.64908562240471035,0.0036759655361591342,0.049606599437242563,0.44001334894220157,1.9459101490553139,-1.5341518137181402,-2.0217937628391733,-1.2665419754556486,5
1480092030,2.4851619136439353,42.397857898420092,-71.063782040095944,10.0,0.041419365227398926,0.095705365871301698,0.26809248151388082,0.0025014753584164046,0.0038571127584421036,0.066257221735780372,1.6609474332869181,-1.4736820744271817,-1.6568578334734161,-1.3470532440107899,5
1480092060,4.9816293506166724,42.397904181892436,-71.063759325138378,10.0,0.08302715584361121,0.017206129859350796,0.051650721182499013,1.3330363173116464e-05,0.001258846109982104,0.013694150124483263,1.7770332013812695,-1.3442965682604469,-1.2419213937176996,-1.3077310444377617,5
1480092090,7.971659965155158,42.3979657323029,-71.063740495192889,13.666666666666666,0.13286099941925264,0.017128020709228611,0.051650721182499013,1.3330363173116464e-05,0.0005045533397906182,0.0075134531635444278,1.8562701281920886,-0.17616705225819121,-0.87664326414707971,-1.3119497100231658,5
1480092120,7.1074501881700005,42.398043829987195,-71.063705546847615,19.333333333333332,0.11845750313616668,0.0025446508729447428,0.0067974727573997641,3.0658014204866365e-05,0.00039624046502843532,0.0040716685960273825,1.7105600837579242,1.024562172048151,0.438620030176118,-1.4037694460176067,5
1480092150,15.564246120184077,42.398081972536069,-71.063724316722769,15.666666666666666,0.25940410200306796,0.087409809938403193,0.25328545713323641,3.0658014204866365e-05,0.00014486102181588984,0.013756743927159781,1.8056165767134955,-0.51086606418296632,-0.32916094918184896,-1.4415956335527718,5
1480092180,5.989656451115934,42.39805164890587,-71.063752973052743,14.666666666666666,0.0998276075185989,0.096736441399546347,0.25328545713323641,9.2364696271676855e-05,0.0010118910756431909,0.10910178455926411,1.8640435797520258,-1.4398879114535261,-0.44216731903031714,-1.4159554877802771,5
1480092210,2.7305125872116824,42.397994910406318,-71.063766938700411,18.666666666666668,0.04550854312019471,0.065421601631207985,0.188231325435744,0.0013018458861040908,0.0054652795268906613,0.029029605567986737,1.7480673485460896,-1.8634798482231734,0.31185312464981169,-1.1175241323517391,5
1480092240,6.246189096227244,42.397978216449168,-71.063759552846747,19.666666666666668,0.1041031516037874,0.0089484141758171837,0.026201691223594226,0.00079505424956118054,0.0015690156757002909,0.013926446900518762,1.7770332013812693,-2.525580970720013,-0.65805452292956002,-0.34702663897762481,5
1480092270,15.335090714284071,42.397982913108905,-71.063720195620405,19.333333333333332,0.25558484523806785,0.003713629760843109,0.011440707164649117,0.00013501920645800258,0.00077679396954367301,0.0026104898777912877,1.8675843750169276,-2.9294213019626976,-1.083017300733977,0.035486211407476008,5
1480092300,3.947146251149611,42.397971614303422,-71.063705261862893,15.333333333333334,0.06578577085249351,0.00047483270043647099,0.0015740450223137397,0.00013501920645800258,0.00082165549148761159,0.0013543792221105081,1.7917594692280547,-2.9340888791062603,-1.0891634167815467,0.039257183882280937,5
1480092330,7.799352221827211,42.39801656225918,-71.063731480455999,12.333333333333334,0.12998920369712016,0.00058734837075684137,0.0019763064780892394,9.2391396008336058e-05,0.0011855704415147418,0.0017464753972501186,1.945910149055313,-2.9407536700000541,-1.1293882978802543,0.036185757415747581,5
1480092360,1.7426782360324944,42.398063471580308,-71.063754015202676,10.666666666666666,0.02904463726720824,0.0007527767995553202,0.0019763064780892394,9.2391396008336058e-05,0.00065700455327580157,0.0018502326510851635,1.945910149055313,-2.9257311836512074,-1.2491258066476072,0.050036094179319056,5
1480092390,1.7244672612516916,42.398060785878819,-71.063756518597771,10.0,0.028741121020861526,0.00078201710425546698,0.0017815595299838292,7.6734697910118031e-05,9.3795611568910455e-05,0.0013843872670177379,1.7917594692280547,-2.8851734294144298,-1.4744494602024185,0.11013701759181767,5
1480092420,0.0,42.398057850117205,-71.063763275808711,15.0,0.0,0.0002637864392400172,0.00084972048230479884,6.9174438185967259e-05,8.3062137129550809e-05,0.0003532110115675679,1.945910149055313,-2.8906236906672587,-1.5095162624488128,0.098089922555995399,5
1480092450,3.178773653496112,42.398056838002397,-71.063764051134754,15.0,0.052979560891601864,0.10679063658635105,0.30557508629661723,5.1088322689550112e-05,0.00020504667233103491,0.00077596074214351723,1.8675843750169276,-2.8697410523991826,-1.4801001853346687,-0.14550029090033681,5
1480092480,7.625169337930772,42.397989076601696,-71.063791363566253,14.0,0.12708615563217954,0.11238057376024733,0.30557508629661723,5.1088322689550112e-05,0.00021106197334395249,0.017439268402315942,1.6581101035673731,-2.8255371165525567,-0.63015400962690704,-0.25863460148596129,5
1480092510,7.149474090227155,42.39793805386163,-71.063831461194042,14.0,0.11915790150378593,0.0078495876252229393,0.023018290869093846,9.2497396376892767e-05,0.00023676967790811512,0.0011359742951997376,1.8675843750169276,-2.8231028478222835,0.25889574654821951,-0.074236877455255312,5
1480092540,6.057290595326729,42.397964513434481,-71.063852805710454,10.0,0.10095484325544549,0.0011909350512536126,0.0039231536543139003,9.2497396376892767e-05,0.00052131536583509253,0.0011359742951997376,1.945910149055313,-2.8124034497971055,0.27244770295028059,-0.053709869401717583,5
1480092570,0.0,42.397975246461506,-71.063860589704518,10.0,0.0,0.001521008342471005,0.0039231536543139003,2.5485761608270903e-05,0.00035522445739886576,0.0030622797041518959,1.7917594692280547,-2.8134602987136614,0.26332263656438198,-0.053104399544201542,5
1480092600,0.0,42.397975246461506,-71.063860589704518,10.0,0.0,0.0022737082737696256,0.0067410916365272531,2.5485761608270903e-05,0.00031139677604961446,0.0029572262187338525,1.8675843750169279,-2.8084680329451617,0.25700394145686412,-0.056415262457175756,5
1480092630,0.0,42.397975246461506,-71.063860589704518,10.0,0.0,0.0022401085808606571,0.0067410916365272531,9.4013270081070162e-05,0.00020350072669722091,0.00058128971544976391,1.8675843750169276,-2.8096301003636914,0.23887185899277899,-0.056230212373020748,5
1480092660,0.0,42.397975246461506,-71.063860589704518,10.0,0.0,0.0018298446805695256,0.0051092403833605596,5.7262885555991074e-05,7.4763818762069173e-05,0.00053580294351571113,1.710560083757924,-2.8453988630403901,0.16144848220654365,-0.046354789490151281,5
1480092690,4.605664093367256,42.397971078560133,-71.063848931874205,10.333333333333334,0.0767610682227876,0.0017627355650940931,0.0051092403833605596,3.4231110143887193e-05,5.6061780305725258e-05,0.00011198440942705581,1.8675843750169276,-2.8629749079510041,0.10233794570801336,-0.037254741995162065,5
1480092720,4.605664093367256,42.397964037761433,-71.063828354301961,10.333333333333334,0.0767610682227876,0.0020297080424518639,0.0045819775570285354,3.4231110143887193e-05,5.9283953729842065e-05,0.0023540860457966798,1.945910149055313,-2.8430826239621223,0.11623240551031279,-0.040289801832267227,5
1480092750,0.0,42.397961164864114,-71.063819434560003,12.0,0.0,0.0018350170415544513,0.0045819775570285354,6.3707232404224695e-05,0.00071468301133891204,0.0041635645125154682,1.7917594692280547,-2.8261940928276883,0.1269917455391868,-0.048343033786036847,5
1480092780,2.359852258500466,42.397960261015562,-71.063823640878411,13.666666666666666,0.039330870975007766,0.002022529463899071,0.0059825850140288886,5.1672631690721001e-05,0.00012029441683926162,0.002950134830088531,1.8675843750169276,-2.8229859210464512,0.090576121062242818,-0.056231181401076503,5
1480092810,14.76853430220392,42.397966108790037,-71.063869304089877,11.666666666666666,0.24614223837006532,0.0024624099751346857,0.0060211639702470584,5.1672631690721001e-05,9.615619767551393e-05,0.0044992244405629381,1.8842428460867393,-2.8235135236173372,0.048101343427889895,-0.055413817093474697,5
1480092840,10.790159220350457,42.397962270576912,-71.063924269816908,10.0,0.17983598700584094,0.0022368672495935698,0.0060211639702470584,0.00011281216965787315,0.0010694047359888592,0.004933313661781305,1.7480673485460896,-2.8222795659355797,-0.029652239940706052,-0.053457613281997753,5
1480092870,11.761952318091947,42.397944232721265,-71.063897048189361,10.666666666666666,0.19603253863486578,0.0039089499352944514,0.012238404843506603,3.0910653710136546e-05,0.0012716374407324019,0.0038662971864983891,1.8842428460867393,-2.8201464185108986,-0.10579270905633852,-0.056508598767164353,5
1480092900,11.062741299358828,42.397933908311991,-71.063847347694491,10.666666666666666,0.18437902165598047,0.0047593671265308835,0.012238404843506603,3.0910653710136546e-05,9.9307777187479862e-05,0.0060852322119634497,1.8842428460867393,-2.7917074400431696,-0.052549651360227607,-0.025555078218752459,5
1480092930,0.0,42.397931031922212,-71.063838377661114,10.0,0.0,0.0037133937429971084,0.010051387970113658,4.2455620192982737e-05,6.4615730066615551e-05,0.000133692809734481,1.7105600837579242,-2.7412441260203035,0.012264576016969822,0.020568005181810449,5
1480092960,0.0,42.397931031922212,-71.063838377661114,10.0,0.0,0.00044987458585540391,0.0013563351557523791,4.2455620192982737e-05,5.7345181418923464e-05,9.8693748039753484e-05,1.945910149055313,-2.7330566540724486,-0.054869011091774854,0.020482593838980968,5
1480092990,0.0,42.397931031922212,-71.063838377661114,10.0,0.0,0.0017397622105237299,0.0050798458936469372,3.7519777569087979e-05,5.7345181418923464e-05,0.00071754754492516924,1.8675843750169276,-2.7325595417081567,-0.087328193624733069,0.018102018755292514,5
