TIMESTAMP,DISTANCE,AVG_LAT,AVG_LNG,GPS_ACCURACY,AVG_SPEED_BY_GPS,ACCLERATOR_STD,MAX_ACCLERATOR,MIN_ACCLERATOR,PERCENTILE_25_ACCLERATOR,PERCENTILE_75_ACCLERATOR,ACCLERATOR_ENTROPY,AVG_ROLL,AVG_YAW,AVG_PITCH,WEEK_DAY
1480171380,9.194138740456271,42.331654095991652,-71.109859204463334,65.0,0.1532356456742712,0.10520855061318066,0.22321837331511896,3.1343339658852545e-05,3.7334824224264962e-05,0.11163084981195431,1.0549201679861442,-0.014489375225806402,1.4492161240617352,0.063167748709196433,6
1480171410,4.1898806826824195,42.331578618881714,-71.109846478425126,36.774193548387096,0.06983134471137366,0.083175172430181216,0.22321837331511896,2.4345475203731604e-05,3.1721418865007705e-05,4.6803921618714713e-05,1.7105600837579242,-0.0013021537958292247,1.496054940302135,0.034367076514151135,6
1480171440,0.761255938587925,42.33157497660995,-71.109853095393873,32.372881355932201,0.012687598976465415,1.0800649645536799e-05,5.484068374999761e-05,2.4345475203731604e-05,3.1114905412602274e-05,4.7405922584176628e-05,1.7917594692280547,0.012071705285215993,1.5863345074362867,0.0058388271024828143,6
1480171470,7.164728140107405,42.331579025175735,-71.109882870755257,30.0,0.11941213566845675,2.4997400375093293e-05,0.00010369588875613173,2.717599575713492e-05,3.1194356276291191e-05,5.0287498200761341e-05,1.945910149055313,0.011800033123465692,1.6339512049863234,0.0026899388742915981,6
1480171500,0.0,42.33158156279692,-71.109905401310982,30.0,0.0,2.4641180415099276e-05,0.00010369588875613173,2.717599575713492e-05,3.2286580527597831e-05,4.2162703363639833e-05,1.945910149055313,0.011063223342588881,1.6409927911006119,-0.0026783663297733121,6
1480171530,5.973614609706092,42.331583040805846,-71.109908949649991,26.333333333333332,0.09956024349510154,5.4833922647325401e-06,4.6503961095063586e-05,3.0068026642941472e-05,3.1646595362701083e-05,3.7045089096562676e-05,1.7917594692280547,0.010479413052151642,1.6461832396491938,-0.0065635726353800812,6
1480171560,5.973614609706092,42.33159412587279,-71.109935562192561,17.333333333333332,0.09956024349510154,3.0653552973034926e-06,3.4716019489602468e-05,2.5215520436281796e-05,2.7803931224268308e-05,3.0800753079262283e-05,1.945910149055313,0.010367310773898452,1.6460746365462868,-0.0067881506990040488,6
1480171590,0.0,42.331603732930809,-71.109958626396121,11.0,0.0,3.0694767434325827e-06,3.090912193323178e-05,2.17669211799043e-05,2.4769905741911471e-05,2.8015172981972352e-05,1.945910149055313,0.010342250201146654,1.6457477533389715,-0.0068736042805240269,6
1480171620,0.0,42.331603732930809,-71.109958626396121,10.0,0.0,5.0306020027220405e-06,3.6587027556930385e-05,2.1749197505808523e-05,2.2434656405114524e-05,2.632958904995312e-05,1.7917594692280547,0.010331600542740906,1.6451598099456881,-0.0069152280031449286,6
1480171650,0.0,42.331603732930809,-71.109958626396121,10.0,0.0,6.432897361634691e-06,3.9636430497952815e-05,2.1749197505808523e-05,2.7649945273075376e-05,3.8030117422347141e-05,1.945910149055313,0.010268357708410459,1.6451306047265011,-0.006965129546464402,6
1480171680,0.0,42.331603732930809,-71.109958626396121,10.0,0.0,3.6386487305723479e-06,3.9636430497952815e-05,2.8561088280572509e-05,3.3014651412881887e-05,3.7504685303595513e-05,1.945910149055313,0.010247459755656007,1.6451472832240182,-0.0070152237212085114,6
1480171710,0.0,42.331603732930809,-71.109958626396121,10.0,0.0,5.2196819267571162e-06,3.4565202565020881e-05,2.1312596822119549e-05,2.4296263367396474e-05,3.3455983936960104e-05,1.7917594692280547,0.010265608883507525,1.6450591252930071,-0.0070309854838295294,6
1480171740,0.0,42.331603732930809,-71.109958626396121,10.0,0.0,3.3640932315084462e-06,3.0873254715637411e-05,2.1312596822119549e-05,2.2630220576174369e-05,2.7025571801260474e-05,1.945910149055313,0.010237986840760145,1.6448166734217224,-0.0070414011666491416,6
1480171770,0.0,42.331603732930809,-71.109958626396121,10.0,0.0,4.0996622911232361e-06,3.4828438102093129e-05,2.1838152672300458e-05,2.578025090043287e-05,3.0288534856733676e-05,1.945910149055313,0.010181881985310542,1.6443893340607882,-0.0070523134669101756,6
1480171800,0.0,42.331603732930809,-71.109958626396121,10.0,0.0,4.3383012632787006e-06,3.4828438102093129e-05,2.2348100791966038e-05,2.8529613740070583e-05,3.3799346951839864e-05,1.7917594692280547,0.010116876525538701,1.6440730983235119,-0.0070777979673692691,6
1480171830,0.0,42.331603732930809,-71.109958626396121,10.0,0.0,4.1474486320456412e-06,3.3816088661594969e-05,2.2348100791966038e-05,2.5104609086410732e-05,3.1308319284981245e-05,1.945910149055313,0.010129399477971512,1.6446918416431586,-0.007129455364259879,6
1480171860,0.0,42.331603732930809,-71.109958626396121,10.0,0.0,2.1751279352342312e-06,3.0889188188014686e-05,2.3661380007241348e-05,2.7219328198920784e-05,2.9308535754642827e-05,1.945910149055313,0.010130829085694638,1.6457428366206075,-0.0071823175017663001,6
1480171890,0.0,42.331603732930809,-71.109958626396121,10.0,0.0,3.6067189763726169e-06,3.5218485178846298e-05,2.3644059353091319e-05,2.6973470642668014e-05,3.0604279831485438e-05,1.7917594692280547,0.010094582521338198,1.6459821725786303,-0.0071809631580530839,6
1480171920,0.0,42.331603732930809,-71.109958626396121,10.0,0.0,4.2989410703251909e-06,3.5218485178846298e-05,2.3644059353091319e-05,2.4653833897731713e-05,3.008173253690183e-05,1.945910149055313,0.010075317018597468,1.6456168430668743,-0.0071954096331951229,6
1480171950,0.0,42.331603732930809,-71.109958626396121,10.0,0.0,3.9322844564924717e-06,3.3581264815658689e-05,2.301430366369316e-05,2.4653833897731713e-05,2.9634775344777905e-05,1.945910149055313,0.010046739660066974,1.6456836534083372,-0.0071930653583413351,6
1480171980,0.0,42.331603732930809,-71.109958626396121,10.0,0.0,4.3608027996118283e-06,3.2981353990081491e-05,2.2176795102323231e-05,2.3648358840657734e-05,3.196471049654717e-05,1.7917594692280547,0.0099986393465277441,1.6455888770364797,-0.0072125232896259883,6
1480172010,0.0,42.331603732930809,-71.109958626396121,10.0,0.0,5.7705307508529181e-06,3.2888969695479229e-05,1.5016365264845508e-05,2.378051272340857e-05,3.0606041241994484e-05,1.945910149055313,0.0099753953657111625,1.6455823482231542,-0.0072912680194494378,6
1480172040,0.0,42.331603732930809,-71.109958626396121,10.0,0.0,5.8922906109863147e-06,3.202014958423799e-05,1.5016365264845508e-05,2.0099618607034804e-05,2.6779738694367755e-05,1.945910149055313,0.0099648930921333156,1.6457115519163865,-0.0072786585786204765,6
1480172070,0.0,42.331603732930809,-71.109958626396121,10.0,0.0,5.5320176713753694e-06,2.6405156404635871e-05,1.2190517923236342e-05,1.579837271518708e-05,2.5235494556489746e-05,1.7917594692280547,0.0099306345348275423,1.6470321255147893,-0.0070237354727610418,6
1480172100,0.0,42.331603732930809,-71.109958626396121,10.0,0.0,5.8668993494090481e-06,2.9914338038161985e-05,1.2190517923236342e-05,2.1489633162350736e-05,2.68390382045925e-05,1.945910149055313,0.0099042051011642863,1.6483596332565023,-0.0067692896375650697,6
1480172130,0.0,42.331603732930809,-71.109958626396121,10.0,0.0,2.6396613269932291e-06,3.2397265234402199e-05,2.3781112570012778e-05,2.5960170098710232e-05,2.8669244265174344e-05,1.945910149055313,0.0098452438094186086,1.6485280457530822,-0.0067776332813106882,6
1480172160,0.0,42.331603732930809,-71.109958626396121,10.0,0.0,4.4472570230550125e-06,3.2397265234402199e-05,2.1519252387734906e-05,2.2745212236909094e-05,3.1113934366563638e-05,1.7917594692280547,0.0098346466344918435,1.6484536827283309,-0.0067855275022804433,6
1480172190,0.0,42.331603732930809,-71.109958626396121,10.0,0.0,4.8880089668752563e-06,3.3384972936472501e-05,2.1519252387734906e-05,2.2112543677302249e-05,3.1838298324378088e-05,1.945910149055313,0.0098533753929310637,1.6477931725514998,-0.0067980475729349527,6
1480172220,0.0,42.331603732930809,-71.109958626396121,10.0,0.0,5.3468368012695201e-06,3.3384972936472501e-05,1.767783109322052e-05,2.1457257939574161e-05,2.9844804818818619e-05,1.945910149055313,0.0097914553731750249,1.6473838981249558,-0.0068364622988476582,6
1480172250,0.0,42.331603732930809,-71.109958626396121,10.0,0.0,3.1552408040830949e-06,2.6950165608666305e-05,1.767783109322052e-05,2.1868248144729599e-05,2.5664501084367715e-05,1.7917594692280547,0.009747505299199365,1.6472594489388053,-0.006860930503172811,6
1480172280,0.0,42.331603732930809,-71.109958626396121,10.0,0.0,2.8000079927022861e-06,3.0018497600809945e-05,2.2482616179258e-05,2.3693462207563806e-05,2.8254988864719514e-05,1.945910149055313,0.0097266286168172494,1.6469502759427344,-0.0068655812826019774,6
1480172310,0.0,42.331603732930809,-71.109958626396121,10.0,0.0,2.9917659502188935e-06,3.0018497600809945e-05,2.2482616179258e-05,2.3067989867951469e-05,2.8646228200284342e-05,1.945910149055313,0.0097394162531224907,1.646429833772612,-0.0068759832182033092,6
1480172340,0.0,42.331603732930809,-71.109958626396121,10.0,0.0,4.1704145672628478e-06,3.4488383710582635e-05,2.3482688338385073e-05,2.3894489989946179e-05,3.067610134177536e-05,1.7917594692280547,0.009730245742046768,1.6458600482175758,-0.0069214439753563575,6
1480172370,0.0,42.331603732930809,-71.109958626396121,10.0,0.0,5.4489186229455959e-06,3.4488383710582635e-05,1.8685954643309134e-05,2.1571481337412054e-05,3.0016339313217428e-05,1.945910149055313,0.0096999402642234268,1.6460890794927927,-0.0069261050086926968,6
1480172400,0.0,42.331603732930809,-71.109958626396121,10.0,0.0,5.3085957765757175e-06,3.436851313260974e-05,1.8468856355002667e-05,2.0090200844398712e-05,2.5912336181568601e-05,1.945910149055313,0.0096831748738812149,1.6462037186170162,-0.0069122254413840822,6
1480172430,6.531169233227533,42.331598100291878,-71.109931284627976,10.0,0.10885282055379221,5.591136089043211e-06,3.436851313260974e-05,1.8468856355002667e-05,2.0508838650614013e-05,2.8755937601540205e-05,1.7917594692280547,0.0096447454612345971,1.6456797296556835,-0.0068753530817243008,6
1480172460,6.531169233227533,42.331592065321594,-71.109901989876391,10.0,0.10885282055379221,4.1144848896605856e-06,3.2158548357755782e-05,1.9528702389995067e-05,2.4867536957081064e-05,3.0397600423393412e-05,1.945910149055313,0.0096482021369225755,1.6453857017125344,-0.0068395813373597018,6
1480172490,0.0,42.331591662990242,-71.109900036892952,10.0,0.0,5.2233397647260701e-06,3.2158548357755782e-05,1.847266584405124e-05,2.0178855519040846e-05,2.9930626139534511e-05,1.945910149055313,0.0096059152575402058,1.645408850915004,-0.0068513459404331714,6
1480172520,0.0,42.331591662990242,-71.109900036892952,10.0,0.0,3.6025471266048606e-06,2.9035123295127863e-05,1.847266584405124e-05,1.9943407050201429e-05,2.4726150429856116e-05,1.7917594692280547,0.0096169696412361505,1.6457953801952419,-0.0068576626234323349,6
1480172550,0.0,42.331591662990242,-71.109900036892952,10.0,0.0,2.5356580882583168e-06,2.9035123295127863e-05,2.1402493870008897e-05,2.3367309780903195e-05,2.7334613286249909e-05,1.945910149055313,0.0096672074741556806,1.6460150927061448,-0.0068652169070028595,6
1480172580,6.487077965100433,42.331588187294393,-71.10988452478415,10.0,0.1081179660850072,5.4415129251649466e-06,2.7436040530740405e-05,1.3510902229533577e-05,1.7637090406525227e-05,2.6183242649987153e-05,1.945910149055313,0.0096400266234456296,1.6457047933463678,-0.0068385410154188286,6
1480172610,6.487077965100433,42.331581670364677,-71.109855439580144,10.0,0.1081179660850072,6.1971014974922102e-06,2.84807859630233e-05,1.3510902229533577e-05,1.6082276077170056e-05,2.7524506183678285e-05,1.7917594692280547,0.0096198190123949218,1.6452223806655004,-0.006877127079092573,6
1480172640,6.189803921197563,42.331577694548606,-71.109839100456895,10.0,0.10316339868662605,4.369116259076781e-06,2.84807859630233e-05,1.6563270054435683e-05,1.9198917591161929e-05,2.5517809319194154e-05,1.945910149055313,0.0096257034899852566,1.6453014825638197,-0.0068976380822988181,6
1480172670,6.189803921197563,42.33156834872657,-71.109811440176429,10.0,0.10316339868662605,3.1424487987236604e-06,2.7082921695274993e-05,1.6563270054435683e-05,1.8598742703258161e-05,2.1052205063880238e-05,1.945910149055313,0.0096131059350374037,1.6456481093316093,-0.0068455407052901143,6
1480172700,0.0,42.331559937486738,-71.10978654592401,10.0,0.0,4.4550380086331575e-06,2.7082921695274993e-05,1.3561322900150995e-05,1.9554614019552362e-05,2.4495616523948083e-05,1.7917594692280547,0.0096053618942067605,1.645420592048793,-0.0068268654951468615,6
1480172730,0.0,42.331559937486738,-71.10978654592401,10.0,0.0,4.0912655711447374e-06,2.5766432616236038e-05,1.3561322900150995e-05,1.6878764431560776e-05,2.2475546319296267e-05,1.945910149055313,0.0096032517210966981,1.6448167481928009,-0.0068350732984333636,6
1480172760,6.635852125047708,42.331556196363955,-71.109760721280338,10.0,0.1105975354174618,4.8309856526145546e-06,2.9877296261274338e-05,1.4531266266840276e-05,1.8795419272578958e-05,2.48795800384673e-05,1.945910149055313,0.0095606057717418733,1.6448589558268039,-0.0068900997453235141,6
1480172790,6.635852125047708,42.331551879683822,-71.109730923614563,10.0,0.1105975354174618,3.7389095759244729e-06,2.9877296261274338e-05,1.836457594887664e-05,2.5100887699110264e-05,2.8167115270899549e-05,1.7917594692280547,0.0095622564991925518,1.645113164228569,-0.0069267443501380586,6
1480172820,0.0,42.331551304126471,-71.10972695059246,10.0,0.0,5.9798108705938037e-06,3.0012636989164327e-05,1.4958373879063815e-05,1.6464192329094074e-05,2.7832739471287657e-05,1.945910149055313,0.0094934956446022425,1.6450301104652409,-0.0068678910644162294,6
1480172850,0.0,42.331551304126471,-71.10972695059246,10.0,0.0,5.532430279154271e-06,3.0012636989164327e-05,1.4958373879063815e-05,1.6464192329094074e-05,2.5117799420842549e-05,1.945910149055313,0.0096233776981752527,1.6466966164632761,-0.0066969110602866757,6
1480172880,0.0,42.331551304126471,-71.10972695059246,10.0,0.0,3.0204171199500578e-05,0.00010113339646040123,1.1473169207611169e-05,1.9722746916442702e-05,2.7418999582898479e-05,1.7917594692280547,0.009758497318549263,1.6514088921410721,-0.007174755769419474,6
1480172910,0.0,42.331551304126471,-71.10972695059246,10.0,0.0,2.7881817124896642e-05,0.00010113339646040123,1.1473169207611169e-05,2.227166640525285e-05,2.8865051593578377e-05,1.945910149055313,0.009819506189713759,1.6535552236794977,-0.0077757385086440322,6
1480172940,0.0,42.331551304126471,-71.10972695059246,10.0,0.0,1.3942326712886626e-05,5.7119539692375269e-05,7.7127432403306376e-06,2.227166640525285e-05,2.8855081139560932e-05,1.945910149055313,0.010077713706254094,1.6532351909780492,-0.0078532524085044037,6
1480172970,0.0,42.331551304126471,-71.10972695059246,10.0,0.0,7.9626915963341497e-05,0.00025092561900285791,7.7127432403306376e-06,3.3986712743103425e-05,7.3713073237223785e-05,1.7917594692280547,0.010508567311581868,1.652728263494913,-0.0078679971657026528,6
1480173000,5.149453231261658,42.331550780257523,-71.10972541670418,10.0,0.08582422052102763,0.00075902135675639615,0.0022358168887412211,2.085659011799568e-05,2.4531336235593756e-05,0.00016350925644032156,1.945910149055313,-0.030166077573933223,1.6274476802329907,-0.0070188677043484101,6
1480173030,22.115253930733644,42.331567109601885,-71.109772800999792,12.49098466578309,0.3685875655122274,0.018012457538701586,0.051344855308589787,2.085659011799568e-05,2.4531336235593756e-05,0.017734654263124445,1.7770332013812695,0.57993728885917484,1.9115394825040741,-0.16957840362643495,6
1480173060,27.01096788112497,42.331556412896454,-71.109875909584673,12.490984665783092,0.4501827980187495,0.017744584993699155,0.051344855308589787,4.4051036131671577e-05,0.0024349155067757626,0.023770207202403599,1.7328679513998633,1.5031702627453081,2.1149776601404233,-0.088624190795092359,6
1480173090,8.330139031047603,42.331548878962487,-71.109947256344469,10.0,0.13883565051746005,0.036544220375797999,0.10524733065176808,4.4051036131671577e-05,0.0019283916526457363,0.053662098812613267,1.8640435797520256,1.6083047993932189,-0.34200141117385535,0.18777724919770417,6
1480173120,3.0096655158611214,42.331575159022897,-71.109964180803956,10.413195987025883,0.05016109193101869,0.035962701592277102,0.10524733065176808,0.00025830493063304892,0.0052506018200516504,0.053662098812613267,1.9251211907908179,1.6483341038907173,-1.4664571094336425,0.14605582731822128,6
1480173150,5.594896566286561,42.331587956093564,-71.109954228690924,12.007722426844744,0.09324827610477601,0.012064128300458121,0.036420992044102748,0.00025830493063304892,0.0085045922182740187,0.024918776333965151,1.7328679513998633,1.5208186290623653,0.29919721314638648,-0.082929665861435894,6
1480173180,4.710889476913665,42.331571753176242,-71.109966882570745,11.594526439818859,0.07851482461522775,0.11270083105773805,0.33519637722090617,0.021124424506884031,0.031302276160214138,0.20469580940744447,1.9459101490553139,1.6212894119205845,-0.73420117295388299,-0.17980198736337322,6
1480173210,3.485455937174838,42.331528990103244,-71.1099658823303,10.0,0.0580909322862473,0.11877522369381159,0.33519637722090617,0.0010489918121403894,0.042408702890116431,0.23756357378529169,1.8937882323911377,1.9928833919492361,-1.1869202456905632,-0.1604832861651074,6
1480173240,1.7319033270981223,42.331511615116462,-71.109950532271625,10.0,0.028865055451635372,0.088430839347947404,0.2383087425229535,0.00015141414091306398,0.00088946304470481803,0.0016020912254886643,1.7105600837579242,2.1847681080995098,0.61887714895511603,-0.1228553104686106,6
1480173270,29.144845442040964,42.331515115259528,-71.109940623465093,10.0,0.48574742403401605,0.011271403480088324,0.033880196534611363,0.00015141414091306398,0.0011411739870444589,0.0099776816787218413,1.8562701281920884,2.4817904463833558,1.2378017817875047,-0.079800133715744792,6
1480173300,71.14040604947397,42.331825505812077,-71.109770111282572,10.0,1.1856734341578994,0.010469883903513328,0.033880196534611363,0.0022164549372314961,0.0032266333820195701,0.0099776816787218413,1.9036483899019154,2.7338826528931186,0.78064857155538758,-0.11899609885608889,6
1480173330,318.44809749101455,42.332692514335776,-71.109159968239638,10.0,5.307468291516909,0.010722027704193093,0.032045953519392129,0.00015100425660841328,0.0029033819458845183,0.007942487003033431,1.7347645210257752,2.7650559770340575,-0.39848706842166282,-0.05800101480089722,6
1480173360,724.4370524771201,42.333635505646562,-71.106817822346784,10.0,12.073950874618669,0.010151465798070223,0.032045953519392129,0.00015100425660841328,0.0020676699594428202,0.010511772767615224,1.9036483899019154,2.824692298985362,-0.52668857778937073,-0.037038948527882906,6
1480173390,692.1670119402478,42.334731483405768,-71.103140546075167,10.0,11.536116865670797,0.0040877944080784231,0.012230079748194678,0.00037048056659314254,0.00070350769155144526,0.0046571573688971198,1.8842428460867393,2.8299354790531743,-0.20817230459003347,-0.082611863304099614,6
1480173420,274.7665261684933,42.335555370703659,-71.100956301736744,10.0,4.579442102808221,0.00032446440882787564,0.0009928343391825481,2.9141851345080527e-05,0.00010176726942902456,0.00040325592458854249,1.7917594692280547,2.8742876515393285,0.22856475382379338,-0.11419281984711666,6
1480173450,314.62905771938733,42.335879911009542,-71.100071611414762,10.0,5.243817628656456,0.019491746036137292,0.057002050415536965,2.9141851345080527e-05,0.00011535651709984628,0.0064471894282219656,1.8056165767134955,2.9241211218398488,0.53737688914817938,-0.085481770284511982,6
1480173480,658.6513456599353,42.336787922580122,-71.097828727281751,10.0,10.977522427665587,0.019250546620287041,0.057002050415536965,0.000269533817738,0.0007468501996578615,0.0069034882648511021,1.8056165767134953,2.9057188773787126,0.60782598286861178,-0.064774775141053564,6
1480173510,649.7720725193659,42.338172972008913,-71.094336822229536,10.0,10.829534541989432,0.002938981683633231,0.0085589613488097939,0.00010081977201335975,0.00040815360051810548,0.0023154870932369782,1.710560083757924,2.8779195092745624,0.60326114537566367,-0.085392280832718256,6
1480173540,735.35161978855,42.339349279219604,-71.091317522405745,10.0,12.255860329809167,0.0044049908454069633,0.013562264256510411,0.00010081977201335975,0.0021527525981427484,0.0084749501550462434,1.9361470098309514,2.90857734285744,0.64135810928770354,-0.053585295618691235,6
1480173570,516.2075251551412,42.340685847021966,-71.088498981735768,10.0,8.603458752585686,0.0034385715484363364,0.013562264256510411,0.0031688281667095379,0.003767351695383414,0.0083459607187135396,1.9361470098309514,2.9242849028726572,1.252637765747086,-0.060217696013440868,6
1480173600,148.190465890632,42.341504070947273,-71.087693564660015,10.0,2.4698410981772,0.010225956587600688,0.031503030179376737,0.00080369576721314696,0.0035724247988123091,0.0088645957963541799,1.7347645210257752,2.8872083245116862,-0.16869717304630338,-0.082964974880584713,6
1480173630,200.09228521038372,42.341352355007409,-71.08876112296349,10.0,3.334871420173062,0.020833639935676895,0.061536211860213234,4.996260641346049e-05,0.0012754852507678234,0.024744447646505838,1.8043716191528456,2.7291495443149558,-2.0335818981415539,-0.05948584979657958,6
1480173660,5.7357182167242104,42.34122202689047,-71.08911019849694,10.75,0.09559530361207018,0.12106901425732908,0.30043841045004616,4.996260641346049e-05,0.0011535825611464069,0.16012103961528854,1.8043716191528456,2.3017362816969609,-1.0443917530198181,-0.13636087583159959,6
1480173690,13.497567591387645,42.341144635381504,-71.089155615839275,18.25,0.22495945985646074,0.11297676064092566,0.34194964034695041,0.00055989038797031425,0.1746391912093978,0.2900052746801256,1.791759469228055,1.8957502130958659,-0.49609518982004769,-0.16186229495735932,6
1480173720,37.21410790034092,42.340876006560727,-71.089099018435093,25.0,0.6202351316723487,0.12062093649794087,0.49555584563276273,0.13372345213732195,0.19908663145781688,0.36618229468148644,1.9459101490553139,1.9606188991833695,-1.021786214976818,-0.089721197458302718,6
1480173750,17.60074303367538,42.340593729207612,-71.089010814271035,25.0,0.29334571722792296,0.17194338489811542,0.49555584563276273,0.002719286872760887,0.064719773674292658,0.3236088646939097,1.9459101490553139,2.0000274999655003,-1.1765283410729783,-0.083992254413254905,6
1480173780,17.223830379511384,42.340434705645166,-71.088989344026061,25.0,0.28706383965852306,0.072723608976805673,0.21022986409760683,0.002719286872760887,0.025040562640428116,0.12618642521534409,1.791759469228055,2.0683664557939347,-0.80713673613196935,-0.11121753626794738,6
1480173810,53.57470879083197,42.340254065852939,-71.088807293280126,25.0,0.8929118131805328,0.15132886999391648,0.49739493917003319,0.015237853348790704,0.17674073938682533,0.37835728666809465,1.9459101490553139,2.1907555629310429,-0.55891491348811095,-0.15662648502701887,6
1480173840,57.56064667644903,42.339939734006627,-71.088558624564769,25.0,0.9593441112741505,0.15802913845523972,0.5187517506121222,0.066754833220042553,0.20293801070464806,0.44431832052405063,1.9459101490553139,2.258035531581712,-0.7810202614001146,-0.1907549898955295,6
1480173870,58.81073204674737,42.339587358797296,-71.08833453158951,25.0,0.9801788674457895,0.25210868519769586,0.7540510311384292,0.066754833220042553,0.1842046462770886,0.60576486249776884,1.791759469228055,2.2847875823739137,-0.73177284752820337,-0.1767696251141678,6
1480173900,35.38093409455006,42.339311682192921,-71.088140667948039,25.0,0.5896822349091676,0.26405631240028199,0.7540510311384292,0.013503901305121871,0.11711050181336699,0.4575940616067049,1.9459101490553139,2.1897231608349719,-0.55588331290152437,-0.079537446295783215,6
1480173930,20.300028563305872,42.339054942403315,-71.088100585687073,25.0,0.3383338093884312,0.44898290481989273,1.3800900899280819,0.013503901305121871,0.058139364450493149,0.2223234779777466,1.9459101490553139,2.1320368548318638,-0.71167744609303696,-0.057153079731721568,6
1480173960,27.172829793553937,42.338896838754742,-71.088207112691464,28.0,0.4528804965592323,0.46522635934376971,1.3800900899280819,0.027963736443803785,0.099111156647011811,0.3944068891153561,1.791759469228055,2.0942887128297096,-0.7657803873036434,-0.13768979583070459,6
1480173990,8.133531112352156,42.338920077581271,-71.088281581710191,53.833333333333336,0.13555885187253594,0.15227752441634171,0.44744770526179511,0.0081659011309043877,0.019135789198866812,0.1983478743154764,1.8937882323911377,1.9002899963073305,-0.57089083416608799,-0.21829444293810005,6
1480174020,2.8393647604161166e-09,42.338949549051314,-71.088283946803855,118.33333333333333,4.7322746006935276e-11,0.13045565057700642,0.38489016926005643,0.0067237474736369929,0.0092368715424171119,0.095945615035728141,1.8640435797520258,1.7842526235939975,-0.085372844666700989,-0.37635178349473636,6
1480174050,18.804731688096318,42.338926490959892,-71.088272650323134,145.31381752740489,0.3134121948016053,0.14107125441886251,0.38489016926005643,2.4234999152087417e-05,3.2495044407279177e-05,0.024540878455816144,1.6609474332869181,0.87323893971880073,0.88015603559446987,-0.27474292473052569,6
1480174080,2.4493179615241387,42.338834991743688,-71.088231165789523,68.754311907870516,0.04082196602540231,9.6243863941419154e-06,5.0236048891373722e-05,1.6716370863203287e-05,2.464475210354824e-05,2.8406663677204074e-05,1.945910149055313,-0.0087466322377767365,1.1789377102884622,0.0071486809253558008,6
1480174110,7.557267315492736,42.338874762342471,-71.088266866638989,65.0,0.12595445525821228,6.9596734078368146e-06,3.404729378487278e-05,1.3524925771578898e-05,1.7443748762042822e-05,2.8406663677204074e-05,1.945910149055313,-0.0085651032175365956,1.1801049744180576,0.0082034594091806023,6
1480174140,1.3759444561437715,42.338886364991097,-71.088285048869679,65.0,0.02293240760239619,7.1994979304541877e-06,3.404729378487278e-05,1.3524925771578898e-05,1.8348470634588133e-05,2.838419286944862e-05,1.7917594692280547,-0.0085647695715514709,1.1810263364109292,0.0083416475140411141,6
1480174170,0.9092448740559286,42.33888694960325,-71.088288238366417,65.0,0.015154081234265477,4.3801895888460961e-06,3.0586929777747823e-05,1.650009089277618e-05,1.9948125265919277e-05,2.5468090675314473e-05,1.945910149055313,-0.0086058131806618834,1.1816963898539046,0.0083865740903613911,6
1480174200,0.2924920199486097,42.338889500603017,-71.088289698866561,65.0,0.004874866999143495,1.1871157048956514e-05,4.812938950677306e-05,1.5002651080989489e-05,1.8757919434454628e-05,3.4264150329113614e-05,1.945910149055313,-0.0085741939543721914,1.1817529455379414,0.0083520282832180263,6
1480174230,4.6296110349201065,42.338866438876053,-71.088271619853685,65.0,0.0771601839153351,1.3079394734464995e-05,4.812938950677306e-05,1.2975490347482206e-05,1.9021489924771081e-05,4.076116338269838e-05,1.7917594692280547,-0.008507923544671921,1.1813356350739157,0.0082912089467821522,6
1480174260,0.20287058261936178,42.338864167566271,-71.088267006088486,65.0,0.003381176376989363,6.9322165528106794e-06,3.4676112710866747e-05,1.2975490347482206e-05,2.2588835815699212e-05,3.1713975933412913e-05,1.945910149055313,-0.0085322511951075857,1.1812327217236225,0.0083465333893337577,6
1480174290,1.5205475018883299,42.338889263902615,-71.088284236101742,65.0,0.025342458364805497,5.3206302709848387e-06,3.2349945410709969e-05,1.5512861992976577e-05,1.9382790490572487e-05,2.5218766785637936e-05,1.945910149055313,-0.0085669449157479132,1.1812133810761618,0.0083318495520736825,6
1480174320,0.664641751715751,42.338891517123365,-71.088288844031382,65.0,0.01107736252859585,5.3405409133166552e-06,2.5925896243954035e-05,9.9833430557636118e-06,1.4246397789864218e-05,2.1177238910258216e-05,1.7917594692280547,-0.0085841104242115225,1.1812093927494824,0.0082504993520390434,6
1480174350,0.5291569459528263,42.338892668759584,-71.088289562920139,65.0,0.008819282432547104,5.5911178772558582e-06,2.6186428797932315e-05,9.9833430557636118e-06,1.6141563546228956e-05,2.4169265299420966e-05,1.945910149055313,-0.008595760857867769,1.1816517401642344,0.0082785132739696034,6
1480174380,0.5499417931036719,42.338892681713283,-71.088286414683722,65.0,0.009165696551727864,4.7024837129433801e-06,2.6186428797932315e-05,1.2062388575621592e-05,1.6886478952552427e-05,2.3622610682823231e-05,1.945910149055313,-0.0086195545253777862,1.182134520677397,0.0083021809755948767,6
1480174410,0.4401622970212794,42.338894415399295,-71.088285278276388,65.0,0.00733603828368799,5.1159262203288887e-06,2.5099814711435852e-05,1.2062388575621592e-05,1.4174496938780056e-05,2.3229842794929102e-05,1.7917594692280547,-0.0085919472890539639,1.1824344063089667,0.0083626864837009155,6
1480174440,0.8816957707204696,42.33889045439004,-71.088281972010265,65.0,0.014694929512007826,4.9864041458063545e-06,3.0298785059792392e-05,1.3794637962326616e-05,1.8165082710304879e-05,2.2451773003176692e-05,1.945910149055313,-0.0085295719245797891,1.182489196635784,0.0083697492685195166,6
1480174470,0.6880355337939086,42.338885133924485,-71.088282045215919,65.0,0.011467258896565143,8.1699567702725441e-06,4.3449547611669888e-05,1.7908555273169013e-05,1.9731039985377549e-05,2.8614225947634372e-05,1.945910149055313,-0.0085397508812252963,1.1826178957060833,0.00832576338182703,6
1480174500,1.366605451326691,42.338886324259192,-71.088289027669632,65.0,0.022776757522111515,7.4757995056512191e-06,4.3449547611669888e-05,2.0119086323151747e-05,2.3583384485188165e-05,2.8870054929331164e-05,1.7917594692280547,-0.0085702015396405627,1.1830719806576961,0.0083457375738687344,6
1480174530,0.23822977676134846,42.338887509511196,-71.088288593052908,65.0,0.003970496279355808,8.0179380521971015e-06,4.1651190571233061e-05,1.4363568660920097e-05,2.1363365261196952e-05,2.896926201038481e-05,1.945910149055313,-0.0085577177780303132,1.1833473088343491,0.0082979898082973548,6
1480174560,0.3573533500117927,42.33888677208796,-71.088289259047144,65.0,0.005955889166863211,1.5774232546676541e-05,6.2316809949858001e-05,1.4363568660920097e-05,1.8713571713742512e-05,3.5036431815693291e-05,1.945910149055313,-0.0085421716228891043,1.1834180162421915,0.0082910061486715786,6
1480174590,0.3613298774755557,42.338886167583965,-71.088293193193181,65.0,0.0060221646245925955,1.5816877556856452e-05,6.2316809949858001e-05,1.5575259441032235e-05,1.8448369685944824e-05,2.5199585576165073e-05,1.7917594692280547,-0.0085585897471407209,1.1837152160745485,0.0084495692624305049,6
1480174620,1.2082914968541592,42.33889074331411,-71.088292350597854,65.0,0.020138191614235985,1.2204225773332666e-05,5.6848697523941061e-05,1.7313864919108836e-05,2.1801644528236663e-05,2.6091402183023597e-05,1.945910149055313,-0.0086935719332439428,1.1867183016643137,0.008691370799531797,6
1480174650,1.9137142159499025,42.3388939757683,-71.088287602151652,65.0,0.03189523693249838,1.2850690195768296e-05,5.6848697523941061e-05,1.6971601607039987e-05,2.0381063206869206e-05,3.1167945928062762e-05,1.945910149055313,-0.0087674150194698968,1.2121542886044308,0.0082493943952796096,6
1480174680,1.0279776433056607,42.338886061470134,-71.088277500687781,65.0,0.01713296072176101,6.9213212360237488e-06,3.5469654308431921e-05,1.6971601607039987e-05,1.9762005743462582e-05,3.1028115363225783e-05,1.7917594692280547,-0.008900859508172921,1.2308205564676113,0.0078839339185014252,6
1480174710,1.577565126398812,42.338875677416247,-71.088274797103864,65.0,0.026292752106646868,4.6328426787664826e-06,3.2637398638960593e-05,1.8005893357534288e-05,2.1168614305717004e-05,2.7202133915682296e-05,1.945910149055313,-0.009022224893021253,1.2183239702786484,0.0081951779777297076,6
1480174740,1.9250040421141994,42.338876407272039,-71.088278176001708,65.0,0.032083400701903325,4.8756610858994447e-06,3.4651063923991498e-05,1.8005893357534288e-05,2.2449321503092776e-05,2.6416631119690748e-05,1.945910149055313,-0.0093697724308091004,1.3542974274715902,0.0062921611704238488,6
1480174770,0.5683839268022478,42.338879577495405,-71.088276983197801,65.0,0.00947306544670413,5.7957648702139117e-06,3.4651063923991498e-05,1.6822883124378526e-05,2.2576861974551573e-05,2.8849790624746144e-05,1.7917594692280547,-0.0096795248412136978,1.5357258317149267,0.0037299142021199817,6
1480174800,1.568048601746374,42.338872818314549,-71.088267466281067,65.0,0.026134143362439567,7.2042201750968637e-06,3.7834286736375194e-05,1.5720099528800043e-05,1.8934979063806247e-05,2.7451897860176519e-05,1.945910149055313,-0.0095110850916400348,1.535915818287853,0.0037629532989411191,6
1480174830,1.8076278070122782,42.338875512265403,-71.088272709359686,65.0,0.030127130116871303,6.4565166783363666e-06,3.7834286736375194e-05,1.5720099528800043e-05,2.1251728887945786e-05,2.6623473681872036e-05,1.945910149055313,-0.0095496892523021463,1.5360785581815342,0.0038501630040574377,6
1480174860,1.288341115176215,42.33888491506741,-71.088283103134458,65.0,0.02147235191960358,3.3113031430141781e-06,2.8550790090219557e-05,1.9546681522937242e-05,2.0363658564709911e-05,2.57626338796539e-05,1.7917594692280547,-0.0095350537491422187,1.5359932881438232,0.0036943089764726895,6
1480174890,1.3402846314007688,42.3388939293269,-71.08828358747482,65.0,0.022338077190012812,4.4284058558856886e-06,2.8333865721991183e-05,1.4406792301840171e-05,1.8660098567564586e-05,2.3275151721125602e-05,1.945910149055313,-0.0095763020801294396,1.5357754855133188,0.0037305367038107085,6
1480174920,0.2758003104466662,42.338899304333871,-71.088285752143662,65.0,0.0045966718407777695,4.8898849279893061e-06,2.8333865721991183e-05,1.4406792301840171e-05,1.6877743348150498e-05,2.3549153008706231e-05,1.945910149055313,-0.0096890757712849718,1.5356982520365716,0.0039361509661097064,6
1480174950,7.155435834535059,42.338865111746557,-71.088264290541574,65.0,0.11925726390891764,4.0916616419850699e-06,2.6666128656858288e-05,1.5981971084109068e-05,1.8040989178284374e-05,2.5214709161011526e-05,1.7917594692280547,-0.0097513984528383359,1.5360550968052902,0.0040526402140053687,6
1480174980,6.955951188880559,42.338843677609091,-71.088251320406329,65.0,0.11593251981467598,5.7821312575658242e-06,3.2850412200297602e-05,1.6688546562791201e-05,1.7511099769744372e-05,2.5214709161011526e-05,1.7917594692280547,-0.0097900478557449554,1.5366573159110608,0.0041134052551574088,6
1480175010,6.871850564048765,42.338880098902173,-71.088271510944068,65.0,0.11453084273414608,6.954298952477952e-06,3.2850412200297602e-05,1.4194464114802518e-05,1.7048534332857606e-05,2.8101600355582773e-05,1.945910149055313,-0.0097981061349274919,1.5364753240885638,0.0041437403732336791,6
1480175040,1.1906915379948197,42.338900240519578,-71.088280106943557,65.0,0.01984485896658033,6.8478161248848482e-06,3.1831082054365121e-05,1.3685292853701974e-05,1.6590241175315106e-05,2.786502818790327e-05,1.945910149055313,-0.0097987083759977656,1.5360950210369064,0.0041223463816605034,6
1480175070,6.8442568366849414,42.338876633649264,-71.088279626947909,65.0,0.11407094727808235,5.7940913978305871e-06,3.1357937719006114e-05,1.3685292853701974e-05,2.3260994925032149e-05,2.8021484201395662e-05,1.7917594692280547,-0.0098238629588256465,1.5357159931672006,0.0041005245090597288,6
1480175100,0.9296237994799029,42.338871627909299,-71.088273492559708,65.0,0.015493729991331716,4.481010592068471e-06,2.8092101866582926e-05,1.5920558933737513e-05,2.0265896146947627e-05,2.7608493677919356e-05,1.945910149055313,-0.0098308087612800962,1.5355207285274213,0.0041657308033490464,6
1480175130,6.18550185712569,42.338877976783444,-71.088274034836701,65.0,0.1030916976187615,4.3404929751864436e-06,2.7666228360205192e-05,1.4970322611272522e-05,1.7126628383366491e-05,2.3870905437749306e-05,1.945910149055313,-0.0098541438784983167,1.5356400263098959,0.004249338966984692,6
1480175160,0.519669895788571,42.338869639780839,-71.088270923026045,65.0,0.008661164929809517,6.0046823956435088e-06,3.344290679360997e-05,1.4970322611272522e-05,2.058900381998475e-05,2.7633360979826418e-05,1.7917594692280547,-0.0097967407724092251,1.5359055318463595,0.0041242143858181484,6
1480175190,0.1395956683631313,42.338867686623701,-71.088273024042877,65.0,0.0023265944727188554,4.9726661699002353e-06,3.344290679360997e-05,1.9377092905012965e-05,2.1105792108253506e-05,2.9194227524294607e-05,1.945910149055313,-0.0095585340391939749,1.5357838563449897,0.0038012348618459055,6
1480175220,0.8552440074343913,42.338890466566795,-71.088286722638088,65.0,0.01425406679057319,3.5747840256712465e-06,3.0853696209899116e-05,2.0982896238204477e-05,2.1008597388465612e-05,2.4538644733491789e-05,1.945910149055313,-0.0094671606589357468,1.5355845097833607,0.0036879864948557955,6
1480175250,0.47643729877159396,42.33889303147005,-71.088287362625636,65.0,0.007940621646193233,5.3255493961974503e-06,3.2681288209956214e-05,1.5203719370235257e-05,1.9653326523591009e-05,2.2037437525180358e-05,1.7917594692280547,-0.0094848727396091691,1.5357002656828602,0.0037291990490449316,6
1480175280,0.34639570914727535,42.338892730084005,-71.088284662818168,65.0,0.005773261819121256,5.511230156156937e-06,3.2681288209956214e-05,1.5203719370235257e-05,2.067000480647119e-05,2.7538486843173292e-05,1.945910149055313,-0.0094876006832328129,1.5359649021398385,0.003733632349142852,6
1480175310,0.7771359087260717,42.338896096152254,-71.088285071476719,65.0,0.012952265145434528,4.7394351853511273e-06,2.9262047979800063e-05,1.593843936579974e-05,1.9113017609684508e-05,2.5773683230040274e-05,1.945910149055313,-0.0094486404174726046,1.536248578035373,0.0036697837201853769,6
1480175340,0.21561667306642174,42.338893140049493,-71.088287940536603,65.0,0.003593611217773696,3.5727271208004578e-06,2.509340838532586e-05,1.4584201954190331e-05,1.5976036394654625e-05,1.8889303428125289e-05,1.7917594692280547,-0.0094050385805092979,1.5364305393095277,0.0036178621089636089,6
1480175370,3.8195200332783106,42.338850998886251,-71.088265672431348,65.0,0.06365866722130517,3.0585408890972068e-06,2.4257543069771094e-05,1.4584201954190331e-05,1.6000634401383893e-05,1.9967718418754459e-05,1.945910149055313,-0.0094711335716843852,1.536529305928084,0.0036475010658514845,6
1480175400,1.5556905998968924,42.338832409958492,-71.08825363586115,65.0,0.02592817666494821,3.8836088302297903e-06,2.6730006938915801e-05,1.5861185975933146e-05,1.9113516560127597e-05,2.5275507824935401e-05,1.945910149055313,-0.0094989553650547502,1.536526553495285,0.003715902600804598,6
1480175430,1.4465476334577103,42.33886748610275,-71.088274414055491,65.0,0.02410912722429517,3.739080128410336e-06,2.6730006938915801e-05,1.5772394397389578e-05,2.0878995223726688e-05,2.5552464118000456e-05,1.7917594692280547,-0.0094982829182556228,1.5363406431214941,0.0037281971102027032,6
1480175460,4.698547163050681,42.338867058627542,-71.088270105939642,65.0,0.07830911938417802,6.0189031456628007e-06,2.8231476029818528e-05,7.0528994774959797e-06,1.6595053288851341e-05,2.1213000154646961e-05,1.945910149055313,-0.0095198922397147258,1.5365519747366163,0.0037579988842694812,6
1480175490,3.6447964656689855,42.338862585095193,-71.088269024060565,65.0,0.060746607761149755,6.614415904363465e-06,2.8231476029818528e-05,7.0528994774959797e-06,1.7003373314025146e-05,2.4935257473776075e-05,1.945910149055313,-0.0095051072821195383,1.536684278530758,0.0038184356052176826,6
1480175520,3.057270371443588,42.338879778547081,-71.088286712614135,65.0,0.050954506190726466,3.4065439660015699e-06,2.601138260818901e-05,1.6589034447737191e-05,1.7762733856770461e-05,2.2829668141889405e-05,1.7917594692280547,-0.0095171183976238676,1.5367097866626456,0.0038117333232095749,6
1480175550,1.737935266723809,42.338865838901889,-71.088270699905465,65.0,0.02896558777873015,6.8113796055184436e-06,3.565071152113859e-05,1.6337212848494672e-05,1.7030453585405087e-05,2.4285909763438526e-05,1.945910149055313,-0.0095085102618866525,1.536785507213793,0.0036632443129512656,6
1480175580,5.112690954572978,42.33886851425892,-71.088262692313862,65.0,0.08521151590954963,7.7566835426357148e-06,3.565071152113859e-05,1.4984514429688955e-05,1.6643567197988531e-05,3.0053387495586933e-05,1.945910149055313,-0.0092568661844120957,1.5377797180813402,0.0033994720896580797,6
1480175610,0.4100026214160897,42.33890107706199,-71.088275721849897,65.0,0.006833377023601495,0.00057215370627192326,0.0015569347906043461,1.4984514429688955e-05,1.6079919999927362e-05,3.0609673478968623e-05,1.7917594692280547,-0.0090239030087824416,1.5391360679086785,0.0031153015686381305,6
1480175640,1.2219248848837294,42.338900278523077,-71.088276335042593,65.0,0.020365414748062156,0.00053872581239147754,0.0015569347906043461,1.2512426025862948e-05,1.4208484457780499e-05,2.2572751650804932e-05,1.945910149055313,-0.0091063485289428047,1.5390605348324748,0.0031129822425322489,6
1480175670,0.5805806248652267,42.338893904881971,-71.088281526627071,65.0,0.009676343747753778,4.6079127828666565e-06,2.5209573343346672e-05,1.2512426025862948e-05,1.4697525646780238e-05,2.2572751650804932e-05,1.945910149055313,-0.0091296749787610886,1.538881974810214,0.0031658691690707613,6
1480175700,9.559432813408893,42.338876088411297,-71.088267599980441,65.0,0.15932388022348157,4.7669101002630027e-06,3.0347953410439142e-05,1.6237246342985087e-05,1.9311069563239194e-05,2.5389261850545408e-05,1.7917594692280547,-0.0091506721239487856,1.5385929548602331,0.0032071243684477272,6
1480175730,1.3155926288021544,42.338864585975941,-71.088252940818592,65.0,0.02192654381336924,1.8415819159295411e-05,7.2594689084981394e-05,1.7759398596293583e-05,2.1920197650845408e-05,3.9889886552174741e-05,1.945910149055313,-0.0091477786794860929,1.5378936520625446,0.0036603148501892246,6
1480175760,4.9021106000454315,42.33888270387407,-71.088264215474723,65.0,0.08170184333409053,1.9990611579392469e-05,7.2594689084981394e-05,1.536396162633952e-05,1.8874745669572227e-05,3.5898771961855646e-05,1.945910149055313,-0.009184297732368377,1.5370422044971799,0.0043200660706285924,6
1480175790,1.8905378705557034,42.338900481268645,-71.088280339952206,65.0,0.031508964509261723,3.8007537359712902e-06,2.5599637040152373e-05,1.4898726143905239e-05,1.6520494405467356e-05,2.2146788266639382e-05,1.7917594692280547,-0.0092906414868022986,1.5363648468144226,0.0048673846861027065,6
1480175820,1.3542034117861002,42.338899929873996,-71.08828717141877,65.0,0.022570056863101668,3.8969730136688015e-06,2.7177145746939583e-05,1.4898726143905239e-05,1.9010122257275459e-05,2.3895766938669935e-05,1.945910149055313,-0.0094659458370345579,1.5367331182786939,0.0049281564408329964,6
1480175850,0.5506228743674799,42.33889330394863,-71.088285631503808,65.0,0.009177047906124666,5.1652379759927983e-06,2.7177145746939583e-05,1.0302901127092851e-05,1.6662997718260776e-05,2.2748633757305349e-05,1.945910149055313,-0.0095276112267904545,1.5371871997220408,0.0048911647015811638,6
1480175880,2.1640563458936977,42.338891339744514,-71.088277755390862,65.0,0.03606760576489496,6.2915526207130642e-06,2.3305370677423202e-05,5.703087817278212e-06,1.0622066355743919e-05,2.0257916120029243e-05,1.7917594692280547,-0.0094298574649196911,1.5372356716168651,0.0047924469114555921,6
1480175910,0.23739771606461524,42.338891498519089,-71.088270731144391,65.0,0.00395662860107692,6.1404712041816962e-06,2.3623318850627884e-05,5.703087817278212e-06,1.3233394532073212e-05,2.2396409150552089e-05,1.945910149055313,-0.0093844445313312607,1.5372143677737022,0.0047684404964787597,6
1480175940,4.970069422177813,42.338895668946464,-71.08827889289411,65.0,0.08283449036963023,4.4796899303221844e-06,2.9256175027175796e-05,1.4887227022449296e-05,1.8228779787637255e-05,2.3206215136181352e-05,1.945910149055313,-0.0094764813998696341,1.5372648443735593,0.0048443439713345476,6
1480175970,2.6631687319403436,42.338907640486909,-71.088287118488481,65.0,0.044386145532339064,6.0623954675458098e-06,3.3196452524021827e-05,1.4609649900208314e-05,2.0765573154228744e-05,2.7448387234912524e-05,1.7917594692280547,-0.0093888973559857151,1.5369933596662293,0.0050350573052218269,6
1480176000,0.7724521001104998,42.33890753137797,-71.088282844606823,65.0,0.01287420166850833,1.0008208165626389e-05,4.0803107138107721e-05,1.146083734573718e-05,1.5049020875989354e-05,2.7610738191072266e-05,1.945910149055313,-0.0091902178450906924,1.536562846284474,0.0051337060143906155,6
1480176030,2.9772520375353,42.338899834585433,-71.088283673427,65.0,0.049620867292255004,9.0990272717017041e-06,4.0803107138107721e-05,1.146083734573718e-05,1.6688213398312056e-05,2.2750805308903571e-05,1.945910149055313,-0.0091543161255404366,1.5362532665626596,0.0051056626582688652,6
1480176060,0.3619883387607149,42.33889954637484,-71.088289054975505,65.0,0.0060331389793452485,4.5540316517267616e-06,2.7320529177225852e-05,1.1857539663681983e-05,1.7912806246525418e-05,1.9841450155717764e-05,1.7917594692280547,-0.0091481739223148589,1.5361276651204874,0.0050818774057924971,6
1480176090,0.5360651058650902,42.338900668914476,-71.088291209053139,65.0,0.008934418431084836,6.5131720084525128e-06,2.9756331253921751e-05,9.6269488876621893e-06,1.517316715751573e-05,2.3621696860287668e-05,1.945910149055313,-0.0093650621219373755,1.5360162688701207,0.0048570950939306624,6
1480176120,3.338571759173052,42.3389041050497,-71.08828660014008,65.0,0.0556428626528842,6.9423423611432598e-06,3.1780377545989193e-05,9.6269488876621893e-06,2.2397899569823934e-05,2.9661693518073664e-05,1.945910149055313,-0.0095708657665949694,1.5361097974015785,0.004645211954733222,6
1480176150,0.5041553073753496,42.338904290235362,-71.088281943775229,65.0,0.008402588456255827,8.5174512392037699e-06,4.1937240567208693e-05,1.763106194513296e-05,1.9569191437618269e-05,3.1227047105048287e-05,1.7917594692280547,-0.0096350176379086851,1.5360464027711223,0.0044420548494791328,6
1480176180,0.49288146725155235,42.338907115379513,-71.088278052420804,65.0,0.008214691120859206,8.182132906674099e-06,4.1937240567208693e-05,1.7418374917775395e-05,1.7535341303722532e-05,2.1262699184286037e-05,1.945910149055313,-0.0099511365593369806,1.5357027607014289,0.0038811237165721755,6
1480176210,1.9512249709928742,42.33891107745891,-71.088275426675182,65.0,0.03252041618321457,7.6372078889429765e-06,4.0770497905297698e-05,1.7418374917775395e-05,1.9274890656229343e-05,2.6176028358442427e-05,1.945910149055313,-0.01035538464654316,1.5355837008638396,0.0035851140227546848,6
1480176240,0.672751298061705,42.338910986428289,-71.088276209744521,65.0,0.01121252163436175,8.578315940432636e-06,4.0770497905297698e-05,1.2636746177889814e-05,2.4714976108050478e-05,3.1264012675147137e-05,1.7917594692280547,-0.010513843101280174,1.5354340748399828,0.0036624830881373267,6
1480176270,3.9290281430314273,42.338892538963655,-71.088267593837244,65.0,0.06548380238385712,7.9329493637176524e-06,3.4861890148044756e-05,1.2636746177889814e-05,1.7529863309956018e-05,3.1016166563270638e-05,1.945910149055313,-0.010491361130025861,1.535770511924315,0.0035885404696280646,6
1480176300,1.4160537684956676,42.338885499042114,-71.088260606079302,65.0,0.023600896141594458,6.7622239498541961e-06,3.4861890148044756e-05,1.1719024930548241e-05,1.7529863309956018e-05,2.2619173771780678e-05,1.945910149055313,-0.010532667450857427,1.5360648835480053,0.0035660614508577354,6
1480176330,5.019498580118196,42.338907120908956,-71.08827777373881,65.0,0.08365830966863659,8.9932759572210907e-06,4.0429688206801411e-05,1.1719024930548241e-05,1.7570186082884889e-05,2.3610048775582639e-05,1.7917594692280547,-0.010585880144497802,1.536635864512897,0.0037531303560984735,6
1480176360,0.6960752765345494,42.33891261661924,-71.088283149481001,65.0,0.011601254608909156,7.7755567610608363e-06,4.0429688206801411e-05,1.713971138264411e-05,1.7577498424113239e-05,2.2671584401439642e-05,1.945910149055313,-0.010575442438046994,1.5365590979183172,0.0037687898864149126,6
1480176390,0.6039048629436702,42.338905051026686,-71.088281097940893,65.0,0.01006508104906117,3.1290150452055837e-06,2.4277938158317242e-05,1.5831078200113341e-05,1.7150160559966815e-05,2.0846395265703428e-05,1.945910149055313,-0.010398685406588119,1.5359975691419796,0.0037559003557015298,6
1480176420,1.1589888458097617,42.338901926928678,-71.088286595914525,65.0,0.019316480763496027,4.7645686124223892e-06,2.3613360015504366e-05,1.1287599219905395e-05,1.3271758288514007e-05,2.1573733847285265e-05,1.7917594692280547,-0.010253363396798323,1.5357000929231563,0.0039027075518027025,6
1480176450,0.6755004531639413,42.338904123858285,-71.088289502340174,65.0,0.011258340886065688,6.7116805036012169e-06,3.2322325982684117e-05,1.1287599219905395e-05,1.6315141792013639e-05,2.3973893801087527e-05,1.945910149055313,-0.010346574486940218,1.5359796125091187,0.0040425946219205134,6
1480176480,1.4769488551668244,42.338900000934181,-71.088276133198605,65.0,0.024615814252780407,7.138550378748528e-06,3.2322325982684117e-05,8.3621719141553176e-06,1.9750215252158361e-05,2.6713474057076959e-05,1.945910149055313,-0.010340891125558232,1.5362915565759039,0.0040525376781515706,6
1480176510,2.483238514494365,42.33889877634023,-71.088268241175413,65.0,0.041387308574906086,3.6468585408537967e-05,0.0001166832606885729,8.3621719141553176e-06,1.9011579643811287e-05,2.8201164726698316e-05,1.7917594692280547,-0.010172103361509772,1.5363036496035072,0.0038347749739748908,6
1480176540,4.786087968348047,42.338889163392693,-71.088258667813804,65.0,0.07976813280580079,3.417941972988032e-05,0.0001166832606885729,1.0608703517633857e-05,1.846277309650999e-05,2.5327474836274961e-05,1.945910149055313,-0.010160446553291486,1.5363894544481069,0.0038759410729446784,6
1480176570,1.6052571435377685,42.338884251298325,-71.088258257066855,65.0,0.026754285725629476,4.8307365082019251e-06,2.6919488388471149e-05,1.0608703517633857e-05,1.8226171951968243e-05,2.2983479686451245e-05,1.945910149055313,-0.010211901358751635,1.5362320924999922,0.00399853218746315,6
1480176600,0.3584328141908261,42.338886832429445,-71.088271937266612,65.0,0.005973880236513769,7.3566805678644045e-06,3.342139227812321e-05,1.2545511885052188e-05,1.4748595721907671e-05,2.575470071059744e-05,1.7917594692280547,-0.01027511015277602,1.5358259143936115,0.0039991269490698145,6
1480176630,0.45960048332113185,42.3388822247978,-71.088272517270539,65.0,0.007660008055352197,1.0663736790479055e-05,4.3232894584523906e-05,1.2545511885052188e-05,1.4424772253400102e-05,2.8513029477303115e-05,1.945910149055313,-0.010384188284234952,1.5356844778671419,0.0040955273530145159,6
1480176660,4.420311150363734,42.338882081823186,-71.088267317164167,65.0,0.07367185250606223,8.6663867429925245e-06,4.3232894584523906e-05,1.5333407226077865e-05,1.8681800949495739e-05,2.7964624487521098e-05,1.945910149055313,-0.010422350308630941,1.5357065714841143,0.0041696017079019213,6
1480176690,2.406347316024092,42.338882160071911,-71.088269506876927,65.0,0.04010578860040153,6.8178133687889303e-06,2.8463534212209633e-05,1.1260038559973889e-05,1.3221228252371821e-05,2.5652083652757404e-05,1.7917594692280547,-0.010313491244008733,1.5355172188907009,0.0040798027474492045,6
1480176720,2.0593974268171036,42.338881472717631,-71.088275432388514,65.0,0.034323290446951725,6.9992424351500541e-06,2.9454738055787723e-05,1.1260038559973889e-05,1.1429220783834298e-05,2.3332355682091235e-05,1.945910149055313,-0.010325598949450458,1.5352222246626914,0.0040081003025403501,6
1480176750,2.777438765977112,42.338891251928153,-71.088282171706027,65.0,0.04629064609961853,6.3723840756685175e-06,2.9454738055787723e-05,1.1498926629333491e-05,1.9601873217656689e-05,2.791533972104852e-05,1.945910149055313,-0.010161823481550104,1.5351021753746985,0.0038125116917928784,6
1480176780,2.2923074382478172,42.338889097166025,-71.088283210445127,65.0,0.03820512397079696,6.4763032432621475e-06,3.0971072197634941e-05,1.4543897956339398e-05,1.6942524253582482e-05,2.8587851879798398e-05,1.7917594692280547,-0.0098040096461061831,1.5352098632140321,0.0036128609187760061,6
1480176810,0.2659300305468258,42.338883601457795,-71.08828228723857,65.0,0.00443216717578043,1.0368379488696202e-05,4.2014422558713668e-05,1.2702174575983589e-05,1.4117015682814404e-05,2.4387265066500418e-05,1.945910149055313,-0.010045129308835523,1.5353248328827147,0.0038520154406448057,6
1480176840,0.45538494803249957,42.338886631309215,-71.088282065892727,65.0,0.0075897491338749925,9.7837420295842527e-06,4.2014422558713668e-05,1.2702174575983589e-05,1.4814845601890359e-05,2.3854308904840816e-05,1.945910149055313,-0.010196055406574022,1.535238433658628,0.0039158012169738443,6
1480176870,0.47752991113030285,42.338891327980527,-71.088285169371218,65.0,0.007958831852171715,9.7865907132831039e-06,4.4432773551688935e-05,1.5939557794491309e-05,1.7731963901765829e-05,2.8167485680496319e-05,1.7917594692280547,-0.010318835506953413,1.535114795833781,0.0039296557491228208,6
1480176900,1.253036166484127,42.338886373246289,-71.088279670764649,65.0,0.020883936108068782,1.4104389843079175e-05,5.1446974241184818e-05,1.0191124022235079e-05,1.8588311354222229e-05,4.0745775177735888e-05,1.945910149055313,-0.010374821808635828,1.535006727346879,0.0039498953991227576,6
1480176930,0.5291350504161791,42.33888387935454,-71.088276075832525,65.0,0.008818917506936318,1.3545180036866988e-05,5.1446974241184818e-05,1.0191124022235079e-05,1.5537651101823197e-05,3.1215460368430679e-05,1.945910149055313,-0.010337954860086302,1.5350498924294969,0.003944484663995388,6
1480176960,1.777500992465453,42.338898749735975,-71.088286067927839,65.0,0.029625016541090884,6.9739340448130141e-06,3.5178624740476705e-05,1.296795760942847e-05,1.8288747137171943e-05,2.4491784141527057e-05,1.7917594692280547,-0.010350223380013001,1.5350492902523785,0.0039879004205936432,6
1480176990,0.29971641568348156,42.338900006754869,-71.088287812146376,65.0,0.004995273594724693,5.8853916533429447e-06,3.5178624740476705e-05,1.6600216181101991e-05,1.8197660472617443e-05,2.2435045122267858e-05,1.945910149055313,-0.010316685376756052,1.5339228293131648,0.0040661635316441447,6
1480177020,0.5265400418636863,42.338891047394881,-71.088287429984064,65.0,0.008775667364394772,3.7595142545298987e-06,2.5952178559132024e-05,1.495313291111099e-05,1.6158692624094658e-05,2.079141503602715e-05,1.945910149055313,-0.010282758512669975,1.5329730589099473,0.0041059555626668043,6
1480177050,1.1632337603714868,42.338891212731149,-71.088286559755701,65.0,0.019387229339524782,3.8732627789292351e-06,2.5952178559132024e-05,1.4599255012328115e-05,1.5144141950105075e-05,1.8633077304074725e-05,1.7917594692280547,-0.010292698468388843,1.5328075211535674,0.0041015646091509756,6
1480177080,2.751427526517044,42.338892379976073,-71.088282935462047,65.0,0.04585712544195073,5.3570689776961107e-06,3.1703982931978254e-05,1.4599255012328115e-05,1.8512399284112157e-05,2.2153437050718729e-05,1.945910149055313,-0.010275727015693044,1.5325747643125278,0.004127775446833788,6
1480177110,1.3546943553700468,42.338891588829426,-71.08828096735742,65.0,0.022578239256167445,7.5506922365464732e-06,3.1703982931978254e-05,8.9965602572684837e-06,1.6402932113762643e-05,2.7250830008822579e-05,1.945910149055313,-0.010259341708202488,1.5324957931378542,0.0041089227941265658,6
1480177140,1.142860145987885,42.338888508324295,-71.088284522726951,65.0,0.019047669099798086,6.6693398517577316e-06,2.8850871801294689e-05,8.9965602572684837e-06,1.5665644244630083e-05,2.4614649973854237e-05,1.7917594692280547,-0.010265508733013965,1.5327007017401906,0.0041045900352472946,6
1480177170,0.45841456128761277,42.338886155862554,-71.088287857375406,65.0,0.0076402426881268795,6.1082902345724642e-06,2.6920668075780464e-05,9.7754918299348031e-06,1.5943207243947599e-05,2.4663500574684376e-05,1.945910149055313,-0.010338468243370693,1.5330848212989854,0.0041659091122546879,6
1480177200,0.6740517916429132,42.338886629249245,-71.088282934003047,65.0,0.011234196527381887,6.0752856439851321e-06,2.6920668075780464e-05,9.7754918299348031e-06,1.5710332576888765e-05,2.4330061294866459e-05,1.945910149055313,-0.010459544861281141,1.5332405808687852,0.004146892321785404,6
1480177230,0.5062730484562464,42.338881434118463,-71.088280188659496,65.0,0.00843788414093744,4.5171857466587548e-06,2.5222161411805261e-05,1.2083650995068396e-05,1.4992981208416126e-05,2.1444246149125686e-05,1.7917594692280547,-0.010537657496413591,1.5332824971183996,0.0041362807739677284,6
1480177260,0.3906580901742411,42.338885643293466,-71.088286085690484,65.0,0.0065109681695706845,6.410858658318285e-06,3.1515098024252959e-05,1.2083650995068396e-05,1.6179361924989722e-05,2.5429806881743454e-05,1.945910149055313,-0.010437830259456759,1.5333141985520877,0.0040917388399251461,6
1480177290,1.5544599154464542,42.338889408140552,-71.088286168263622,65.0,0.025907665257440905,1.0847840830456256e-05,5.3394372439648706e-05,1.8950264757620775e-05,2.2346971955891496e-05,2.8522491318409563e-05,1.945910149055313,-0.010308202107544356,1.5333464882166443,0.0039363345061591542,6
1480177320,0.40788624617005614,42.338888666740601,-71.088284914144566,65.0,0.006798104102834269,1.2122909318886424e-05,5.3394372439648706e-05,1.8564661684088462e-05,1.9337263907084528e-05,2.720199045017581e-05,1.7917594692280547,-0.010035516713040447,1.5331703218818837,0.0035683480134154487,6
1480177350,0.9437798207052583,42.338890428900676,-71.088284724951961,65.0,0.015729663678420974,5.7634015066142055e-06,2.810849041251011e-05,9.6698327492001753e-06,1.4689250536971628e-05,2.0883873857569954e-05,1.945910149055313,-0.0098627886312429025,1.5326125932885899,0.0033266745956460364,6
1480177380,1.0458692320632308,42.338891229730613,-71.088287566295307,65.0,0.017431153867720515,4.8228907769577948e-06,2.3115624729902509e-05,9.6698327492001753e-06,1.4305032494794491e-05,2.1494969569331256e-05,1.945910149055313,-0.0098227038127195829,1.5323977166404636,0.003323407117063712,6
1480177410,1.3273607891663295,42.338894381095223,-71.088293233251733,65.0,0.022122679819438825,5.0437678618451713e-06,2.3115624729902509e-05,8.3860363328515145e-06,1.8016705521172278e-05,2.215767219911567e-05,1.7917594692280547,-0.0098093469988378736,1.531913949125012,0.0033396234007743212,6
1480177440,1.8896892471805493,42.338890603427437,-71.088284217189582,65.0,0.03149482078634249,6.243896604567432e-06,2.9873740519555205e-05,8.3860363328515145e-06,1.8233013466451481e-05,2.3788877420050475e-05,1.945910149055313,-0.010040043486711238,1.5317021176080268,0.0035459708864059108,6
1480177470,0.8383767528830407,42.338886305928654,-71.088280195113526,65.0,0.013972945881384011,4.8264599101070175e-06,3.0674006270389384e-05,1.7222514590794244e-05,1.9879203205594899e-05,2.7587441709793347e-05,1.945910149055313,-0.010083762711749754,1.5321548664252498,0.0036663768145657129,6
1480177500,0.07414833698946928,42.338882213500717,-71.088279511481332,65.0,0.0012358056164911548,1.2883390888523335e-05,5.6870740749049254e-05,1.7307213652450992e-05,2.1711456276818682e-05,3.0744580701137271e-05,1.7917594692280547,-0.0098291032394426606,1.4694855557652877,0.0045634065971764861,6
1480177530,0.9985085181740264,42.338885463993265,-71.088280224625606,65.0,0.016641808636233775,3.4449584190001537e-05,0.00012023903984544878,1.6566790738510606e-05,1.987431529686634e-05,4.3819423130217911e-05,1.945910149055313,-0.009720347459111791,1.3701721448148809,0.0059500180193517802,6
1480177560,0.7698429007611403,42.338892119774265,-71.088292271796888,65.0,0.012830715012685671,3.4779167708218786e-05,0.00012023903984544878,1.4686022919554724e-05,1.780414556157698e-05,3.1116626973324683e-05,1.945910149055313,-0.0096554274893484848,1.308192591055674,0.0067533983045171275,6
1480177590,1.844970917037173,42.338891930017837,-71.088293001650172,65.0,0.030749515283952884,7.1675984413826805e-06,3.4382520828474035e-05,1.4686022919554724e-05,2.0425298919539737e-05,3.1617128378841783e-05,1.7917594692280547,-0.0091701313880049127,1.1798817028617743,0.0085721873530168642,6
1480177620,0.31409611710153623,42.338891098554917,-71.088287310164802,65.0,0.005234935285025604,7.8543139203505073e-06,3.3859243721472659e-05,8.1345735967299369e-06,1.8354517071081753e-05,2.6635441805136737e-05,1.945910149055313,-0.0088743832844231478,1.0977022770093847,0.0097413907723468019,6
